~Version Information
VERS.                     2.0: CWLS log ASCII Standard Version 2.00
WRAP.                     YES: Multiple lines per depth step
~Well Information Block
#MNEM.UNIT                               Data Type  Information
#---------                               ---------  -----------
STRT.FT                                   800.0000:
STOP.FT                                  5530.0000:
STEP.FT                                     0.5000:
NULL.                 -999.25                     :
COMP.                                             :COMPANY            
WELL.     SANTIAGO B 73-29                        :WELL               
FLD .                                             :FIELD              
CTRY.                                             :COUNTRY            
STAT.                                             :STATE              
LOC .                                             :LOCATION           
UWI .                                             :UNIQUE WELL ID     
SRVC.                                             :Service company    
DATE.                                             :LOG DATE           
~Curve Information
#MNEM.UNIT           API CODE  Curve Description
#---------           --------  -----------------
DEPT.FT                      :   1 DEPTH
SP  .MV                      :   2
GR  .GAPI                    :   3
ILD .OHMM                    :   4
ILM .OHMM                    :   5
SFL .OHMM                    :   6
DT  .US/F                    :   7
CALI.IN                      :   8
KSCI.                        :   9
PSCI.                        :  10
OSCI.                        :  11
WSCI.                        :  12
GR  .GAPI                    :  13
RHOB.G/C3                    :  14
NPHI.PU-S                    :  15
DRHO.G/C3                    :  16
SBL .MV                      :  17
GRS .GAPI                    :  18
RD  .OHMM                    :  19
RM  .OHMM                    :  20
RS  .OHMM                    :  21
R0BS.G/C3                    :  22
DRHS.G/C3                    :  23
GRS .GAPI                    :  24
NPHS.PU-S                    :  25
DTS .US/F                    :  26
CALS.IN                      :  27
SFLC.OHMM                    :  28
ILMC.OHMM                    :  29
ILDC.OHMM                    :  30
R0BC.G/C3                    :  31
GRC .GAPI                    :  32
NPHC.PU-S                    :  33
~A
# ...
  1148.000 
 -34.258  93.366  4.5720  3.2530  3.8390  171.23  10.119 -999.25 -999.25 
 -999.25 -999.25 -999.25 -999.25 -999.25 -999.25 -10.258  93.366  4.5720 
  3.2530  3.8390 -999.25 -999.25 -999.25 -999.25  164.64  10.158  4.1851 
  3.2723  4.5685 -999.25 -999.25 -999.25 
  1148.500 
 -34.060  94.554  4.0930  3.1930  3.6660  175.63  10.099 -999.25 -999.25 
 -999.25 -999.25 -999.25 -999.25 -999.25 -999.25 -10.060  94.554  4.0930 
  3.1930  3.6660 -999.25 -999.25 -999.25 -999.25  171.23  10.119  3.9946 
  3.2112  4.0901 -999.25 -999.25 -999.25 
  1149.000 
 -33.862  93.564  3.9090  3.2520  3.6320  179.62  10.099 -999.25 -999.25 
 -999.25 -999.25 -999.25 -999.25 -999.25 -999.25 -9.8620  93.564  3.9090 
  3.2520  3.6320 -999.25 -999.25 -999.25 -999.25  175.63  10.099  3.9562 
  3.2707  3.9064 -999.25 -999.25 -999.25 
  1149.500 
 -33.862  91.979  3.9080  3.4050  3.6310  178.23  10.099 -999.25 -999.25 
 -999.25 -999.25 -999.25 -999.25 -999.25 -999.25 -9.8620  91.979  3.9080 
  3.4050  3.6310 -999.25 -999.25 -999.25 -999.25  179.62  10.099  3.9551 
  3.4255  3.9054 -999.25 -999.25 -999.25 
  1150.000 
 -33.862  90.396  3.9800  3.6980  3.6300  170.64  10.099 -999.25 -999.25 
 -999.25 -999.25 -999.25 -999.25 -999.25 -999.25 -9.8620  90.396  3.9800 
  3.6980  3.6300 -999.25 -999.25 -999.25 -999.25  178.23  10.099  3.9540 
  3.7221  3.9773 -999.25 -999.25 -999.25 
  1150.500 
 -34.456  89.801  4.0160  4.0530  3.6290  158.46  10.099 -999.25 -999.25 
 -999.25 -999.25 -999.25 -999.25 -999.25 -999.25 -10.456  89.801  4.0160 
  4.0530  3.6290 -999.25 -999.25 -999.25 -999.25  170.64  10.099  3.9529 
  4.0820  4.0132 -999.25 -999.25 -999.25 
  1151.000 
 -35.248  89.009  4.2430  5.1470  3.6620  148.88  10.099 -999.25 -999.25 
 -999.25 -999.25 -999.25 -999.25 -999.25 -999.25 -11.248  89.009  4.2430 
  5.1470  3.6620 -999.25 -999.25 -999.25 -999.25  158.46  10.099  3.9886 
  5.1939  4.2399 -999.25 -999.25 -999.25 
  1151.500 
 -36.436  88.218  4.8700  5.9070  3.9410  146.88  10.099 -999.25 -999.25 
 -999.25 -999.25 -999.25 -999.25 -999.25 -999.25 -12.436  88.218  4.8700 
  5.9070  3.9410 -999.25 -999.25 -999.25 -999.25  148.88  10.099  4.2900 
  5.9688  4.8659 -999.25 -999.25 -999.25 
  1152.000 
 -39.802  86.435  5.5890  6.6560  4.4820  143.89  10.099 -999.25 -999.25 
 -999.25 -999.25 -999.25 -999.25 -999.25 -999.25 -15.802  86.435  5.5890 
  6.6560  4.4820 -999.25 -999.25 -999.25 -999.25  146.88  10.099  4.8741 
  6.7346  5.5836 -999.25 -999.25 -999.25 
  1152.500 
 -43.763  85.049  6.2980  8.0730  5.0500  137.90  10.119 -999.25 -999.25 
 -999.25 -999.25 -999.25 -999.25 -999.25 -999.25 -19.763  85.049  6.2980 
  8.0730  5.0500 -999.25 -999.25 -999.25 -999.25  143.89  10.099  5.4871 
  8.1889  6.2912 -999.25 -999.25 -999.25 
  1153.000 
 -46.535  82.079  6.9670  8.7680  6.2390  133.71  10.158 -999.25 -999.25 
 -999.25 -999.25 -999.25 -999.25 -999.25 -999.25 -22.535  82.079  6.9670 
  8.7680  6.2390 -999.25 -999.25 -999.25 -999.25  137.90  10.119  6.7727 
  8.9066  6.9587 -999.25 -999.25 -999.25 
  1153.500 
 -48.515  79.505  7.9230  9.4350  7.0300  131.32  10.178 -999.25 -999.25 
 -999.25 -999.25 -999.25 -999.25 -999.25 -999.25 -24.515  79.505  7.9230 
  9.4350  7.0300 -999.25 -999.25 -999.25 -999.25  133.71  10.158  7.6334 
  9.5993  7.9125 -999.25 -999.25 -999.25 
  1154.000 
 -49.109  75.940  8.7640  10.061  7.9210  136.11  10.178 -999.25 -999.25 
 -999.25 -999.25 -999.25 -999.25 -999.25 -999.25 -25.109  75.940  8.7640 
  10.061  7.9210 -999.25 -999.25 -999.25 -999.25  131.32  10.178  8.5995 
  10.250  8.7513 -999.25 -999.25 -999.25 
  1154.500 
 -49.307  74.554  9.3460  10.340  8.1410  137.91  10.198 -999.25 -999.25 
 -999.25 -999.25 -999.25 -999.25 -999.25 -999.25 -25.307  74.554  9.3460 
  10.340  8.1410 -999.25 -999.25 -999.25 -999.25  136.11  10.178  8.8369 
  10.540  9.3316 -999.25 -999.25 -999.25 
  1155.000 
 -48.713  75.147  9.6940  10.434  8.2150  139.31  10.198 -999.25 -999.25 
 -999.25 -999.25 -999.25 -999.25 -999.25 -999.25 -24.713  75.147  9.6940 
  10.434  8.2150 -999.25 -999.25 -999.25 -999.25  137.91  10.198  8.9217 
  10.640  9.6787 -999.25 -999.25 -999.25 
  1155.500 
 -48.911  75.841  9.6030  10.432  8.2890  142.31  10.198 -999.25 -999.25 
 -999.25 -999.25 -999.25 -999.25 -999.25 -999.25 -24.911  75.841  9.6030 
  10.432  8.2890 -999.25 -999.25 -999.25 -999.25  139.31  10.198  9.0016 
  10.638  9.5879 -999.25 -999.25 -999.25 
  1156.000 
 -49.902  76.535  9.2550  10.335  8.7580  147.11  10.188 -999.25 -999.25 
 -999.25 -999.25 -999.25 -999.25 -999.25 -999.25 -25.902  76.535  9.2550 
  10.335  8.7580 -999.25 -999.25 -999.25 -999.25  142.31  10.198  9.5081 
  10.537  9.2410 -999.25 -999.25 -999.25 
  1156.500 
 -50.496  77.920  9.0840  10.051  8.7560  146.91  10.178 -999.25 -999.25 
 -999.25 -999.25 -999.25 -999.25 -999.25 -999.25 -26.496  77.920  9.0840 
  10.051  8.7560 -999.25 -999.25 -999.25 -999.25  147.11  10.188  9.5033 
  10.241  9.0704 -999.25 -999.25 -999.25 
  1157.000 
 -49.902  77.920  9.0000  9.8670  8.7550  145.91  10.178 -999.25 -999.25 
 -999.25 -999.25 -999.25 -999.25 -999.25 -999.25 -25.902  77.920  9.0000 
  9.8670  8.7550 -999.25 -999.25 -999.25 -999.25  146.91  10.178  9.4996 
  10.049  8.9866 -999.25 -999.25 -999.25 
  1157.500 
 -49.109  77.920  8.9980  9.5090  8.5150  145.92  10.178 -999.25 -999.25 
 -999.25 -999.25 -999.25 -999.25 -999.25 -999.25 -25.109  77.920  8.9980 
  9.5090  8.5150 -999.25 -999.25 -999.25 -999.25  145.91  10.178  9.2406 
  9.6779  8.9846 -999.25 -999.25 -999.25 
  1158.000 
 -48.119  77.524  8.9140  9.1630  8.0560  146.52  10.218 -999.25 -999.25 
 -999.25 -999.25 -999.25 -999.25 -999.25 -999.25 -24.119  77.524  8.9140 
  9.1630  8.0560 -999.25 -999.25 -999.25 -999.25  145.92  10.178  8.7452 
  9.3197  8.9009 -999.25 -999.25 -999.25 
  1158.500 
 -47.129  77.128  8.8310  8.5910  7.3470  146.92  10.238 -999.25 -999.25 
 -999.25 -999.25 -999.25 -999.25 -999.25 -999.25 -23.129  77.128  8.8310 
  8.5910  7.3470 -999.25 -999.25 -999.25 -999.25  146.52  10.218  7.9883 
  8.7318  8.8184 -999.25 -999.25 -999.25 
  1159.000 
 -44.951  77.128  8.6680  8.1280  7.0810  146.72  10.238 -999.25 -999.25 
 -999.25 -999.25 -999.25 -999.25 -999.25 -999.25 -20.951  77.128  8.6680 
  8.1280  7.0810 -999.25 -999.25 -999.25 -999.25  146.92  10.238  7.7047 
  8.2553  8.6560 -999.25 -999.25 -999.25 
  1159.500 
 -42.377  77.326  8.4300  7.8330  6.2820  145.73  10.218 -999.25 -999.25 
 -999.25 -999.25 -999.25 -999.25 -999.25 -999.25 -18.377  77.326  8.4300 
  7.8330  6.2820 -999.25 -999.25 -999.25 -999.25  146.72  10.238  6.8398 
  7.9512  8.4187 -999.25 -999.25 -999.25 
  1160.000 
 -39.209  78.316  8.3520  7.7600  5.7280  145.53  10.178 -999.25 -999.25 
 -999.25 -999.25 -999.25 -999.25 -999.25 -999.25 -15.209  78.316  8.3520 
  7.7600  5.7280 -999.25 -999.25 -999.25 -999.25  145.73  10.218  6.2368 
  7.8747  8.3407 -999.25 -999.25 -999.25 
  1160.500 
 -36.832  80.890  8.1980  7.8300  5.6230  145.13  10.178 -999.25 -999.25 
 -999.25 -999.25 -999.25 -999.25 -999.25 -999.25 -12.832  80.890  8.1980 
  7.8300  5.6230 -999.25 -999.25 -999.25 -999.25  145.53  10.178  6.1171 
  7.9442  8.1869 -999.25 -999.25 -999.25 
  1161.000 
 -36.238  82.673  8.1220  7.8290  5.9410  145.14  10.139 -999.25 -999.25 
 -999.25 -999.25 -999.25 -999.25 -999.25 -999.25 -12.238  82.673  8.1220 
  7.8290  5.9410 -999.25 -999.25 -999.25 -999.25  145.13  10.178  6.4608 
  7.9431  8.1111 -999.25 -999.25 -999.25 
  1161.500 
 -38.218  85.049  7.9720  7.7550  6.2190  144.94  10.119 -999.25 -999.25 
 -999.25 -999.25 -999.25 -999.25 -999.25 -999.25 -14.218  85.049  7.9720 
  7.7550  6.2190 -999.25 -999.25 -999.25 -999.25  145.14  10.139  6.7545 
  7.8645  7.9613 -999.25 -999.25 -999.25 
  1162.000 
 -40.396  87.029  7.9710  7.6480  6.3920  144.14  10.079 -999.25 -999.25 
 -999.25 -999.25 -999.25 -999.25 -999.25 -999.25 -16.396  87.029  7.9710 
  7.6480  6.3920 -999.25 -999.25 -999.25 -999.25  144.94  10.119  6.9377 
  7.7532  7.9602 -999.25 -999.25 -999.25 
