~Version Information
VERS.                     2.0: CWLS log ASCII Standard Version 2.00
WRAP.                     YES: Multiple lines per depth step
~Well Information Block
#MNEM.UNIT                               Data Type  Information
#---------                               ---------  -----------
STRT.FT                                   850.0000:
STOP.FT                                  6800.0000:
STEP.FT                                     0.5000:
NULL.                 -999.25                     :
COMP.                                             :COMPANY            
WELL.     SANTIAGO D #26-27                       :WELL               
FLD .                                             :FIELD              
CTRY.                                             :COUNTRY            
STAT.                                             :STATE              
LOC .                                             :LOCATION           
UWI .                                             :UNIQUE WELL ID     
SRVC.                                             :Service company    
DATE.                                             :LOG DATE           
~Curve Information
#MNEM.UNIT           API CODE  Curve Description
#---------           --------  -----------------
DEPT.FT                      :   1 DEPTH
DCAL.IN                      :   2
DGR .GAPI                    :   3
NPHI.PU-S                    :   4
DPHI.PU-S                    :   5
DRHO.G/C3                    :   6
AGR .GAPI                    :   7
ACAL.IN                      :   8
DT  .US/F                    :   9
GR  .GAPI                    :  10
SP  .MV                      :  11
ILM .OHMM                    :  12
ILD .OHMM                    :  13
SFLU.OHMM                    :  14
RHOB.G/C3                    :  15
RS  .OHMM                    :  16
RM  .OHMM                    :  17
RD  .OHMM                    :  18
GRS .GAPI                    :  19
SBL .MV                      :  20
ROBS.G/C3                    :  21
DRHS.G/C3                    :  22
CALS.IN                      :  23
GRS .GAPI                    :  24
NPHS.PU-S                    :  25
CALS.IN                      :  26
GRS .GAPI                    :  27
SFLU.OHMM                    :  28
ILMC.OHMM                    :  29
ILDC.OHMM                    :  30
ROBC.G/C3                    :  31
GRC .GAPI                    :  32
NPHC.PU-S                    :  33
~A
# ...
  5548.000 
  10.253  155.14  0.3900  0.4700  0.0130  158.93  10.863  107.35  147.95 
 -51.229  4.5450  4.6040  4.6970  1.8745  4.6970  4.5450  4.6040  147.95 
 -15.902  1.8785  0.0146  10.254  156.66  0.3840  10.897  149.65  5.1315 
  4.5771  4.6013  1.8877  164.93  0.3931 
  5548.500 
  10.255  158.86  0.3840  0.4640  0.0170  163.28  10.831  107.84  147.32 
 -51.222  4.4890  4.4970  4.5310  1.8844  4.5310  4.4890  4.4970  147.32 
 -15.896  1.8844  0.0182  10.256  160.32  0.3800  10.853  160.35  4.9515 
  4.5204  4.4944  1.8936  168.79  0.3882 
  5549.000 
  10.257  162.46  0.3800  0.4640  0.0200  163.21  10.832  108.50  146.26 
 -51.254  4.4100  4.4900  4.4580  1.8844  4.4580  4.4100  4.4900  146.26 
 -15.929  1.8811  0.0204  10.258  164.16  0.3750  10.831  163.26  4.8725 
  4.4403  4.4874  1.8903  172.85  0.3822 
  5549.500 
  10.259  166.70  0.3750  0.4690  0.0210  166.73  10.855  109.13  147.02 
 -51.246  4.3470  4.4830  4.3000  1.8762  4.3000  4.3470  4.4830  147.02 
 -15.922  1.8762  0.0198  10.259  168.26  0.3680  10.839  164.34  4.7011 
  4.3765  4.4804  1.8853  177.18  0.3738 
  5550.000 
  10.260  170.62  0.3680  0.4690  0.0180  177.73  10.895  109.58  150.04 
 -51.041  4.3010  4.4610  4.2780  1.8762  4.2780  4.3010  4.4610  150.04 
 -15.717  1.8788  0.0160  10.260  171.40  0.3660  10.868  170.27  4.6772 
  4.3298  4.4585  1.8879  180.48  0.3713 
  5550.500 
  10.259  172.59  0.3660  0.4650  0.0130  182.47  10.927  109.94  158.03 
 -50.361  4.3020  4.4790  4.3180  1.8828  4.3180  4.3020  4.4790  158.03 
 -15.038  1.8853  0.0114  10.257  172.29  0.3790  10.905  179.25  4.7204 
  4.3308  4.4764  1.8945  181.41  0.3870 
  5551.000 
  10.254  171.83  0.3790  0.4610  0.0090  179.11  10.931  109.74  162.90 
 -49.921  4.4160  4.4640  4.3910  1.8894  4.3910  4.4160  4.4640  162.90 
 -14.599  1.8906  0.0098  10.253  170.08  0.4090  10.928  181.40  4.7992 
  4.4463  4.4615  1.8998  179.06  0.4233 
  5551.500 
  10.251  167.34  0.4090  0.4590  0.0110  171.95  10.919  108.39  164.96 
 -49.835  4.4980  4.4900  4.4900  1.8927  4.4900  4.4980  4.4900  164.96 
 -14.514  1.8933  0.0126  10.250  165.24  0.4250  10.927  176.83  4.9065 
  4.5294  4.4874  1.9024  173.94  0.4426 
  5552.000 
  10.249  161.90  0.4250  0.4580  0.0150  164.64  10.888  107.32  163.31 
 -50.382  4.5740  4.4910  4.6280  1.8943  4.6280  4.5740  4.4910  163.31 
 -15.062  1.8937  0.0165  10.250  159.64  0.4280  10.909  169.63  5.0562 
  4.6065  4.4884  1.9028  168.06  0.4462 
  5552.500 
  10.252  156.02  0.4280  0.4590  0.0190  158.35  10.828  106.90  153.31 
 -51.008  4.6010  4.4680  4.7710  1.8927  4.7710  4.6010  4.4680  153.31 
 -15.689  1.8895  0.0198  10.253  153.80  0.4020  10.869  162.64  5.2118 
  4.6339  4.4654  1.8987  161.92  0.4148 
  5553.000 
  10.255  150.18  0.4020  0.4640  0.0210  151.55  10.785  107.02  141.85 
 -51.595  4.5520  4.4450  4.9690  1.8844  4.9690  4.5520  4.4450  141.85 
 -16.276  1.8794  0.0202  10.256  148.02  0.3780  10.814  156.20  5.4270 
  4.5843  4.4425  1.8886  155.85  0.3858 
  5553.500 
  10.258  144.46  0.3780  0.4720  0.0190  145.93  10.836  107.50  131.85 
 -51.943  4.4060  4.3900  4.7400  1.8712  4.7400  4.4060  4.3900  131.85 
 -16.625  1.8632  0.0171  10.256  143.36  0.3600  10.801  149.78  5.1785 
  4.4362  4.3875  1.8723  150.94  0.3641 
  5554.000 
  10.253  141.52  0.3600  0.4850  0.0140  143.64  10.868  108.11  131.78 
 -51.778  4.3280  4.2880  4.3830  1.8498  4.3830  4.3280  4.2880  131.78 
 -16.461  1.8498  0.0118  10.254  143.94  0.3570  10.846  145.21  4.7907 
  4.3571  4.2857  1.8589  151.54  0.3605 
  5554.500 
  10.257  148.02  0.3570  0.4850  0.0080  144.47  10.912  108.67  137.20 
 -51.337  4.1890  4.1360  4.0530  1.8498  4.0530  4.1890  4.1360  137.20 
 -16.021  1.8564  0.0106  10.260  151.66  0.3680  10.882  143.90  4.4328 
  4.2163  4.1338  1.8656  159.70  0.3738 
  5555.000 
  10.264  157.88  0.3680  0.4740  0.0150  149.30  10.939  109.46  145.51 
 -50.777  4.0840  4.0620  3.8380  1.8679  3.8380  4.0840  4.0620  145.51 
 -15.462  1.8770  0.0183  10.264  159.03  0.3830  10.920  145.98  4.1996 
  4.1100  4.0599  1.8862  167.48  0.3919 
  5555.500 
  10.263  161.01  0.3830  0.4590  0.0240  156.49  10.955  109.92  151.53 
 -50.216  3.9830  4.0050  3.7080  1.8927  3.7080  3.9830  4.0050  151.53 
 -14.902  1.8974  0.0258  10.264  161.45  0.4010  10.944  151.54  4.0584 
  4.0078  4.0030  1.9067  170.04  0.4136 
  5556.000 
  10.266  162.23  0.4010  0.4510  0.0290  158.24  10.943  110.31  154.94 
 -49.736  3.8760  3.9760  3.7100  1.9059  3.7100  3.8760  3.9760  154.94 
 -14.422  1.9064  0.0286  10.267  162.46  0.4190  10.951  157.03  4.0608 
  3.8995  3.9740  1.9157  171.11  0.4354 
  5556.500 
  10.269  162.86  0.4190  0.4500  0.0280  160.13  10.928  110.35  151.35 
 -49.373  3.8140  3.9420  3.7800  1.9075  3.7800  3.8140  3.9420  151.35 
 -14.060  1.9046  0.0237  10.270  163.07  0.4220  10.938  158.82  4.1371 
  3.8368  3.9400  1.9138  171.77  0.4390 
  5557.000 
  10.271  163.44  0.4220  0.4550  0.0160  163.10  10.912  110.61  152.74 
 -49.050  3.8040  3.9430  3.8500  1.8993  3.8500  3.8040  3.9430  152.74 
 -13.738  1.8998  0.0142  10.271  163.65  0.4150  10.923  161.05  4.2133 
  3.8267  3.9410  1.9091  172.39  0.4306 
  5557.500 
  10.272  164.03  0.4150  0.4540  0.0110  168.24  10.912  111.11  157.41 
 -48.846  3.7950  3.8660  3.9150  1.9009  3.9150  3.7950  3.8660  157.41 
 -13.535  1.9026  0.0124  10.274  164.22  0.4070  10.912  164.68  4.2842 
  3.8176  3.8641  1.9119  173.01  0.4209 
  5558.000 
  10.279  164.58  0.4070  0.4510  0.0150  168.64  10.916  110.49  161.65 
 -48.760  3.8180  3.8180  3.9810  1.9059  3.9810  3.8180  3.8180  161.65 
 -13.450  1.9093  0.0160  10.280  164.70  0.4010  10.913  168.36  4.3564 
  3.8410  3.8162  1.9186  173.55  0.4137 
  5558.500 
  10.282  164.93  0.4010  0.4450  0.0180  162.31  10.920  110.83  161.14 
 -48.713  3.8190  3.8120  3.9830  1.9158  3.9830  3.8190  3.8120  161.14 
 -13.404  1.9163  0.0190  10.284  164.87  0.4070  10.917  166.71  4.3589 
  3.8420  3.8102  1.9257  173.75  0.4209 
  5559.000 
  10.289  164.76  0.4070  0.4440  0.0210  155.67  10.916  111.16  156.32 
 -48.709  3.8200  3.8270  3.9260  1.9174  3.9260  3.8200  3.8270  156.32 
 -13.400  1.9168  0.0183  10.289  163.97  0.4120  10.919  160.29  4.2973 
  3.8431  3.8252  1.9262  172.82  0.4270 
  5559.500 
  10.288  162.45  0.4120  0.4450  0.0130  154.76  10.908  110.90  152.37 
 -48.700  3.8700  3.8630  3.7450  1.9158  3.7450  3.8700  3.8630  152.37 
 -13.392  1.9129  0.0099  10.288  161.67  0.4130  10.914  155.39  4.1005 
  3.8937  3.8611  1.9223  170.39  0.4282 
  5560.000 
  10.288  160.14  0.4130  0.4500  0.0040  156.22  10.904  110.27  149.93 
 -48.735  3.9280  3.9570  3.6510  1.9075  3.6510  3.9280  3.9570  149.93 
 -13.428  1.9047  0.0030  10.288  160.09  0.4100  10.907  155.20  3.9982 
  3.9524  3.9550  1.9141  168.73  0.4245 
  5560.500 
  10.287  159.98  0.4100  0.4550  0.0010  153.85  10.904  107.87  148.59 
 -48.649  4.0540  4.0540  3.9160  1.8993  3.9160  4.0540  4.0540  148.59 
 -13.343  1.8981  0.0027  10.287  160.66  0.4000  10.904  155.51  4.2863 
  4.0800  4.0519  1.9075  169.33  0.4125 
  5561.000 
  10.286  162.03  0.4000  0.4570  0.0060  154.92  10.900  107.25  148.72 
 -48.603  4.1750  4.1520  4.1530  1.8960  4.1530  4.1750  4.1520  148.72 
 -13.298  1.8981  0.0113  10.284  164.27  0.3890  10.903  154.17  4.5437 
  4.2025  4.1498  1.9075  173.12  0.3992 
  5561.500 
  10.281  168.81  0.3890  0.4530  0.0220  161.88  10.904  107.35  151.96 
 -48.597  4.3800  4.3720  4.4440  1.9026  4.4440  4.3800  4.3720  151.96 
 -13.293  1.9096  0.0253  10.278  170.30  0.3790  10.901  157.00  4.8593 
  4.4102  4.3696  1.9189  179.43  0.3871 
  5562.000 
  10.272  173.36  0.3790  0.4400  0.0320  168.72  10.901  107.39  158.38 
 -48.551  4.5440  4.6970  4.8530  1.9240  4.8530  4.5440  4.6970  158.38 
 -13.247  1.9320  0.0349  10.271  173.67  0.3830  10.903  163.92  5.3028 
  4.5764  4.6942  1.9413  182.94  0.3919 
