~Version Information
VERS.                     2.0: CWLS log ASCII Standard Version 2.00
WRAP.                     YES: Multiple lines per depth step
~Well Information Block
#MNEM.UNIT                               Data Type  Information
#---------                               ---------  -----------
STRT.FT                                   850.0000:
STOP.FT                                  6800.0000:
STEP.FT                                     0.5000:
NULL.                 -999.25                     :
COMP.                                             :COMPANY            
WELL.     SANTIAGO D #26-27                       :WELL               
FLD .                                             :FIELD              
CTRY.                                             :COUNTRY            
STAT.                                             :STATE              
LOC .                                             :LOCATION           
UWI .                                             :UNIQUE WELL ID     
SRVC.                                             :Service company    
DATE.                                             :LOG DATE           
~Curve Information
#MNEM.UNIT           API CODE  Curve Description
#---------           --------  -----------------
DEPT.FT                      :   1 DEPTH
DCAL.IN                      :   2
DGR .GAPI                    :   3
NPHI.PU-S                    :   4
DPHI.PU-S                    :   5
DRHO.G/C3                    :   6
AGR .GAPI                    :   7
ACAL.IN                      :   8
DT  .US/F                    :   9
GR  .GAPI                    :  10
SP  .MV                      :  11
ILM .OHMM                    :  12
ILD .OHMM                    :  13
SFLU.OHMM                    :  14
RHOB.G/C3                    :  15
RS  .OHMM                    :  16
RM  .OHMM                    :  17
RD  .OHMM                    :  18
GRS .GAPI                    :  19
SBL .MV                      :  20
ROBS.G/C3                    :  21
DRHS.G/C3                    :  22
CALS.IN                      :  23
GRS .GAPI                    :  24
NPHS.PU-S                    :  25
CALS.IN                      :  26
GRS .GAPI                    :  27
SFLU.OHMM                    :  28
ILMC.OHMM                    :  29
ILDC.OHMM                    :  30
ROBC.G/C3                    :  31
GRC .GAPI                    :  32
NPHC.PU-S                    :  33
~A
# ...
  3648.500 
  11.213  71.825  0.4630  0.3280  0.0790  72.466  13.053  124.00  65.526 
 -12.223  1.9010  1.9860  1.6880  2.1088  1.6880  1.9010  1.9860  65.526 
 -4.2485  2.1237  0.1060  11.230  73.939  0.4710  12.786  86.134  1.8774 
  1.9096  1.9858  2.1392  80.220  0.4997 
  3649.000 
  11.233  71.872  0.4710  0.3240  0.0990  77.194  12.974  125.59  71.198 
 -12.231  1.9060  1.9960  1.7160  2.1154  1.7160  1.9060  1.9960  71.198 
 -4.2055  2.1270  0.0930  11.195  75.848  0.4740  12.760  90.082  1.9081 
  1.9145  1.9958  2.1422  82.206  0.5033 
  3649.500 
  11.230  73.939  0.4740  0.3190  0.1060  83.470  12.816  124.94  75.917 
 -12.281  1.9110  2.0070  1.7760  2.1237  1.7760  1.9110  2.0070  75.917 
 -4.2044  2.1154  0.0810  11.108  74.858  0.4650  12.804  90.411  1.9734 
  1.9193  2.0067  2.1301  80.924  0.4923 
  3650.000 
  11.195  75.848  0.4650  0.3170  0.0930  89.746  12.745  122.64  77.378 
 -12.285  1.9230  2.0170  1.8110  2.1270  1.8110  1.9230  2.0170  77.378 
 -4.1573  2.1105  0.0710  11.048  72.362  0.4390  12.844  88.595  2.0112 
  1.9312  2.0167  2.1248  78.086  0.4607 
  3650.500 
  11.108  74.858  0.4390  0.3240  0.0810  90.543  12.781  122.97  79.594 
 -12.257  1.9330  2.0240  1.8710  2.1154  1.8710  1.9330  2.0240  79.594 
 -4.0783  2.1171  0.0730  11.009  71.371  0.4250  12.843  85.433  2.0770 
  1.9411  2.0237  2.1312  76.927  0.4437 
  3651.000 
  11.048  72.362  0.4250  0.3270  0.0710  90.228  12.837  124.06  82.684 
 -12.261  1.9470  2.0340  1.9180  2.1105  1.9180  1.9470  2.0340  82.684 
 -4.0312  2.1270  0.1010  10.993  73.392  0.4160  12.790  85.811  2.1288 
  1.9552  2.0337  2.1410  79.067  0.4328 
  3651.500 
  11.009  71.371  0.4160  0.3230  0.0730  86.301  12.853  124.44  84.067 
 -12.309  1.9640  2.0480  1.9750  2.1171  1.9750  1.9640  2.0480  84.067 
 -4.0281  2.1270  0.1040  10.969  77.235  0.4130  12.644  90.509  2.1915 
  1.9723  2.0477  2.1408  83.147  0.4291 
  3652.000 
  10.993  73.392  0.4130  0.3170  0.1010  84.199  12.829  120.73  83.900 
 -12.318  1.9770  2.0530  2.0180  2.1270  2.0180  1.9770  2.0530  83.900 
 -3.9861  2.0940  0.0920  10.918  81.118  0.4140  12.395  94.646  2.2378 
  1.9852  2.0527  2.1075  87.193  0.4303 
  3652.500 
  10.969  77.235  0.4140  0.3170  0.1040  88.132  12.734  117.30  82.581 
 -12.288  1.9910  2.0580  2.0730  2.1270  2.0730  1.9910  2.0580  82.581 
 -3.9050  2.0857  0.0730  10.854  84.090  0.4150  12.207  95.658  2.2969 
  1.9991  2.0576  2.0988  90.212  0.4314 
  3653.000 
  10.918  81.118  0.4150  0.3370  0.0920  93.971  12.512  114.82  78.481 
 -12.257  2.0010  2.0720  2.0910  2.0940  2.0910  2.0010  2.0720  78.481 
 -3.8230  2.0890  0.0560  10.779  84.565  0.4180  12.216  95.020  2.3147 
  2.0090  2.0716  2.1016  90.514  0.4349 
  3653.500 
  10.854  84.090  0.4180  0.3420  0.0730  95.641  12.223  114.52  74.422 
 -12.145  2.0080  2.0720  2.1130  2.0857  2.1130  2.0080  2.0720  74.422 
 -3.6599  2.0940  0.0540  10.656  84.050  0.4240  12.283  92.466  2.3353 
  2.0156  2.0716  2.1058  89.622  0.4420 
  3654.000 
  10.779  84.565  0.4240  0.3400  0.0560  95.683  12.183  116.90  70.164 
 -11.953  2.0140  2.0710  2.1050  2.0890  2.1050  2.0140  2.0710  70.164 
 -3.4168  2.0972  0.0660  10.549  81.356  0.4290  12.290  88.129  2.3234 
  2.0213  2.0705  2.1084  86.460  0.4479 
  3654.500 
  10.656  84.050  0.4290  0.3370  0.0540  94.019  12.267  120.31  70.393 
 -11.645  2.0180  2.0700  2.0210  2.0940  2.0210  2.0180  2.0700  70.393 
 -3.0578  2.0890  0.0690  10.446  75.770  0.4290  12.246  83.485  2.2285 
  2.0250  2.0695  2.0994  80.263  0.4477 
  3655.000 
  10.549  81.356  0.4290  0.3350  0.0660  90.091  12.307  121.82  70.901 
 -11.334  2.0240  2.0690  1.8780  2.0972  1.8780  2.0240  2.0690  70.901 
 -2.6957  2.0692  0.0660  10.426  70.144  0.4330  12.217  79.463  2.0718 
  2.0309  2.0685  2.0795  74.256  0.4525 
  3655.500 
  10.446  75.770  0.4330  0.3400  0.0690  85.092  12.263  121.81  70.377 
 -11.062  2.0340  2.0680  1.7490  2.0890  1.7490  2.0340  2.0680  70.377 
 -2.3726  2.0577  0.0530  10.502  69.193  0.4410  12.246  76.943  1.9323 
  2.0413  2.0675  2.0685  73.426  0.4623 
  3656.000 
  10.426  70.144  0.4410  0.3520  0.0660  80.966  12.220  121.83  65.959 
 -10.795  2.0410  2.0640  1.6910  2.0692  1.6910  2.0410  2.0640  65.959 
 -2.0546  2.0577  0.0500  10.561  70.580  0.4620  12.361  80.307  1.8698 
  2.0485  2.0636  2.0689  75.036  0.4878 
  3656.500 
  10.502  69.193  0.4620  0.3590  0.0530  77.079  12.212  122.45  63.408 
 -10.682  2.0460  2.0590  1.7670  2.0577  1.7670  2.0460  2.0590  63.408 
 -1.8905  2.0659  0.0530  10.617  69.669  0.4690  12.534  87.966  1.9541 
  2.0538  2.0586  2.0775  74.197  0.4963 
  3657.000 
  10.561  70.580  0.4690  0.3590  0.0500  76.724  12.300  124.85  64.633 
 -10.653  2.0520  2.0550  1.8120  2.0577  1.8120  2.0520  2.0550  64.633 
 -1.8104  2.0659  0.0540  10.664  69.471  0.4600  12.692  91.622  2.0045 
  2.0600  2.0546  2.0778  74.095  0.4855 
  3657.500 
  10.617  69.669  0.4600  0.3540  0.0530  86.135  12.459  127.74  67.446 
 -10.699  2.0730  2.0580  1.7980  2.0659  1.7980  2.0730  2.0580  67.446 
 -1.8054  2.0659  0.0520  10.704  71.452  0.4550  12.740  91.850  1.9899 
  2.0813  2.0576  2.0781  76.302  0.4795 
  3658.000 
  10.664  69.471  0.4550  0.3540  0.0540  90.981  12.658  128.85  70.774 
 -10.707  2.0840  2.0680  1.7710  2.0659  1.7710  2.0840  2.0680  70.774 
 -1.7623  2.0659  0.0500  10.743  74.859  0.4560  12.649  88.029  1.9609 
  2.0925  2.0676  2.0783  80.036  0.4808 
  3658.500 
  10.704  71.452  0.4560  0.3540  0.0520  92.691  12.749  126.61  70.607 
 -10.794  2.1020  2.0730  1.7740  2.0659  1.7740  2.1020  2.0730  70.607 
 -1.7983  2.0659  0.0430  10.771  77.593  0.4730  12.478  82.267  1.9648 
  2.1108  2.0726  2.0785  83.031  0.5014 
  3659.000 
  10.743  74.859  0.4730  0.3540  0.0500  90.431  12.726  121.57  67.739 
 -10.880  2.1120  2.0790  1.7960  2.0659  1.7960  2.1120  2.0790  67.739 
 -1.8332  2.0676  0.0390  10.799  78.108  0.4900  12.412  79.315  1.9896 
  2.1209  2.0786  2.0803  83.654  0.5220 
  3659.500 
  10.771  77.593  0.4900  0.3540  0.0430  83.923  12.516  118.50  65.586 
 -11.008  2.1390  2.1080  1.8420  2.0659  1.8420  2.1390  2.1080  65.586 
 -1.9101  2.0775  0.0440  10.819  76.642  0.4850  12.412  80.725  2.0408 
  2.1483  2.1076  2.0904  82.134  0.5160 
  3660.000 
  10.799  78.108  0.4850  0.3530  0.0390  79.401  12.413  117.05  66.173 
 -11.296  2.1500  2.1340  1.9060  2.0676  1.9060  2.1500  2.1340  66.173 
 -2.1471  2.1088  0.0530  10.835  75.890  0.4530  12.422  84.659  2.1118 
  2.1594  2.1336  2.1218  81.368  0.4773 
  3660.500 
  10.819  76.642  0.4530  0.3470  0.0440  79.165  12.409  116.73  69.066 
 -11.660  2.1770  2.1610  1.9830  2.0775  1.9830  2.1770  2.1610  69.066 
 -2.4600  2.1303  0.0530  10.846  75.969  0.4400  12.436  86.951  2.1972 
  2.1867  2.1606  2.1433  81.480  0.4616 
  3661.000 
  10.835  75.890  0.4400  0.3280  0.0530  83.495  12.417  115.76  72.353 
 -12.304  2.1960  2.1880  2.0490  2.1088  2.0490  2.1960  2.1880  72.353 
 -3.0529  2.1352  0.0510  10.858  76.840  0.4360  12.413  87.285  2.2705 
  2.2059  2.1876  2.1484  82.444  0.4568 
  3661.500 
  10.846  75.969  0.4360  0.3150  0.0530  86.753  12.430  115.42  72.704 
 -13.145  2.2150  2.1990  2.1200  2.1303  2.1200  2.2150  2.1990  72.704 
 -3.8429  2.1369  0.0510  10.862  77.356  0.4170  12.325  86.752  2.3491 
  2.2251  2.1986  2.1500  83.008  0.4338 
  3662.000 
  10.858  76.840  0.4170  0.3120  0.0510  87.312  12.446  115.52  71.027 
 -14.227  2.2230  2.2190  2.1820  2.1352  2.1820  2.2230  2.2190  71.027 
 -4.8738  2.1369  0.0530  10.862  76.207  0.3980  12.296  84.587  2.4177 
  2.2332  2.2186  2.1500  81.775  0.4108 
  3662.500 
  10.862  77.356  0.3980  0.3110  0.0510  87.235  12.351  114.29  70.662 
 -15.188  2.2420  2.2260  2.2340  2.1369  2.2340  2.2420  2.2260  70.662 
 -5.7837  2.1385  0.0540  10.866  74.741  0.3930  12.379  80.908  2.4753 
  2.2524  2.2256  2.1517  80.212  0.4048 
