~Version Information
VERS.                     2.0: CWLS log ASCII Standard Version 2.00
WRAP.                     YES: Multiple lines per depth step
~Well Information Block
#MNEM.UNIT                               Data Type  Information
#---------                               ---------  -----------
STRT.FT                                   800.0000:
STOP.FT                                  5530.0000:
STEP.FT                                     0.5000:
NULL.                 -999.25                     :
COMP.                                             :COMPANY            
WELL.     SANTIAGO B 73-29                        :WELL               
FLD .                                             :FIELD              
CTRY.                                             :COUNTRY            
STAT.                                             :STATE              
LOC .                                             :LOCATION           
UWI .                                             :UNIQUE WELL ID     
SRVC.                                             :Service company    
DATE.                                             :LOG DATE           
~Curve Information
#MNEM.UNIT           API CODE  Curve Description
#---------           --------  -----------------
DEPT.FT                      :   1 DEPTH
SP  .MV                      :   2
GR  .GAPI                    :   3
ILD .OHMM                    :   4
ILM .OHMM                    :   5
SFL .OHMM                    :   6
DT  .US/F                    :   7
CALI.IN                      :   8
KSCI.                        :   9
PSCI.                        :  10
OSCI.                        :  11
WSCI.                        :  12
GR  .GAPI                    :  13
RHOB.G/C3                    :  14
NPHI.PU-S                    :  15
DRHO.G/C3                    :  16
SBL .MV                      :  17
GRS .GAPI                    :  18
RD  .OHMM                    :  19
RM  .OHMM                    :  20
RS  .OHMM                    :  21
R0BS.G/C3                    :  22
DRHS.G/C3                    :  23
GRS .GAPI                    :  24
NPHS.PU-S                    :  25
DTS .US/F                    :  26
CALS.IN                      :  27
SFLC.OHMM                    :  28
ILMC.OHMM                    :  29
ILDC.OHMM                    :  30
R0BC.G/C3                    :  31
GRC .GAPI                    :  32
NPHC.PU-S                    :  33
~A
# ...
  5498.000 
 -41.289  55.406  3.5450  2.5590  4.0310  77.630  8.7790 -999.25 -999.25 
 -999.25 -999.25  57.556  2.0280  0.2940  0.0260 -31.289  55.406  3.5450 
  2.5590  4.0310  2.0680  0.0500  57.936  0.2940  77.630  8.7790  4.2594 
  2.5616  3.5413  2.0680  58.322  0.2594 
  5498.500 
 -41.893  55.398  3.5760  2.4770  3.1160  77.635  8.7380 -999.25 -999.25 
 -999.25 -999.25  57.744  2.0730  0.2970  0.0530 -31.893  55.398  3.5760 
  2.4770  3.1160  2.0570  0.0480  58.324  0.2970  77.635  8.7380  3.3072 
  2.4792  3.5722  2.0570  58.622  0.2625 
  5499.000 
 -42.894  55.391  3.5730  2.4080  3.1720  77.640  8.7280 -999.25 -999.25 
 -999.25 -999.25  57.936  2.1080  0.3000  0.0590 -32.894  55.391  3.5730 
  2.4080  3.1720  2.0400  0.0450  58.511  0.3000  77.640  8.7280  3.3646 
  2.4100  3.5692  2.0400  58.788  0.2657 
  5499.500 
 -43.701  55.383  3.5710  2.3630  3.0000  77.847  8.7170 -999.25 -999.25 
 -999.25 -999.25  58.324  2.0920  0.3040  0.0560 -33.701  55.383  3.5710 
  2.3630  3.0000  1.9570  0.0250  58.702  0.3040  77.847  8.7170  3.1855 
  2.3648  3.5672  1.9570  58.955  0.2700 
  5500.000 
 -44.103  55.371  3.6020  2.3400  2.8900  78.053  8.7260 -999.25 -999.25 
 -999.25 -999.25  58.511  2.0680  0.3070  0.0500 -34.103  55.371  3.6020 
  2.3400  2.8900  1.9270  0.0080  59.089  0.3070  78.053  8.7260  3.0718 
  2.3419  3.5981  1.9270  59.364  0.2732 
  5500.500 
 -44.316  55.356  3.6020  2.3180  3.2860  78.156  8.7340 -999.25 -999.25 
 -999.25 -999.25  58.702  2.0570  0.3090  0.0480 -34.316  55.356  3.6020 
  2.3180  3.2860  1.8920  0.0000  59.871  0.3090  78.156  8.7340  3.4833 
  2.3199  3.5982  1.8920  60.168  0.2753 
  5501.000 
 -44.331  55.339  3.6010  2.3180  3.7700  78.256  8.7720 -999.25 -999.25 
 -999.25 -999.25  59.089  2.0400  0.3080  0.0450 -34.331  55.339  3.6010 
  2.3180  3.7700  1.8870 -0.0060  60.059  0.3080  78.256  8.7720  3.9882 
  2.3201  3.5972  1.8870  60.443  0.2743 
  5501.500 
 -45.141  55.326  3.6330  2.3180  3.5670  78.357  8.8300 -999.25 -999.25 
 -999.25 -999.25  59.871  1.9570  0.3070  0.0250 -35.141  55.326  3.6330 
  2.3180  3.5670  1.8890 -0.0050  59.257  0.3070  78.357  8.8300  3.7825 
  2.3204  3.6292  1.8890  59.766  0.2732 
  5502.000 
 -45.749  55.413  3.6320  2.3170  2.8090  78.463  8.8280 -999.25 -999.25 
 -999.25 -999.25  60.059  1.9270  0.3020  0.0080 -35.749  55.413  3.6320 
  2.3170  2.8090  1.8910 -0.0040  58.455  0.3020  78.463  8.8280  2.9935 
  2.3194  3.6282  1.8910  58.952  0.2679 
  5502.500 
 -46.358  55.501  3.6310  2.3160  3.0220  78.366  8.7670 -999.25 -999.25 
 -999.25 -999.25  59.257  1.8920  0.3010  0.0000 -36.358  55.501  3.6310 
  2.3160  3.0220  1.8890 -0.0040  57.851  0.3010  78.366  8.7670  3.2115 
  2.3180  3.6271  1.8890  58.210  0.2668 
  5503.000 
 -46.571  55.585  3.6310  2.3160  3.1630  78.367  8.7560 -999.25 -999.25 
 -999.25 -999.25  58.455  1.8870  0.3000 -0.0060 -36.571  55.585  3.6310 
  2.3160  3.1630  1.8860 -0.0050  58.435  0.3000  78.367  8.7560  3.3572 
  2.3180  3.6271  1.8860  58.773  0.2657 
  5503.500 
 -46.789  55.669  3.6300  2.3160  3.1050  78.369  8.7450 -999.25 -999.25 
 -999.25 -999.25  57.851  1.8890  0.3050 -0.0050 -36.789  55.669  3.6300 
  2.3160  3.1050  1.8780 -0.0070  58.425  0.3050  78.369  8.7450  3.2963 
  2.3179  3.6261  1.8780  58.739  0.2711 
  5504.000 
 -46.799  55.447  3.6290  2.2940  3.0760  78.371  8.6840 -999.25 -999.25 
 -999.25 -999.25  58.435  1.8910  0.3060 -0.0040 -36.799  55.447  3.6290 
  2.2940  3.0760  1.8850 -0.0050  58.811  0.3060  78.371  8.6840  3.2621 
  2.2956  3.6250  1.8850  58.991  0.2721 
  5504.500 
 -47.013  55.434  3.6610  2.2930  3.0470  78.376  8.6620 -999.25 -999.25 
 -999.25 -999.25  58.425  1.8890  0.3040 -0.0040 -37.013  55.434  3.6610 
  2.2930  3.0470  1.8900 -0.0030  59.197  0.3040  78.376  8.6620  3.2307 
  2.2944  3.6569  1.8900  59.329  0.2700 
  5505.000 
 -46.237  55.417  3.6610  2.2930  3.0470  78.376  8.6610 -999.25 -999.25 
 -999.25 -999.25  58.811  1.8860  0.3050 -0.0050 -36.237  55.417  3.6610 
  2.2930  3.0470  1.8940  0.0000  59.782  0.3050  78.376  8.6610  3.2306 
  2.2944  3.6569  1.8940  59.913  0.2710 
  5505.500 
 -45.657  55.404  3.6610  2.2920  3.0470  78.377  8.6400 -999.25 -999.25 
 -999.25 -999.25  59.197  1.8780  0.3100 -0.0070 -35.657  55.404  3.6610 
  2.2920  3.0470  1.8840 -0.0010  60.366  0.3100  78.377  8.6400  3.2292 
  2.2933  3.6569  1.8840  60.450  0.2764 
  5506.000 
 -44.877  55.387  3.6590  2.2910  3.0190  78.382  8.6580 -999.25 -999.25 
 -999.25 -999.25  59.782  1.8850  0.3120 -0.0050 -34.877  55.387  3.6590 
  2.2910  3.0190  1.8740 -0.0060  60.356  0.3120  78.382  8.6580  3.2014 
  2.2924  3.6549  1.8740  60.481  0.2785 
  5506.500 
 -43.705  55.374  3.6580  2.2910  2.9900  78.285  8.6370 -999.25 -999.25 
 -999.25 -999.25  60.366  1.8900  0.3150 -0.0030 -33.705  55.374  3.6580 
  2.2910  2.9900  1.8660 -0.0110  60.346  0.3150  78.285  8.6370  3.1700 
  2.2923  3.6539  1.8660  60.423  0.2818 
  5507.000 
 -43.718  55.560  3.6570  2.3320  2.9620  78.287  8.6350 -999.25 -999.25 
 -999.25 -999.25  60.356  1.8940  0.3120  0.0000 -33.718  55.560  3.6570 
  2.3320  2.9620  1.8620 -0.0140  60.334  0.3120  78.287  8.6350  3.1409 
  2.3333  3.6529  1.8620  60.407  0.2785 
  5507.500 
 -44.925  55.540  3.6560  2.3530  2.9750  78.288  8.6330 -999.25 -999.25 
 -999.25 -999.25  60.346  1.8840  0.3080 -0.0010 -34.925  55.540  3.6560 
  2.3530  2.9750  1.8670 -0.0140  60.322  0.3080  78.288  8.6330  3.1543 
  2.3543  3.6519  1.8670  60.390  0.2742 
  5508.000 
 -45.732  55.728  3.6890  2.3530  2.9880  78.290  8.6320 -999.25 -999.25 
 -999.25 -999.25  60.334  1.8740  0.3050 -0.0060 -35.732  55.728  3.6890 
  2.3530  2.9880  1.8770 -0.0100  60.316  0.3050  78.290  8.6320  3.1676 
  2.3543  3.6848  1.8770  60.382  0.2710 
  5508.500 
 -45.945  55.713  3.6890  2.3520  3.0140  78.294  8.6310 -999.25 -999.25 
 -999.25 -999.25  60.322  1.8660  0.3010 -0.0110 -35.945  55.713  3.6890 
  2.3520  3.0140 -999.25 -999.25  59.712  0.3010  78.294  8.6310  3.1945 
  2.3533  3.6848 -999.25  59.775  0.2667 
  5509.000 
 -45.562  55.894  3.6890  2.3730  3.0560  78.295  8.6290 -999.25 -999.25 
 -999.25 -999.25  60.316  1.8620  0.3010 -0.0140 -35.562  55.894  3.6890 
  2.3730  3.0560 -999.25 -999.25  59.108  0.3010  78.295  8.6290  3.2378 
  2.3743  3.6848 -999.25  59.166  0.2667 
  5509.500 
 -45.379  55.881  3.6870  2.3950  3.0980  78.296  8.6270 -999.25 -999.25 
 -999.25 -999.25  59.712  1.8670  0.3030 -0.0140 -35.379  55.881  3.6870 
  2.3950  3.0980 -999.25 -999.25 -999.25  0.3030  78.296  8.6270  3.2812 
  2.3964  3.6828 -999.25 -999.25  0.2689 
  5510.000 
 -44.797  55.864  3.6860  2.4170  3.1540  78.203  8.6460 -999.25 -999.25 
 -999.25 -999.25  59.108  1.8770  0.2910 -0.0100 -34.797  55.864  3.6860 
  2.4170  3.1540 -999.25 -999.25 -999.25  0.2910  78.203  8.6460  3.3404 
  2.4185  3.6819 -999.25 -999.25  0.2561 
  5510.500 
 -999.25 -999.25 -999.25 -999.25 -999.25 -999.25 -999.25 -999.25 -999.25 
 -999.25 -999.25 -999.25 -999.25 -999.25 -999.25 -999.25 -999.25 -999.25 
 -999.25 -999.25 -999.25 -999.25 -999.25 -999.25 -999.25 -999.25 -999.25 
 -999.25 -999.25 -999.25 -999.25 -999.25 
  5511.000 
 -999.25 -999.25 -999.25 -999.25 -999.25 -999.25 -999.25 -999.25 -999.25 
 -999.25 -999.25 -999.25 -999.25 -999.25 -999.25 -999.25 -999.25 -999.25 
 -999.25 -999.25 -999.25 -999.25 -999.25 -999.25 -999.25 -999.25 -999.25 
 -999.25 -999.25 -999.25 -999.25 -999.25 
  5511.500 
 -999.25 -999.25 -999.25 -999.25 -999.25 -999.25 -999.25 -999.25 -999.25 
 -999.25 -999.25 -999.25 -999.25 -999.25 -999.25 -999.25 -999.25 -999.25 
 -999.25 -999.25 -999.25 -999.25 -999.25 -999.25 -999.25 -999.25 -999.25 
 -999.25 -999.25 -999.25 -999.25 -999.25 
  5512.000 
 -999.25 -999.25 -999.25 -999.25 -999.25 -999.25 -999.25 -999.25 -999.25 
 -999.25 -999.25 -999.25 -999.25 -999.25 -999.25 -999.25 -999.25 -999.25 
 -999.25 -999.25 -999.25 -999.25 -999.25 -999.25 -999.25 -999.25 -999.25 
 -999.25 -999.25 -999.25 -999.25 -999.25 
