~Version Information
VERS.                     2.0: CWLS log ASCII Standard Version 2.00
WRAP.                      NO: One line per depth step
~Well Information Block
#MNEM.UNIT                               Data Type  Information
#---------                               ---------  -----------
STRT.FT                                   318.0000:
STOP.FT                                  2700.0000:
STEP.FT                                     0.5000:
NULL.                 -999.25                     :
COMP.                                             :COMPANY            
WELL.     LOS LOBOS 82X-30                        :WELL               
FLD .                                             :FIELD              
CTRY.                                             :COUNTRY            
STAT.                                             :STATE              
LOC .                                             :LOCATION           
UWI .                                             :UNIQUE WELL ID     
SRVC.                                             :Service company    
DATE.                                             :LOG DATE           
~Curve Information
#MNEM.UNIT           API CODE  Curve Description
#---------           --------  -----------------
DEPT.FT                      :   1 DEPTH
SP  .MV                      :   2
ILD .OHMM                    :   3
ILM .OHMM                    :   4
SFLU.OHMM                    :   5
CALI.IN                      :   6
GR  .GAPI                    :   7
NPHI.PU-S                    :   8
DPHI.PU-S                    :   9
DRHO.G/C3                    :  10
CALI.IN                      :  11
DT  .US/F                    :  12
SBL .MV                      :  13
RS  .OHMM                    :  14
RM  .OHMM                    :  15
RD  .OHMM                    :  16
DTS .US/F                    :  17
CALS.IN                      :  18
RHOB.G/C3                    :  19
ROBS.G/C3                    :  20
DROS.G/C3                    :  21
CALS.IN                      :  22
GRS .GAPI                    :  23
NPHS.PU-S                    :  24
SFLU.OHMM                    :  25
ILMC.OHMM                    :  26
ILDC.OHMM                    :  27
ROBC.G/C3                    :  28
GRC .GAPI                    :  29
NPHC.PU-S                    :  30
~A
# ...
  2199.000 -18.126  6.4650  6.3710  6.7550  6.9730  149.67  0.4690  0.5100  0.0090  6.9620  129.34 -16.126  6.7550  6.3710  6.4650  129.44  6.9613  1.8085  1.8080  0.0090  6.9732  148.79  0.4690  6.6645  6.3428  6.4394  1.8080  138.21  0.4573 
  2199.500 -17.740  6.4490  6.3550  6.4380  7.0490  152.14  0.4780  0.5060  0.0040  6.9610  129.48 -15.740  6.4380  6.3550  6.4490  129.51  6.9386  1.8151  1.8146  0.0044  7.0430  151.59  0.4780  6.3744  6.3283  6.4239  1.8146  141.23  0.4674 
  2200.000 -17.413  6.5170  6.3640  6.2600  7.0960  155.68  0.4780  0.5020  0.0040  6.9280  129.52 -15.413  6.2600  6.3640  6.5170  131.80  6.9328  1.8217  1.8212  0.0040  7.0923  154.90  0.4780  6.2126  6.3383  6.4916  1.8212  144.63  0.4674 
  2200.500 -17.086  6.7070  6.4200  5.7630  7.2380  157.32  0.4790  0.4930 -0.0020  6.9350  132.86 -15.086  5.7630  6.4200  6.7070  138.77  6.9336  1.8366  1.8354 -0.0015  7.2270  156.97  0.4790  5.7562  6.3967  6.6808  1.8354  147.40  0.4687 
  2201.000 -16.664  6.7590  6.4760  5.5130  7.3120  158.26  0.4830  0.4900 -0.0030  6.9330  141.47 -14.664  5.5130  6.4760  6.7590  147.02  6.9130  1.8415  1.8411 -0.0029  7.3064  158.06  0.4830  5.5262  6.4540  6.7329  1.8411  148.93  0.4732 
  2201.500 -17.111  6.8130  6.7740  6.0260  7.3570  157.76  0.4930  0.4910 -0.0050  6.9040  149.52 -15.111  6.0260  6.7740  6.8130  144.27  6.8091  1.8399  1.8400 -0.0048  7.3536  157.87  0.4930  6.0340  6.7510  6.7867  1.8400  149.04  0.4845 
  2202.000 -17.635  6.8320  7.2050  6.7340  7.4010  154.18  0.4910  0.4830 -0.0020  6.7670  141.94 -15.635  6.7340  7.2050  6.8320  141.60  6.7830  1.8531  1.8521 -0.0022  7.3977  154.92  0.4910  6.7319  7.1801  6.8058  1.8521  146.53  0.4822 
  2202.500 -18.400  6.8410  7.7470  7.3350  7.4280  145.38  0.4650  0.4710  0.0000  6.7900  141.45 -16.400  7.3350  7.7470  6.8410  148.47  6.8201  1.8729  1.8714 -0.0001  7.4260  147.15  0.4650  7.3230  7.7191  6.8149  1.8714  139.35  0.4531 
  2203.000 -19.165  6.9130  7.8420  7.9900  7.4550  136.50  0.4110  0.4720  0.0070  6.8330  151.49 -17.165  7.9900  7.8420  6.9130  157.86  6.8625  1.8712  1.8713  0.0065  7.4530  138.26  0.4110  7.9666  7.8143  6.8865  1.8713  131.07  0.3925 
  2203.500 -19.708  7.1550  8.0720  9.7600  7.4420  127.94  0.3910  0.4720  0.0140  6.8750  160.56 -17.708  9.7600  8.0720  7.1550  163.86  6.8941  1.8712  1.8712  0.0135  7.4429  129.60  0.3910  9.6977  8.0423  7.1266  1.8712  122.82  0.3700 
  2204.000 -20.252  7.5760  8.3090  10.572  7.1290  123.21  0.3940  0.4940  0.0250  6.9020  165.24 -18.252  10.572  8.3090  7.5760  161.20  6.9212  1.8349  1.8375  0.0242  7.1510  124.12  0.3940  10.394  8.2673  7.5421  1.8375  116.18  0.3732 
  2204.500 -20.740  8.0220  9.3500  10.822  7.0170  118.49  0.4110  0.5110  0.0270  6.9290  159.54 -18.740  10.822  9.3500  8.0220  155.48  6.9554  1.8069  1.8088  0.0269  7.0248  119.38  0.4110  10.592  9.2916  7.9830  1.8088  111.13  0.3922 
  2205.000 -21.227  8.5610  9.8720  11.077  6.9950  108.26  0.4170  0.5140  0.0220  6.9660  153.85 -19.227  11.077  9.8720  8.5610  149.77  6.9725  1.8019  1.8022  0.0223  6.9965  110.14  0.4170  10.828  9.8055  8.5164  1.8022  102.41  0.3989 
  2205.500 -21.240  8.7780  10.309  11.419  6.9720  105.31  0.4100  0.5170  0.0080  6.9750  148.16 -19.240  11.419  10.309  8.7780  146.91  6.9815  1.7970  1.7973  0.0089  6.9736  105.84  0.4100  11.149  10.235  8.7309  1.7973  98.314  0.3911 
  2206.000 -21.253  9.0490  10.688  12.078  7.0380  105.57  0.4040  0.5050  0.0050  6.9840  146.43 -19.253  12.078  10.688  9.0490  147.43  6.9681  1.8168  1.8154  0.0052  7.0336  105.53  0.4040  11.805  10.612  8.9995  1.8154  98.277  0.3844 
  2206.500 -21.104  9.1620  11.081  13.082  7.0750  105.84  0.4130  0.4980  0.0090  6.9620  147.81 -19.104  13.082  11.081  9.1620  147.72  6.9031  1.8283  1.8275  0.0087  7.0726  105.79  0.4130  12.788  11.002  9.1117  1.8275  98.690  0.3945 
  2207.000 -20.915  9.2770  11.676  13.887  7.1120  106.89  0.4150  0.4970  0.0120  6.8810  147.68 -18.915  13.887  11.676  9.2770  145.46  6.8423  1.8300  1.8298  0.0118  7.1096  106.71  0.4150  13.579  11.591  9.2258  1.8298  99.705  0.3967 
  2207.500 -20.606  9.5290  12.259  13.958  7.1630  107.94  0.4010  0.5040  0.0090  6.8280  144.63 -18.606  13.958  12.259  9.5290  134.72  6.7891  1.8184  1.8191  0.0092  7.1598  107.76  0.4010  13.670  12.169  9.4755  1.8191  100.91  0.3811 
  2208.000 -20.297  9.7690  12.493  13.303  7.2130  108.91  0.3890  0.5030 -0.0020  6.7750  131.13 -18.297  13.303  12.493  9.7690  128.55  6.7772  1.8201  1.8199 -0.0013  7.2099  108.75  0.3890  13.059  12.404  9.7134  1.8199  102.05  0.3676 
  2208.500 -19.440  9.8560  12.731  13.010  7.1450  109.88  0.3820  0.4980 -0.0020  6.7780  127.64 -17.440  13.010  12.731  9.8560  125.17  6.7706  1.8283  1.8278 -0.0020  7.1492  109.73  0.3820  12.751  12.633  9.7987  1.8278  102.70  0.3597 
  2209.000 -19.052  9.9430  13.171  12.628  7.0450  111.81  0.3870  0.4940 -0.0030  6.7680  124.31 -17.052  12.628  13.171  9.9430  121.58  6.7628  1.8349  1.8345 -0.0029  7.0511  111.50  0.3870  12.342  13.058  9.8835  1.8345  103.92  0.3653 
  2209.500 -18.352  10.066  13.481  12.877  6.9710  113.73  0.4080  0.4820 -0.0030  6.7610  120.65 -16.352  12.877  13.481  10.066  120.16  6.7558  1.8547  1.8535 -0.0030  6.9754  113.43  0.4080  12.551  13.355  10.004  1.8535  105.38  0.3888 
  2210.000 -18.200  10.190  13.771  13.267  6.8970  122.02  0.4180  0.4750 -0.0020  6.7540  120.00 -16.200  13.267  13.771  10.190  120.03  6.7495  1.8663  1.8656 -0.0021  6.9013  120.78  0.4180  12.893  13.633  10.126  1.8656  111.83  0.4000 
  2210.500 -18.647  10.240  13.830  13.670  6.8050  124.45  0.4120  0.4710  0.0000  6.7480  120.04 -16.647  13.670  13.830  10.240  121.45  6.7442  1.8729  1.8725 -0.0001  6.8103  124.10  0.4120  13.239  13.682  10.174  1.8725  114.45  0.3932 
  2211.000 -19.350  10.291  13.889  16.638  6.7980  124.67  0.4010  0.4630  0.0050  6.7430  121.90 -17.350  16.638  13.889  10.291  124.51  6.7392  1.8861  1.8853  0.0047  6.7984  124.64  0.4010  16.060  13.739  10.224  1.8853  114.89  0.3809 
  2211.500 -20.053  10.266  13.311  19.421  6.7920  121.41  0.3840  0.4600  0.0090  6.7380  125.34 -18.053  19.421  13.311  10.266  128.77  6.7342  1.8910  1.8907  0.0088  6.7923  121.87  0.3840  18.699  13.172  10.199  1.8907  112.30  0.3618 
  2212.000 -20.838  10.206  12.757  20.470  6.8070  115.54  0.3710  0.4610  0.0160  6.7330  129.84 -18.838  20.470  12.757  10.206  133.92  6.7345  1.8894  1.8894  0.0156  6.8062  116.34  0.3710  19.703  12.631  10.140  1.8894  107.27  0.3472 
  2212.500 -21.622  9.9600  12.271  19.655  6.8220  108.56  0.3620  0.4690  0.0180  6.7350  135.18 -19.622  19.655  12.271  9.9600  135.77  6.7404  1.8762  1.8769  0.0179  6.8212  109.48  0.3620  18.939  12.155  9.8976  1.8769  101.02  0.3371 
  2213.000 -22.233  9.6340  11.803  18.147  6.8960  104.18  0.3580  0.4760  0.0150  6.7420  135.95 -20.233  18.147  11.803  9.6340  135.50  6.7466  1.8646  1.8652  0.0152  6.8921  104.75  0.3580  17.548  11.701  9.5764  1.8652  96.954  0.3327 
  2213.500 -21.769  8.7080  10.435  16.754  6.9700  102.59  0.3740  0.4900  0.0150  6.7480  135.37 -19.769  16.754  10.435  8.7080  134.71  6.7550  1.8415  1.8427  0.0150  6.9662  102.79  0.3740  16.260  10.359  8.6616  1.8427  95.447  0.3507 
  2214.000 -21.260  8.0170  9.6070  15.538  7.0330  103.84  0.3860  0.5080  0.0170  6.7570  134.52 -19.260  15.538  9.6070  8.0170  134.37  6.7640  1.8118  1.8133  0.0169  7.0298  103.68  0.3860  15.129  9.5456  7.9781  1.8133  96.546  0.3642 
  2214.500 -20.495  7.3940  8.5280  14.409  7.0520  105.09  0.3950  0.5100  0.0160  6.7660  134.33 -18.495  14.409  8.5280  7.3940  135.24  6.7676  1.8085  1.8087  0.0160  7.0511  104.94  0.3950  14.055  8.4804  7.3611  1.8087  97.805  0.3743 
  2215.000 -19.730  7.0610  7.1000  11.271  7.0390  111.71  0.3980  0.5070  0.0060  6.7680  135.49 -17.730  11.271  7.1000  7.0610  137.80  6.7704  1.8135  1.8132  0.0065  7.0396  110.95  0.3980  11.030  7.0667  7.0309  1.8132  103.35  0.3776 
