~Version Information
VERS.                     2.0: CWLS log ASCII Standard Version 2.00
WRAP.                     YES: Multiple lines per depth step
~Well Information Block
#MNEM.UNIT                               Data Type  Information
#---------                               ---------  -----------
STRT.FT                                   120.0000:
STOP.FT                                  3000.0000:
STEP.FT                                     0.5000:
NULL.                 -999.25                     :
COMP.                                             :COMPANY            
WELL.     LOS LOBOS 62X-30                        :WELL               
FLD .                                             :FIELD              
CTRY.                                             :COUNTRY            
STAT.                                             :STATE              
LOC .                                             :LOCATION           
UWI .                                             :UNIQUE WELL ID     
SRVC.                                             :Service company    
DATE.                                             :LOG DATE           
~Curve Information
#MNEM.UNIT           API CODE  Curve Description
#---------           --------  -----------------
DEPT.FT                      :   1 DEPTH
CALI.IN                      :   2
GR  .GAPI                    :   3
NPHI.PU-S                    :   4
DPHI.PU-S                    :   5
DRHO.G/C3                    :   6
SP  .MV                      :   7
ILD .OHMM                    :   8
ILM .OHMM                    :   9
LL8U.OHMM                    :  10
DT  .US/F                    :  11
ROP .                        :  12
GASR.                        :  13
C1R .                        :  14
C2R .                        :  15
C3R .                        :  16
C4R .                        :  17
KSCI.                        :  18
PSCI.                        :  19
OSCI.                        :  20
WSCI.                        :  21
KWCI.                        :  22
PWCI.                        :  23
OWCI.                        :  24
WWCI.                        :  25
ROBS.G/C3                    :  26
NPHS.PU-S                    :  27
PWCL.                        :  28
OWCL.                        :  29
WWCL.                        :  30
KWCL.                        :  31
VCLD.                        :  32
VCLW.                        :  33
VSHL.                        :  34
PHIE.                        :  35
PHIT.                        :  36
SWE .                        :  37
SWT .                        :  38
SWTU.                        :  39
RMAT.                        :  40
BVWE.                        :  41
RHOB.G/C3                    :  42
CALS.IN                      :  43
DTS .US/F                    :  44
SBL .MV                      :  45
RD  .OHMM                    :  46
RM  .OHMM                    :  47
RS  .OHMM                    :  48
DPHI.                        :  49
GRC .GAPI                    :  50
NPHC.PU-S                    :  51
LL8C.OHMM                    :  52
ILDC.OHMM                    :  53
ILMC.OHMM                    :  54
ROBC.G/C3                    :  55
~A
# ...
  2982.000 
  9.8240  399.99  0.5290  0.4250 -0.0080 -32.231  2.2380  2.1700  2.2100 
  132.13  62.582  3.6200  7.4710 -999.25 -999.25 -999.25 -999.25 -999.25 
 -999.25 -999.25 -999.25 -999.25 -999.25 -999.25  1.9405  0.5290 -999.25 
 -999.25 -999.25 -999.25 -999.25 -999.25 -999.25 -999.25 -999.25 -999.25 
 -999.25 -999.25 -999.25 -999.25  1.9488  9.8160  132.25 -0.2310  2.2380 
  2.1700  2.2100  0.4250  435.41  0.5122  2.2100  2.2364  2.1811  1.9466 
  2982.500 
  9.7880  399.99  0.5290  0.4390 -0.0030 -31.801  2.2430  2.1700  2.2670 
  126.49  62.304  3.5580  7.4690 -999.25 -999.25 -999.25 -999.25 -999.25 
 -999.25 -999.25 -999.25 -999.25 -999.25 -999.25  1.9488  0.5290 -999.25 
 -999.25 -999.25 -999.25 -999.25 -999.25 -999.25 -999.25 -999.25 -999.25 
 -999.25 -999.25 -999.25 -999.25  1.9257  9.8240  132.13  0.1990  2.2430 
  2.1700  2.2670  0.4390  435.53  0.5122  2.2670  2.2414  2.1811  1.9549 
  2983.000 
  9.7640  399.99  0.5300  0.4510 -0.0070 -31.571  2.2100  2.1580  2.3820 
  123.98  62.026  3.4420  7.4730 -999.25 -999.25 -999.25 -999.25 -999.25 
 -999.25 -999.25 -999.25 -999.25 -999.25 -999.25  1.9257  0.5290 -999.25 
 -999.25 -999.25 -999.25 -999.25 -999.25 -999.25 -999.25 -999.25 -999.25 
 -999.25 -999.25 -999.25 -999.25  1.9059  9.7880  126.49  0.4290  2.2100 
  2.1580  2.3820  0.4510  435.00  0.5122  2.3820  2.2084  2.1687  1.9315 
  2983.500 
  9.7400  400.00  0.5300  0.4550 -0.0100 -32.167  2.1740  2.1510  2.3430 
  122.89  61.894  3.3730  7.4760 -999.25 -999.25 -999.25 -999.25 -999.25 
 -999.25 -999.25 -999.25 -999.25 -999.25 -999.25  1.9059  0.5300 -999.25 
 -999.25 -999.25 -999.25 -999.25 -999.25 -999.25 -999.25 -999.25 -999.25 
 -999.25 -999.25 -999.25 -999.25  1.8993  9.7640  123.98 -0.1670  2.1740 
  2.1510  2.3430  0.4550  434.64  0.5132  2.3430  2.1725  2.1615  1.9116 
  2984.000 
  9.7200  400.00  0.5310  0.4470 -0.0050 -32.841  2.1510  2.1350  2.1870 
  124.71  61.982  3.3050  7.4750 -999.25 -999.25 -999.25 -999.25 -999.25 
 -999.25 -999.25 -999.25 -999.25 -999.25 -999.25  1.8993  0.5300 -999.25 
 -999.25 -999.25 -999.25 -999.25 -999.25 -999.25 -999.25 -999.25 -999.25 
 -999.25 -999.25 -999.25 -999.25  1.9125  9.7400  122.89 -0.8410  2.1510 
  2.1350  2.1870  0.4470  434.29  0.5132  2.1870  2.1495  2.1451  1.9048 
  2984.500 
  9.6720  400.00  0.5330  0.4430  0.0010 -33.516  2.1430  2.1240  2.1280 
  129.24  61.821  3.2550  7.4730 -999.25 -999.25 -999.25 -999.25 -999.25 
 -999.25 -999.25 -999.25 -999.25 -999.25 -999.25  1.9125  0.5310 -999.25 
 -999.25 -999.25 -999.25 -999.25 -999.25 -999.25 -999.25 -999.25 -999.25 
 -999.25 -999.25 -999.25 -999.25  1.9191  9.7200  124.71 -1.5160  2.1430 
  2.1240  2.1280  0.4430  433.97  0.5143  2.1280  2.1415  2.1339  1.9179 
  2985.000 
  9.6080  399.98  0.5340  0.4400  0.0040 -32.813  2.1360  2.1130  2.1200 
  130.07  61.909  3.2040  7.2400 -999.25 -999.25 -999.25 -999.25 -999.25 
 -999.25 -999.25 -999.25 -999.25 -999.25 -999.25  1.9191  0.5330 -999.25 
 -999.25 -999.25 -999.25 -999.25 -999.25 -999.25 -999.25 -999.25 -999.25 
 -999.25 -999.25 -999.25 -999.25  1.9240  9.6720  129.24 -0.8130  2.1360 
  2.1130  2.1200  0.4400  433.16  0.5165  2.1200  2.1345  2.1224  1.9241 
  2985.500 
  9.5280  399.89  0.5360  0.4370  0.0080 -32.147  2.1210  2.1130  2.1320 
  130.31  67.014  3.1720  7.2530 -999.25 -999.25 -999.25 -999.25 -999.25 
 -999.25 -999.25 -999.25 -999.25 -999.25 -999.25  1.9240  0.5340 -999.25 
 -999.25 -999.25 -999.25 -999.25 -999.25 -999.25 -999.25 -999.25 -999.25 
 -999.25 -999.25 -999.25 -999.25  1.9290  9.6080  130.07 -0.1470  2.1210 
  2.1130  2.1320  0.4370  432.18  0.5176  2.1320  2.1194  2.1219  1.9286 
  2986.000 
  9.2340  399.86  0.5380  0.4340  0.0140 -31.521  2.1090  2.1240  2.1560 
  129.59  72.120  3.1580  7.2510 -999.25 -999.25 -999.25 -999.25 -999.25 
 -999.25 -999.25 -999.25 -999.25 -999.25 -999.25  1.9290  0.5360 -999.25 
 -999.25 -999.25 -999.25 -999.25 -999.25 -999.25 -999.25 -999.25 -999.25 
 -999.25 -999.25 -999.25 -999.25  1.9339  9.5280  130.31  0.4790  2.1090 
  2.1240  2.1560  0.4340  430.96  0.5197  2.1560  2.1074  2.1324  1.9330 
  2986.500 
  8.9170  399.85  0.5410  0.4380  0.0190 -31.172  2.0980  2.1330  2.1960 
  127.98  71.979  3.1310  7.2590 -999.25 -999.25 -999.25 -999.25 -999.25 
 -999.25 -999.25 -999.25 -999.25 -999.25 -999.25  1.9339  0.5380 -999.25 
 -999.25 -999.25 -999.25 -999.25 -999.25 -999.25 -999.25 -999.25 -999.25 
 -999.25 -999.25 -999.25 -999.25  1.9273  9.2340  129.59  0.8280  2.0980 
  2.1330  2.1960  0.4380  426.49  0.5218  2.1960  2.0962  2.1393  1.9357 
  2987.000 
  8.3620  399.84  0.5530  0.4480  0.0230 -31.296  2.0980  2.1330  2.2570 
  126.03  71.595  3.0810  7.2580 -999.25 -999.25 -999.25 -999.25 -999.25 
 -999.25 -999.25 -999.25 -999.25 -999.25 -999.25  1.9273  0.5410 -999.25 
 -999.25 -999.25 -999.25 -999.25 -999.25 -999.25 -999.25 -999.25 -999.25 
 -999.25 -999.25 -999.25 -999.25  1.9108  8.9170  127.98  0.7040  2.0980 
  2.1330  2.2570  0.4480  421.58  0.5250  2.2570  2.0960  2.1369  1.9273 
  2987.500 
  8.1120  399.83  0.5560  0.4610  0.0240 -31.575  2.1060  2.1250  2.3030 
  124.64  71.435  3.0420  7.2590 -999.25 -999.25 -999.25 -999.25 -999.25 
 -999.25 -999.25 -999.25 -999.25 -999.25 -999.25  1.9108  0.5530 -999.25 
 -999.25 -999.25 -999.25 -999.25 -999.25 -999.25 -999.25 -999.25 -999.25 
 -999.25 -999.25 -999.25 -999.25  1.8894  8.3620  126.03  0.4250  2.1060 
  2.1250  2.3030  0.4610  412.59  0.5380  2.3030  2.1037  2.1251  1.9108 
  2988.000 
  8.0520  399.64  0.5580  0.4680  0.0190 -32.251  2.1100  2.1060  2.2820 
  124.12  71.275  2.9800  7.2600 -999.25 -999.25 -999.25 -999.25 -999.25 
 -999.25 -999.25 -999.25 -999.25 -999.25 -999.25  1.8894  0.5560 -999.25 
 -999.25 -999.25 -999.25 -999.25 -999.25 -999.25 -999.25 -999.25 -999.25 
 -999.25 -999.25 -999.25 -999.25  1.8778  8.1120  124.64 -0.2510  2.1100 
  2.1060  2.2820  0.4680  408.52  0.5411  2.2820  2.1075  2.1054  1.8894 
  2988.500 
  8.0280  399.63  0.5590  0.4640  0.0580 -32.728  2.1140  2.0990  2.2410 
  123.88  70.886  2.9230  7.2590 -999.25 -999.25 -999.25 -999.25 -999.25 
 -999.25 -999.25 -999.25 -999.25 -999.25 -999.25  1.8778  0.5580 -999.25 
 -999.25 -999.25 -999.25 -999.25 -999.25 -999.25 -999.25 -999.25 -999.25 
 -999.25 -999.25 -999.25 -999.25  1.8844  8.0520  124.12 -0.7280  2.1140 
  2.0990  2.2410  0.4640  407.53  0.5433  2.2410  2.1114  2.0982  1.8778 
  2989.000 
  7.8880  399.61  0.5610  0.4470  0.1840 -33.481  2.1260  2.0990  2.2170 
  123.78  70.498  2.8670  7.2520 -999.25 -999.25 -999.25 -999.25 -999.25 
 -999.25 -999.25 -999.25 -999.25 -999.25 -999.25  1.8844  0.5590 -999.25 
 -999.25 -999.25 -999.25 -999.25 -999.25 -999.25 -999.25 -999.25 -999.25 
 -999.25 -999.25 -999.25 -999.25  1.9125  8.0280  123.88 -1.4810  2.1260 
  2.0990  2.2170  0.4470  407.11  0.5444  2.2170  2.1234  2.0982  1.8844 
  2989.500 
  6.5150  399.59  0.5690  0.3920  0.2490 -33.251  2.1260  2.0990  2.1930 
  123.64  70.360  2.8110  7.2410 -999.25 -999.25 -999.25 -999.25 -999.25 
 -999.25 -999.25 -999.25 -999.25 -999.25 -999.25  1.9125  0.5610 -999.25 
 -999.25 -999.25 -999.25 -999.25 -999.25 -999.25 -999.25 -999.25 -999.25 
 -999.25 -999.25 -999.25 -999.25  2.0032  7.8880  123.78 -1.2510  2.1260 
  2.0990  2.1930  0.3920  404.95  0.5465  2.1930  2.1233  2.0978  1.9125 
  2990.000 
  5.3530  399.73  0.5850  0.2470 -999.25 -32.784  2.1260  2.1690  2.1850 
  123.60  69.970  2.7430  6.6300 -999.25 -999.25 -999.25 -999.25 -999.25 
 -999.25 -999.25 -999.25 -999.25 -999.25 -999.25  2.0032  0.5690 -999.25 
 -999.25 -999.25 -999.25 -999.25 -999.25 -999.25 -999.25 -999.25 -999.25 
 -999.25 -999.25 -999.25 -999.25  2.2424  6.5150  123.64 -0.7840  2.1260 
  2.1690  2.1850  0.2470 -999.25  0.5548  2.1850  2.1224  2.1638  2.0032 
  2990.500 
  4.8380  399.80  0.5920  0.1390 -999.25 -32.406  2.1210  2.2200  2.1680 
  123.56  46.383  2.6680  6.6290 -999.25 -999.25 -999.25 -999.25 -999.25 
 -999.25 -999.25 -999.25 -999.25 -999.25 -999.25  2.2424  0.5850 -999.25 
 -999.25 -999.25 -999.25 -999.25 -999.25 -999.25 -999.25 -999.25 -999.25 
 -999.25 -999.25 -999.25 -999.25  2.4207  5.3530  123.60 -0.4060  2.1210 
  2.2200  2.1680  0.1390 -999.25  0.5719  2.1680  2.1167  2.2111  2.2424 
