~Version Information
VERS.                     2.0: CWLS log ASCII Standard Version 2.00
WRAP.                      NO: One line per depth step
~Well Information Block
#MNEM.UNIT                               Data Type  Information
#---------                               ---------  -----------
STRT.FT                                    90.0000:
STOP.FT                                  2000.0000:
STEP.FT                                     0.5000:
NULL.                 -999.25                     :
COMP.                                             :COMPANY            
WELL.     LL 76-30 OR MUDDY CREEK 76-30           :WELL               
FLD .                                             :FIELD              
CTRY.                                             :COUNTRY            
STAT.                                             :STATE              
LOC .                                             :LOCATION           
UWI .                                             :UNIQUE WELL ID     
SRVC.                                             :Service company    
DATE.                                             :LOG DATE           
~Curve Information
#MNEM.UNIT           API CODE  Curve Description
#---------           --------  -----------------
DEPT.FT                      :   1 DEPTH
GR  .GAPI                    :   2
CALI.IN                      :   3
DPHI.PU-S                    :   4
NPHI.PU-S                    :   5
DRHO.G/C3                    :   6
SP  .MV                      :   7
ILD .OHMM                    :   8
ILM .OHMM                    :   9
SFLU.OHMM                    :  10
DT  .US/F                    :  11
RHOB.G/C3                    :  12
ROBS.G/C3                    :  13
CALS.IN                      :  14
DRHS.G/C3                    :  15
GRS .GAPI                    :  16
NPHS.PU-S                    :  17
DTS .US/F                    :  18
SBL .MV                      :  19
RD  .OHMM                    :  20
RM  .OHMM                    :  21
RS  .OHMM                    :  22
SFLU.OHMM                    :  23
ILMC.OHMM                    :  24
ILDC.OHMM                    :  25
ROBC.G/C3                    :  26
GRC .GAPI                    :  27
NPHC.PU-S                    :  28
~A
# ...
  1980.000  84.867  6.7210  0.5450  0.5140  0.0000 -999.25  1.1120  1.1330 -999.25  142.16  1.7508  1.7674  6.7636  0.0000  84.430  0.4770  145.27 -999.25  1.1120  1.1330 -999.25 -999.25  1.1330  1.1120  1.7674  76.240  0.4453 
  1980.500  86.269  6.6220  0.5560  0.4770  0.0000 -999.25  1.0920  1.1220 -999.25  139.07  1.7326  1.7461  6.6959  0.0000  85.223  0.4510  141.78 -999.25  1.0920  1.1220 -999.25 -999.25  1.1220  1.0920  1.7461  76.744  0.4173 
  1981.000  86.279  6.6330  0.5600  0.4510  0.0010 -999.25  1.0920  1.1020 -999.25  140.16  1.7260  1.7311  6.6245  0.0002  86.271  0.4610  139.19 -999.25  1.0920  1.1020 -999.25 -999.25  1.1020  1.0920  1.7311  77.461  0.4281 
  1981.500  84.496  6.6430  0.5570  0.4610  0.0040 -999.25  1.1020  1.0920 -999.25  145.54  1.7310  1.7270  6.6351  0.0016  85.911  0.4990  140.70 -999.25  1.1020  1.0920 -999.25 -999.25  1.0920  1.1020  1.7270  77.171  0.4690 
  1982.000  82.714  6.6840  0.5510  0.4990  0.0070 -999.25  1.1430  1.0920 -999.25  149.92  1.7409  1.7328  6.6505  0.0045  84.170  0.5410  145.93 -999.25  1.1430  1.0920 -999.25 -999.25  1.0920  1.1430  1.7328  75.655  0.5142 
  1982.500  83.122  6.7250  0.5340  0.5410  0.0030 -999.25  1.2080  1.1120 -999.25  149.51  1.7689  1.7453  6.6905  0.0064  82.779  0.6080  149.88 -999.25  1.2080  1.1120 -999.25 -999.25  1.1120  1.2080  1.7453  74.527  0.5865 
  1983.000  83.328  6.7260  0.5170  0.6080 -0.0050 -999.25  1.3240  1.1640 -999.25  145.32  1.7970  1.7727  6.7251  0.0019  83.150  0.6350  149.23 -999.25  1.3240  1.1640 -999.25 -999.25  1.1640  1.3240  1.7727  74.966  0.6157 
  1983.500  83.337  6.7270  0.4500  0.6350 -0.0150 -999.25  1.4250  1.2760 -999.25  139.13  1.9075  1.8093  6.7261 -0.0061  83.329  0.6580  144.98 -999.25  1.4250  1.2760 -999.25 -999.25  1.2760  1.4250  1.8093  75.131  0.6406 
  1984.000  82.950  6.7280  0.3830  0.6580 -0.0190 -999.25  1.6490  1.4380 -999.25  103.73  2.0181  1.9173  6.7271 -0.0154  83.303  0.6550  137.63 -999.25  1.6490  1.4380 -999.25 -999.25  1.4380  1.6490  1.9173  75.110  0.6373 
  1984.500  82.559  6.6690  0.3160  0.6550 -0.0100 -999.25  1.8920  2.1320 -999.25  102.43  2.1286  2.0252  6.7242 -0.0184  82.925  0.6470  103.69 -999.25  1.8920  2.1320 -999.25 -999.25  2.1320  1.8920  2.0252  74.760  0.6287 
  1985.000  82.568  6.5900  0.2500  0.6470  0.0020 -999.25  2.0360  2.5140 -999.25  101.13  2.2375  2.1331  6.6657 -0.0095  82.559  0.6240  102.40 -999.25  2.0360  2.5140 -999.25 -999.25  2.5140  2.0360  2.1331  74.254  0.6038 
  1985.500  85.960  6.5310  0.2540  0.6240  0.0360 -999.25  2.4240  2.8840 -999.25  101.52  2.2309  2.2374  6.5890  0.0026  82.628  0.6090  101.13 -999.25  2.4240  2.8840 -999.25 -999.25  2.8840  2.4240  2.2374  74.081  0.5876 
  1986.000  87.759  6.5320  0.2810  0.6090  0.0490 -999.25  2.7560  3.0200 -999.25  102.91  2.1864  2.2309  6.5314  0.0358  85.940  0.5770  101.52 -999.25  2.7560  3.0200 -999.25 -999.25  3.0200  2.7560  2.2309  76.868  0.5530 
  1986.500  87.370  6.5330  0.3320  0.5770  0.0480 -999.25  3.0200  2.9380 -999.25  103.40  2.1022  2.1864  6.5320  0.0490  87.759  0.5760  102.91 -999.25  3.0200  2.9380 -999.25 -999.25  2.9380  3.0200  2.1864  78.497  0.5519 
  1987.000  84.991  6.5140  0.3590  0.5760  0.0470 -999.25  2.9110  2.7560 -999.25  105.59  2.0577  2.1022  6.5330  0.0480  87.370  0.5880  103.40 -999.25  2.9110  2.7560 -999.25 -999.25  2.7560  2.9110  2.1022  78.152  0.5649 
  1987.500  84.803  6.5150  0.3930  0.5880  0.0470 -999.25  2.4020  2.3800 -999.25  111.27  2.0016  2.0577  6.5140  0.0470  84.991  0.6050  105.59 -999.25  2.4020  2.3800 -999.25 -999.25  2.3800  2.4020  2.0577  75.965  0.5832 
  1988.000  87.001  6.5360  0.4240  0.6050  0.0410 -999.25  1.7590  1.8420 -999.25  121.73  1.9504  2.0016  6.5150  0.0470  84.803  0.6100  111.27 -999.25  1.7590  1.8420 -999.25 -999.25  1.8420  1.7590  2.0016  75.800  0.5886 
  1988.500  96.163  6.5370  0.4950  0.6100  0.0260 -999.25  1.5910  1.6350 -999.25  138.37  1.8333  1.9504  6.5360  0.0410  87.001  0.6020  121.73 -999.25  1.5910  1.6350 -999.25 -999.25  1.6350  1.5910  1.9504  77.832  0.5800 
  1989.000  130.10  6.5580  0.5150  0.6020  0.0020 -999.25  1.4780  1.3740 -999.25  144.15  1.8003  1.8333  6.5370  0.0260  96.163  0.5840  138.37 -999.25  1.4780  1.3740 -999.25 -999.25  1.3740  1.4780  1.8333  86.032  0.5606 
  1989.500  141.65  6.5780  0.5070  0.5840 -0.0030 -999.25  1.3870  1.3250 -999.25  144.94  1.8135  1.8003  6.5580  0.0020  130.10  0.5780  144.15 -999.25  1.3870  1.3250 -999.25 -999.25  1.3250  1.3870  1.8003  116.50  0.5541 
  1990.000  156.19  6.5790  0.4990  0.5780 -0.0020 -999.25  1.3250  1.3010 -999.25  145.03  1.8267  1.8135  6.5780 -0.0030  141.65  0.5840  144.94 -999.25  1.3250  1.3010 -999.25 -999.25  1.3010  1.3250  1.8135  126.95  0.5606 
  1990.500  176.50  6.5600  0.4120  0.5840 -0.0010 -999.25  1.3010  1.3250 -999.25  145.13  1.9702  1.8267  6.5790 -0.0020  156.19  0.5930  145.03 -999.25  1.3010  1.3250 -999.25 -999.25  1.3250  1.3010  1.8267  139.98  0.5703 
  1991.000  177.30  6.5410  0.4020  0.5930  0.0060 -999.25  1.2890  1.3370 -999.25  145.32  1.9867  1.9702  6.5600 -0.0010  176.50  0.6040  145.13 -999.25  1.2890  1.3370 -999.25 -999.25  1.3370  1.2890  1.9702  158.05  0.5822 
  1991.500  177.51  6.5420  0.3920  0.6040  0.0050 -999.25  1.2890  1.3490 -999.25  145.32  2.0032  1.9867  6.5410  0.0060  177.30  0.6160  145.32 -999.25  1.2890  1.3490 -999.25 -999.25  1.3490  1.2890  1.9867  158.65  0.5951 
  1992.000  177.72  6.5530  0.3950  0.6160  0.0080 -999.25  1.3010  1.3620 -999.25  145.41  1.9983  2.0032  6.5420  0.0050  177.51  0.6110  145.32 -999.25  1.3010  1.3620 -999.25 -999.25  1.3620  1.3010  2.0032  158.84  0.5897 
  1992.500  177.73  6.5630  0.4120  0.6110  0.0140 -999.25  1.3010  1.3620 -999.25  145.40  1.9702  1.9983  6.5530  0.0080  177.72  0.6090  145.41 -999.25  1.3010  1.3620 -999.25 -999.25  1.3620  1.3010  1.9983  159.10  0.5876 
  1993.000  177.74  6.6050  0.4300  0.6090  0.0190 -999.25  1.3010  1.3010 -999.25  145.40  1.9405  1.9702  6.5630  0.0140  177.73  0.6070  145.40 -999.25  1.3010  1.3010 -999.25 -999.25  1.3010  1.3010  1.9702  159.17  0.5854 
  1993.500  177.75  6.5850  0.4640  0.6070  0.0240 -999.25  1.3010  1.1870 -999.25  145.39  1.8844  1.9405  6.6050  0.0190  177.74  0.6070  145.40 -999.25  1.3010  1.1870 -999.25 -999.25  1.1870  1.3010  1.9405  159.46  0.5854 
  1994.000  177.56  6.5470  0.4930  0.6070  0.0210 -999.25  1.2890  1.1130 -999.25  145.39  1.8366  1.8844  6.5850  0.0240  177.75  0.6090  145.39 -999.25  1.2890  1.1130 -999.25 -999.25  1.1130  1.2890  1.8844  159.34  0.5876 
  1994.500  177.56  6.5170  0.5180  0.6090  0.0170 -999.25  1.2890  1.0930 -999.25  145.38  1.7953  1.8366  6.5470  0.0210  177.56  0.6120  145.39 -999.25  1.2890  1.0930 -999.25 -999.25  1.0930  1.2890  1.8366  158.92  0.5908 
  1995.000  177.57  6.4880  0.5270  0.6120  0.0090 -999.25  1.2890  1.0830 -999.25  145.47  1.7805  1.7953  6.5170  0.0170  177.56  0.6170  145.38 -999.25  1.2890  1.0830 -999.25 -999.25  1.0830  1.2890  1.7953  158.73  0.5962 
  1995.500  177.38  6.4690  0.5360  0.6170  0.0050 -999.25  1.2890  1.0830 -999.25  145.47  1.7656  1.7805  6.4880  0.0090  177.57  0.6220  145.47 -999.25  1.2890  1.0830 -999.25 -999.25  1.0830  1.2890  1.7805  158.54  0.6016 
  1996.000  177.19  6.4500  0.5380  0.6220  0.0030 -999.25  1.2890  1.0830 -999.25  145.46  1.7623  1.7656  6.4690  0.0050  177.38  0.6280  145.47 -999.25  1.2890  1.0830 -999.25 -999.25  1.0830  1.2890  1.7656  158.25  0.6081 
  1996.500  177.20  6.4720  0.5400  0.6280 -0.0010 -999.25  1.2900  1.0940 -999.25  145.35  1.7590  1.7623  6.4500  0.0030  177.19  0.5400  145.46 -999.25  1.2900  1.0940 -999.25 -999.25  1.0940  1.2900  1.7623  157.95  0.5131 
  1997.000  177.21  6.4820  0.5450  0.5400 -0.0020 -999.25  1.3010  1.0940 -999.25  145.35  1.7508  1.7590  6.4720 -0.0010  177.20  0.5130  145.35 -999.25  1.3010  1.0940 -999.25 -999.25  1.0940  1.3010  1.7590  158.11  0.4840 
  1997.500  177.42  6.4930  0.5430  0.5130 -0.0020 -999.25  1.3130  1.0940 -999.25  145.34  1.7541  1.7508  6.4820 -0.0020  177.21  0.3760  145.35 -999.25  1.3130  1.0940 -999.25 -999.25  1.0940  1.3130  1.7508  158.18  0.3368 
