~Version Information
VERS.                     2.0: CWLS log ASCII Standard Version 2.00
WRAP.                     YES: Multiple lines per depth step
~Well Information Block
#MNEM.UNIT                               Data Type  Information
#---------                               ---------  -----------
STRT.FT                                   120.0000:
STOP.FT                                  3000.0000:
STEP.FT                                     0.5000:
NULL.                 -999.25                     :
COMP.                                             :COMPANY            
WELL.     LOS LOBOS 62X-30                        :WELL               
FLD .                                             :FIELD              
CTRY.                                             :COUNTRY            
STAT.                                             :STATE              
LOC .                                             :LOCATION           
UWI .                                             :UNIQUE WELL ID     
SRVC.                                             :Service company    
DATE.                                             :LOG DATE           
~Curve Information
#MNEM.UNIT           API CODE  Curve Description
#---------           --------  -----------------
DEPT.FT                      :   1 DEPTH
CALI.IN                      :   2
GR  .GAPI                    :   3
NPHI.PU-S                    :   4
DPHI.PU-S                    :   5
DRHO.G/C3                    :   6
SP  .MV                      :   7
ILD .OHMM                    :   8
ILM .OHMM                    :   9
LL8U.OHMM                    :  10
DT  .US/F                    :  11
ROP .                        :  12
GASR.                        :  13
C1R .                        :  14
C2R .                        :  15
C3R .                        :  16
C4R .                        :  17
KSCI.                        :  18
PSCI.                        :  19
OSCI.                        :  20
WSCI.                        :  21
KWCI.                        :  22
PWCI.                        :  23
OWCI.                        :  24
WWCI.                        :  25
ROBS.G/C3                    :  26
NPHS.PU-S                    :  27
PWCL.                        :  28
OWCL.                        :  29
WWCL.                        :  30
KWCL.                        :  31
VCLD.                        :  32
VCLW.                        :  33
VSHL.                        :  34
PHIE.                        :  35
PHIT.                        :  36
SWE .                        :  37
SWT .                        :  38
SWTU.                        :  39
RMAT.                        :  40
BVWE.                        :  41
RHOB.G/C3                    :  42
CALS.IN                      :  43
DTS .US/F                    :  44
SBL .MV                      :  45
RD  .OHMM                    :  46
RM  .OHMM                    :  47
RS  .OHMM                    :  48
DPHI.                        :  49
GRC .GAPI                    :  50
NPHC.PU-S                    :  51
LL8C.OHMM                    :  52
ILDC.OHMM                    :  53
ILMC.OHMM                    :  54
ROBC.G/C3                    :  55
~A
# ...
  2649.000 
  9.7780  76.505  0.4910  0.5120 -0.0010 -48.876  5.2920  5.2440  5.3010 
  133.95  87.025  6.7910  8.8830  0.7950 -999.25 -999.25 -999.25 -999.25 
 -999.25 -999.25 -999.25 -999.25 -999.25 -999.25  1.8027  0.4906 -999.25 
 -999.25 -999.25 -999.25  0.0503  0.0902  0.5459  0.3862  0.4261  0.7089 
  0.7362  0.7362  2.4019  0.2738  1.8052  9.8051  150.60 -16.876  5.2920 
  5.2440  5.3010  0.5120  79.657  0.4701  5.3010  5.2831  5.3086  1.8087 
  2649.500 
  9.7780  75.089  0.4880  0.5230  0.0020 -49.271  5.2610  5.2230  5.1660 
  132.16  60.013  6.7070  8.8820  0.9060 -999.25 -999.25 -999.25 -999.25 
 -999.25 -999.25 -999.25 -999.25 -999.25 -999.25  1.8080  0.4882 -999.25 
 -999.25 -999.25 -999.25  0.0461  0.0826  0.5744  0.3899  0.4265  0.6846 
  0.7117  0.7117  2.4014  0.2669  1.7871  9.7951  133.95 -17.271  5.2610 
  5.2230  5.1660  0.5230  82.681  0.4674  5.1660  5.2522  5.2866  1.8140 
  2650.000 
  9.7660  74.851  0.4830  0.5300 -0.0040 -49.666  5.1090  5.0990  4.4900 
  135.55  59.775  6.6460  8.9590  0.9270 -999.25 -999.25 -999.25 -999.25 
 -999.25 -999.25 -999.25 -999.25 -999.25 -999.25  1.8055  0.4907 -999.25 
 -999.25 -999.25 -999.25  0.0459  0.0822  0.6211  0.0000  0.0364  1.0000 
  1.0000  0.0000  2.3991  0.0000  1.7755  9.7795  132.16 -17.666  5.1090 
  5.0990  4.4900  0.5300  83.623  0.4702  4.4900  5.1006  5.1589  1.8113 
  2650.500 
  9.7320  77.328  0.4880  0.5310 -0.0070 -49.965  5.0020  5.0200  4.0350 
  150.94  59.538  6.6040  8.9780  0.9480 -999.25 -999.25 -999.25 -999.25 
 -999.25 -999.25 -999.25 -999.25 -999.25 -999.25  1.7887  0.4883 -999.25 
 -999.25 -999.25 -999.25 -999.25 -999.25 -999.25 -999.25 -999.25 -999.25 
 -999.25 -999.25 -999.25 -999.25  1.7739  9.7780  135.55 -17.965  5.0020 
  5.0200  4.0350  0.5310  82.518  0.4675  4.0350  4.9939  5.0780  1.7945 
  2651.000 
  9.7550  78.661  0.4990  0.5120 -0.0110 -50.008  4.9270  5.0360  3.8390 
  154.73  59.563  6.5490  8.9780  0.9480 -999.25 -999.25 -999.25 -999.25 
 -999.25 -999.25 -999.25 -999.25 -999.25 -999.25  1.7765  0.4834 -999.25 
 -999.25 -999.25 -999.25 -999.25 -999.25 -999.25 -999.25 -999.25 -999.25 
 -999.25 -999.25 -999.25 -999.25  1.8052  9.7671  150.94 -18.008  4.9270 
  5.0360  3.8390  0.5120  81.490  0.4622  3.8390  4.9191  5.0939  1.7823 
  2651.500 
  9.7740  76.829  0.4990  0.4970 -0.0160 -50.050  4.9520  5.1170  3.8240 
  150.70  58.863  6.4950  8.9780  0.9480 -999.25 -999.25 -999.25 -999.25 
 -999.25 -999.25 -999.25 -999.25 -999.25 -999.25  1.7740  0.4876 -999.25 
 -999.25 -999.25 -999.25 -999.25 -999.25 -999.25 -999.25 -999.25 -999.25 
 -999.25 -999.25 -999.25 -999.25  1.8300  9.7349  154.73 -18.050  4.9520 
  5.1170  3.8240  0.4970  82.426  0.4667  3.8240  4.9440  5.1754  1.7795 
  2652.000 
  9.7620  73.572  0.4670  0.4900 -0.0180 -49.973  5.1050  5.1990  4.2320 
  127.79  58.387  6.4220  8.9780  0.9570 -999.25 -999.25 -999.25 -999.25 
 -999.25 -999.25 -999.25 -999.25 -999.25 -999.25  1.8026  0.4981 -999.25 
 -999.25 -999.25 -999.25 -999.25 -999.25 -999.25 -999.25 -999.25 -999.25 
 -999.25 -999.25 -999.25 -999.25  1.8415  9.7531  150.70 -17.973  5.1050 
  5.1990  4.2320  0.4900  84.634  0.4782  4.2320  5.0965  5.2601  1.8082 
  2652.500 
  9.7530  72.768  0.4480  0.4860 -0.0140 -49.780  5.2350  5.3310  4.9480 
  125.24  57.923  6.3490  8.9780  0.9595 -999.25 -999.25 -999.25 -999.25 
 -999.25 -999.25 -999.25 -999.25 -999.25 -999.25  1.8280  0.4990 -999.25 
 -999.25 -999.25 -999.25 -999.25 -999.25 -999.25 -999.25 -999.25 -999.25 
 -999.25 -999.25 -999.25 -999.25  1.8481  9.7725  127.79 -17.780  5.2350 
  5.3310  4.9480  0.4860  84.607  0.4793  4.9480  5.2262  5.3962  1.8337 
  2653.000 
  9.7760  74.416  0.4430  0.4880 -0.0100 -49.585  5.2420  5.4760  5.3870 
  123.89  57.930  6.2770  8.9770  0.9620 -999.25 -999.25 -999.25 -999.25 
 -999.25 -999.25 -999.25 -999.25 -999.25 -999.25  1.8406  0.4695 -999.25 
 -999.25 -999.25 -999.25 -999.25 -999.25 -999.25 -999.25 -999.25 -999.25 
 -999.25 -999.25 -999.25 -999.25  1.8448  9.7629  125.24 -17.585  5.2420 
  5.4760  5.3870  0.4880  81.874  0.4469  5.3870  5.2331  5.5443  1.8463 
  2653.500 
  9.8070  75.910  0.4380  0.4950 -0.0080 -49.352  5.2490  5.5750  5.6050 
  132.96  57.706  6.2040  8.9770  0.9660 -999.25 -999.25 -999.25 -999.25 
 -999.25 -999.25 -999.25 -999.25 -999.25 -999.25  1.8476  0.4494 -999.25 
 -999.25 -999.25 -999.25 -999.25 -999.25 -999.25 -999.25 -999.25 -999.25 
 -999.25 -999.25 -999.25 -999.25  1.8333  9.7537  123.89 -17.352  5.2490 
  5.5750  5.6050  0.4950  79.515  0.4249  5.6050  5.2400  5.6453  1.8533 
  2654.000 
  9.8380  77.954  0.4330  0.5080 -0.0090 -49.158  5.3050  5.6740  5.0130 
  141.53  57.708  6.1430  8.9770  0.9660 -999.25 -999.25 -999.25 -999.25 
 -999.25 -999.25 -999.25 -999.25 -999.25 -999.25  1.8450  0.4434 -999.25 
 -999.25 -999.25 -999.25 -999.25 -999.25 -999.25 -999.25 -999.25 -999.25 
 -999.25 -999.25 -999.25 -999.25  1.8118  9.7744  132.96 -17.158  5.3050 
  5.6740  5.0130  0.5080  79.933  0.4183  5.0130  5.2959  5.7480  1.8508 
  2654.500 
  9.8140  79.288  0.4310  0.5120 -0.0050 -48.963  5.3410  5.7650  4.5830 
  150.09  57.717  6.0470  8.9760  0.9560 -999.25 -999.25 -999.25 -999.25 
 -999.25 -999.25 -999.25 -999.25 -999.25 -999.25  1.8340  0.4383 -999.25 
 -999.25 -999.25 -999.25 -999.25 -999.25 -999.25 -999.25 -999.25 -999.25 
 -999.25 -999.25 -999.25 -999.25  1.8052  9.8049  141.53 -16.963  5.3410 
  5.7650  4.5830  0.5120  81.741  0.4128  4.5830  5.3319  5.8431  1.8401 
  2655.000 
  9.7820  79.830  0.4300  0.5110  0.0000 -48.888  5.3480  5.8160  4.3610 
  152.43  58.205  5.9680  8.9760  0.9560 -999.25 -999.25 -999.25 -999.25 
 -999.25 -999.25 -999.25 -999.25 -999.25 -999.25  1.8132  0.4333 -999.25 
 -999.25 -999.25 -999.25 -999.25 -999.25 -999.25 -999.25 -999.25 -999.25 
 -999.25 -999.25 -999.25 -999.25  1.8069  9.8360  150.09 -16.888  5.3480 
  5.8160  4.3610  0.5110  83.750  0.4073  4.3610  5.3390  5.8973  1.8194 
  2655.500 
  9.7450  80.293  0.4300  0.5060  0.0060 -49.284  5.3170  5.7700  4.3520 
  152.67  69.215  5.8950  8.9760  0.9560 -999.25 -999.25 -999.25 -999.25 
 -999.25 -999.25 -999.25 -999.25 -999.25 -999.25  1.8056  0.4311 -999.25 
 -999.25 -999.25 -999.25 -999.25 -999.25 -999.25 -999.25 -999.25 -999.25 
 -999.25 -999.25 -999.25 -999.25  1.8151  9.8155  152.43 -17.284  5.3170 
  5.7700  4.3520  0.5060  85.556  0.4049  4.3520  5.3081  5.8488  1.8117 
  2656.000 
  9.7290  80.283  0.4340  0.5040  0.0080 -50.076  5.1620  5.5920  4.3730 
  159.08  75.919  5.8470  8.9760  1.5020 -999.25 -999.25 -999.25 -999.25 
 -999.25 -999.25 -999.25 -999.25 -999.25 -999.25  1.8068  0.4301 -999.25 
 -999.25 -999.25 -999.25 -999.25 -999.25 -999.25 -999.25 -999.25 -999.25 
 -999.25 -999.25 -999.25 -999.25  1.8184  9.7839  152.67 -18.076  5.1620 
  5.5920  4.3730  0.5040  86.502  0.4037  4.3730  5.1534  5.6644  1.8126 
  2656.500 
  9.7400  80.033  0.4400  0.5070  0.0030 -50.985  4.9480  5.3510  4.2540 
  165.32  75.450  5.8280  8.9760  1.5360 -999.25 -999.25 -999.25 -999.25 
 -999.25 -999.25 -999.25 -999.25 -999.25 -999.25  1.8146  0.4300 -999.25 
 -999.25 -999.25 -999.25 -999.25 -999.25 -999.25 -999.25 -999.25 -999.25 
 -999.25 -999.25 -999.25 -999.25  1.8135  9.7471  159.08 -18.985  4.9480 
  5.3510  4.2540  0.5070  86.943  0.4036  4.2540  4.9400  5.4154  1.8202 
  2657.000 
  9.7680  78.756  0.4430  0.5080 -0.0010 -51.145  4.6150  5.0550  4.1370 
  184.35  74.984  5.8330  8.9850  1.5410 -999.25 -999.25 -999.25 -999.25 
 -999.25 -999.25 -999.25 -999.25 -999.25 -999.25  1.8182  0.4338 -999.25 
 -999.25 -999.25 -999.25 -999.25 -999.25 -999.25 -999.25 -999.25 -999.25 
 -999.25 -999.25 -999.25 -999.25  1.8118  9.7299  165.32 -19.145  4.6150 
  5.0550  4.1370  0.5080  87.140  0.4078  4.1370  4.6080  5.1117  1.8237 
  2657.500 
  9.7750  75.499  0.4440  0.5090 -0.0020 -51.030  4.3590  4.6300  4.0600 
  181.24  74.518  5.8510  8.9850  1.5405 -999.25 -999.25 -999.25 -999.25 
 -999.25 -999.25 -999.25 -999.25 -999.25 -999.25  1.8137  0.4397 -999.25 
 -999.25 -999.25 -999.25 -999.25 -999.25 -999.25 -999.25 -999.25 -999.25 
 -999.25 -999.25 -999.25 -999.25  1.8102  9.7394  184.35 -19.030  4.3590 
  4.6300  4.0600  0.5090  87.026  0.4143  4.0600  4.3528  4.6779  1.8192 
