~Version Information
VERS.                     2.0: CWLS log ASCII Standard Version 2.00
WRAP.                     YES: Multiple lines per depth step
~Well Information Block
#MNEM.UNIT                               Data Type  Information
#---------                               ---------  -----------
STRT.FT                                   850.0000:
STOP.FT                                  6800.0000:
STEP.FT                                     0.5000:
NULL.                 -999.25                     :
COMP.                                             :COMPANY            
WELL.     SANTIAGO D #26-27                       :WELL               
FLD .                                             :FIELD              
CTRY.                                             :COUNTRY            
STAT.                                             :STATE              
LOC .                                             :LOCATION           
UWI .                                             :UNIQUE WELL ID     
SRVC.                                             :Service company    
DATE.                                             :LOG DATE           
~Curve Information
#MNEM.UNIT           API CODE  Curve Description
#---------           --------  -----------------
DEPT.FT                      :   1 DEPTH
DCAL.IN                      :   2
DGR .GAPI                    :   3
NPHI.PU-S                    :   4
DPHI.PU-S                    :   5
DRHO.G/C3                    :   6
AGR .GAPI                    :   7
ACAL.IN                      :   8
DT  .US/F                    :   9
GR  .GAPI                    :  10
SP  .MV                      :  11
ILM .OHMM                    :  12
ILD .OHMM                    :  13
SFLU.OHMM                    :  14
RHOB.G/C3                    :  15
RS  .OHMM                    :  16
RM  .OHMM                    :  17
RD  .OHMM                    :  18
GRS .GAPI                    :  19
SBL .MV                      :  20
ROBS.G/C3                    :  21
DRHS.G/C3                    :  22
CALS.IN                      :  23
GRS .GAPI                    :  24
NPHS.PU-S                    :  25
CALS.IN                      :  26
GRS .GAPI                    :  27
SFLU.OHMM                    :  28
ILMC.OHMM                    :  29
ILDC.OHMM                    :  30
ROBC.G/C3                    :  31
GRC .GAPI                    :  32
NPHC.PU-S                    :  33
~A
# ...
  1749.000 
  10.239  97.062  0.3770  0.2910  0.0560  99.233  12.049  127.76  92.652 
 -2.2070  4.3710  4.6940  4.5000  2.1699  4.5000  4.3710  4.6940  92.652 
 -8.2070  2.1699  0.0562  10.240  97.063  0.3861  12.114  95.960  4.9163 
  4.4005  4.6912  2.1789  102.14  0.3956 
  1749.500 
  10.273  97.088  0.3810  0.2910  0.0610  100.77  11.969  134.79  96.495 
 -1.5750  3.8110  4.3860  3.5940  2.1699  3.5940  3.8110  4.3860  96.495 
 -7.5750  2.1692  0.0609  10.276  97.078  0.4097  12.049  99.233  3.9354 
  3.8338  4.3836  2.1785  102.28  0.4242 
  1750.000 
  10.363  96.796  0.4040  0.3030  0.0580  100.60  11.921  136.92  99.624 
 -1.7350  3.6600  4.1220  2.6880  2.1501  2.6880  3.6600  4.1220  99.624 
 -7.7350  2.1494  0.0577  10.365  96.799  0.4317  11.969  100.77  2.9540 
  3.6820  4.1200  2.1593  102.28  0.4509 
  1750.500 
  10.413  96.898  0.4300  0.3150  0.0480  100.82  11.836  137.66  100.57 
 -2.1730  3.5810  3.7480  2.9500  2.1303  2.9500  3.5810  3.7480  100.57 
 -8.1730  2.1302  0.0478  10.412  96.947  0.4393  11.921  100.60  3.2424 
  3.6026  3.7464  2.1404  102.58  0.4601 
  1751.000 
  10.372  98.271  0.4380  0.3160  0.0420  106.43  11.807  138.98  101.76 
 -2.0750  3.4210  3.3890  3.1050  2.1286  3.1050  3.4210  3.3890  101.76 
 -8.0750  2.1287  0.0423  10.368  98.487  0.4500  11.836  100.82  3.4091 
  3.4403  3.3876  2.1386  104.07  0.4730 
  1751.500 
  10.275  104.00  0.4440  0.3150  0.0500  109.62  11.715  141.05  103.31 
 -1.9780  2.8440  3.0710  3.0370  2.1303  3.0370  2.8440  3.0710  103.31 
 -7.9780  2.1301  0.0502  10.271  104.10  0.4884  11.807  106.43  3.3294 
  2.8567  3.0698  2.1394  109.66  0.5192 
  1752.000 
  10.186  106.56  0.4720  0.3170  0.0550  112.33  11.694  148.96  103.82 
 -1.3070  2.6530  2.9710  2.5670  2.1270  2.5670  2.6530  2.9710  103.82 
 -7.3070  2.1256  0.0549  10.183  106.57  0.5507  11.715  109.62  2.8142 
  2.6635  2.9698  2.1343  111.94  0.5944 
  1752.500 
  10.106  106.86  0.5490  0.3370  0.0530  113.31  11.941  150.26  100.13 
 -0.9920  2.6630  2.9600  2.2590  2.0940  2.2590  2.6630  2.9600  100.13 
 -6.9920  2.0927  0.0527  10.103  106.78  0.5583  11.694  112.33  2.4772 
  2.6731  2.9588  2.1008  111.88  0.6034 
  1753.000 
  10.041  105.14  0.5570  0.3550  0.0460  113.25  12.000  147.40  95.689 
 -0.9150  2.7720  3.0030  2.1340  2.0643  2.1340  2.7720  3.0030  95.689 
 -6.9150  2.0640  0.0453  10.041  104.92  0.5597  11.941  113.31  2.3399 
  2.7825  3.0017  2.0716  109.70  0.6051 
  1753.500 
  10.047  100.18  0.5630  0.3590  0.0310  112.81  12.010  144.53  94.339 
 -0.9560  2.9710  3.0480  2.1190  2.0577  2.1190  2.9710  3.0480  94.339 
 -6.9560  2.0586  0.0306  10.049  99.980  0.5431  12.000  113.25  2.3239 
  2.9832  3.0467  2.0663  104.56  0.5850 
  1754.000 
  10.089  95.962  0.5470  0.3470  0.0220  109.08  12.013  138.24  96.597 
 -1.1960  3.2250  3.1210  2.1930  2.0775  2.1930  3.2250  3.1210  96.597 
 -7.1960  2.0793  0.0222  10.093  95.920  0.5266  12.010  112.81  2.4054 
  3.2397  3.1196  2.0874  100.46  0.5651 
  1754.500 
  10.163  95.076  0.5280  0.3230  0.0260  102.22  12.015  129.36  97.704 
 -1.3960  3.5270  3.3510  2.5520  2.1171  2.5520  3.5270  3.3510  97.704 
 -7.3960  2.1185  0.0262  10.166  95.052  0.5100  12.013  109.08  2.7972 
  3.5454  3.3495  2.1271  99.789  0.5452 
  1755.000 
  10.229  94.586  0.5210  0.3050  0.0300  97.775  11.887  125.79  96.236 
 -2.0720  3.9930  3.8350  3.1660  2.1467  3.1660  3.9930  3.8350  96.236 
 -8.0720  2.1476  0.0303  10.232  94.557  0.4507  12.015  102.22  3.4673 
  4.0175  3.8331  2.1566  99.482  0.4736 
  1755.500 
  10.291  94.017  0.4660  0.2950  0.0350  96.734  11.736  123.78  90.527 
 -2.9060  4.4710  4.3510  3.8850  2.1633  3.8850  4.4710  4.3510  90.527 
 -8.9060  2.1634  0.0350  10.292  93.959  0.3823  11.887  97.775  4.2530 
  4.5027  4.3486  2.1728  99.042  0.3911 
  1756.000 
  10.301  92.932  0.3890  0.2930  0.0350  98.619  11.643  123.46  84.143 
 -4.6910  4.9350  4.7750  4.8280  2.1666  4.8280  4.9350  4.7750  84.143 
 -10.691  2.1663  0.0348  10.297  92.816  0.3550  11.736  96.734  5.2787 
  4.9738  4.7722  2.1757  97.855  0.3581 
  1756.500 
  10.232  90.817  0.3550  0.2960  0.0310  101.30  11.662  122.84  80.336 
 -6.5560  5.4960  5.3570  5.2700  2.1616  5.2700  5.4960  5.3570  80.336 
 -12.556  2.1609  0.0308  10.227  90.718  0.3567  11.643  98.619  5.7498 
  5.5423  5.3533  2.1699  95.425  0.3601 
  1757.000 
  10.136  89.060  0.3550  0.3030  0.0280  101.44  11.681  121.93  77.996 
 -8.3420  5.9450  5.8800  5.2310  2.1501  5.2310  5.9450  5.8800  77.996 
 -14.342  2.1491  0.0277  10.130  88.962  0.3676  11.662  101.30  5.6952 
  5.9964  5.8753  2.1574  93.287  0.3731 
  1757.500 
  10.039  87.382  0.3640  0.3130  0.0230  98.421  11.703  123.52  76.567 
 -9.5330  6.4300  6.4650  5.2210  2.1336  5.2210  6.4300  6.4650  76.567 
 -15.533  2.1329  0.0231  10.037  87.239  0.3847  11.681  101.44  5.6725 
  6.4869  6.4590  2.1405  91.201  0.3936 
  1758.000 
  10.006  84.990  0.3830  0.3200  0.0250  92.830  11.697  125.02  75.455 
 -10.169  6.9040  6.9930  5.4350  2.1220  5.4350  6.9040  6.9930  75.455 
 -16.169  2.1217  0.0258  10.007  84.804  0.3901  11.703  98.421  5.8991 
  6.9684  6.9859  2.1291  88.568  0.4002 
  1758.500 
  10.020  81.965  0.3920  0.3230  0.0380  85.578  11.704  126.91  74.661 
 -10.527  7.2000  7.2530  6.3360  2.1171  6.3360  7.2000  7.2530  74.661 
 -16.527  2.1166  0.0388  10.020  81.608  0.3796  11.697  92.830  6.8708 
  7.2706  7.2454  2.1242  85.268  0.3874 
  1759.000 
  10.027  76.327  0.3820  0.3270  0.0510  80.066  11.738  128.27  73.747 
 -10.688  7.4670  7.4540  7.2390  2.1105  7.2390  7.4670  7.4540  73.747 
 -16.688  2.1099  0.0516  10.027  76.110  0.3679  11.704  85.578  7.8434 
  7.5433  7.4460  2.1175  79.539  0.3733 
  1759.500 
  10.021  72.985  0.3690  0.3320  0.0600  79.104  11.757  128.91  72.120 
 -10.730  7.6600  7.7030  7.6190  2.1022  7.6190  7.6600  7.7030  72.120 
 -16.730  2.1014  0.0600  10.021  73.002  0.3646  11.738  80.066  8.2508 
  7.7400  7.6944  2.1090  76.277  0.3694 
  1760.000 
  10.016  73.246  0.3630  0.3390  0.0600  80.196  12.028  129.01  69.859 
 -10.533  7.8010  7.9160  7.1720  2.0907  7.1720  7.8010  7.9160  69.859 
 -16.533  2.0900  0.0595  10.015  73.372  0.3752  11.757  79.104  7.7690 
  7.8837  7.9069  2.0975  76.649  0.3822 
  1760.500 
  9.9980  75.093  0.3720  0.3450  0.0530  82.558  12.237  128.94  69.223 
 -10.218  7.9590  8.0910  6.8770  2.0807  6.8770  7.9590  8.0910  69.223 
 -16.218  2.0799  0.0522  9.9954  75.225  0.3927  12.028  80.196  7.4482 
  8.0441  8.0814  2.0873  78.534  0.4032 
  1761.000 
  9.9610  76.977  0.3900  0.3520  0.0420  85.630  12.370  128.83  69.935 
 -9.9430  8.1350  8.3300  6.9520  2.0692  6.9520  8.1350  8.3300  69.935 
 -15.943  2.0694  0.0419  9.9598  77.039  0.4048  12.237  82.558  7.5222 
  8.2219  8.3196  2.0765  80.333  0.4178 
  1761.500 
  9.9440  77.835  0.4050  0.3500  0.0410  88.069  12.491  129.17  72.351 
 -9.8260  8.3750  8.4830  7.3970  2.0725  7.3970  8.3750  8.4830  72.351 
 -15.826  2.0738  0.0420  9.9550  77.837  0.4040  12.370  85.630  7.9988 
  8.4668  8.4722  2.0809  81.152  0.4168 
  1762.000 
  10.093  77.859  0.4040  0.3390  0.0550  89.440  12.597  131.56  74.410 
 -10.026  8.5140  8.7180  8.1630  2.0907  8.1630  8.5140  8.7180  74.410 
 -16.026  2.0909  0.0564  10.111  77.736  0.4040  12.491  88.069  8.8563 
  8.6186  8.7075  2.0991  81.464  0.4171 
  1762.500 
  10.333  76.220  0.4040  0.3370  0.0740  86.223  12.631  133.67  73.932 
 -10.543  8.7330  8.8950  8.7180  2.0940  8.7180  8.7330  8.8950  73.932 
 -16.543  2.0940  0.0749  10.361  75.990  0.4038  12.597  89.440  9.5171 
  8.8593  8.8855  2.1038  80.280  0.4172 
  1763.000 
  10.700  73.236  0.4040  0.3370  0.0850  83.875  12.645  135.52  74.168 
 -10.942  8.9100  9.0410  9.1580  2.0940  9.1580  8.9100  9.0410  74.168 
 -16.942  2.0942  0.0855  10.709  73.073  0.4025  12.631  86.223  10.088 
  9.0653  9.0333  2.1064  78.045  0.4160 
