~Version Information
VERS.                     2.0: CWLS log ASCII Standard Version 2.00
WRAP.                      NO: One line per depth step
~Well Information Block
#MNEM.UNIT                               Data Type  Information
#---------                               ---------  -----------
STRT.FT                                   318.0000:
STOP.FT                                  2700.0000:
STEP.FT                                     0.5000:
NULL.                 -999.25                     :
COMP.                                             :COMPANY            
WELL.     LOS LOBOS 82X-30                        :WELL               
FLD .                                             :FIELD              
CTRY.                                             :COUNTRY            
STAT.                                             :STATE              
LOC .                                             :LOCATION           
UWI .                                             :UNIQUE WELL ID     
SRVC.                                             :Service company    
DATE.                                             :LOG DATE           
~Curve Information
#MNEM.UNIT           API CODE  Curve Description
#---------           --------  -----------------
DEPT.FT                      :   1 DEPTH
SP  .MV                      :   2
ILD .OHMM                    :   3
ILM .OHMM                    :   4
SFLU.OHMM                    :   5
CALI.IN                      :   6
GR  .GAPI                    :   7
NPHI.PU-S                    :   8
DPHI.PU-S                    :   9
DRHO.G/C3                    :  10
CALI.IN                      :  11
DT  .US/F                    :  12
SBL .MV                      :  13
RS  .OHMM                    :  14
RM  .OHMM                    :  15
RD  .OHMM                    :  16
DTS .US/F                    :  17
CALS.IN                      :  18
RHOB.G/C3                    :  19
ROBS.G/C3                    :  20
DROS.G/C3                    :  21
CALS.IN                      :  22
GRS .GAPI                    :  23
NPHS.PU-S                    :  24
SFLU.OHMM                    :  25
ILMC.OHMM                    :  26
ILDC.OHMM                    :  27
ROBC.G/C3                    :  28
GRC .GAPI                    :  29
NPHC.PU-S                    :  30
~A
# ...
   945.000 -53.952  2.8790  2.8270  3.2370  13.166  70.745  0.4410  0.2990  0.0930  13.016  143.85 -9.1671  3.2370  2.8270  2.8790  140.96  13.004  2.1567  2.1569  0.0929  13.168  69.184  0.4458  3.7174  2.8544  2.8835  2.1831  78.099  0.4247 
   945.500 -53.723  2.8620  2.7730  2.7430  13.131  68.607  0.4540  0.3270  0.0860  13.079  149.24 -8.9273  2.7430  2.7730  2.8620  143.78  13.016  2.1105  2.1101  0.0858  13.131  66.983  0.4570  3.1353  2.7991  2.8664  2.1362  75.546  0.4369 
   946.000 -53.537  2.7880  2.7370  2.3940  13.131  66.390  0.4620  0.3510  0.0660  13.074  150.50 -8.7305  2.3940  2.7370  2.7880  149.23  13.079  2.0709  2.0706  0.0655  13.132  65.432  0.4657  2.7258  2.7624  2.7921  2.0966  73.799  0.4466 
   946.500 -53.196  2.7150  2.6960  2.2690  13.212  65.087  0.4720  0.3600  0.0410  13.032  151.76 -8.3788  2.2690  2.6960  2.7150  150.49  13.074  2.0560  2.0564  0.0408  13.214  64.125  0.4746  2.5813  2.7211  2.7192  2.0829  72.470  0.4564 
   947.000 -52.964  2.6260  2.6560  2.2430  13.294  63.783  0.4790  0.3510  0.0330  12.990  152.72 -8.1360  2.2430  2.6560  2.6260  151.75  13.032  2.0709  2.0711  0.0330  13.308  63.313  0.4827  2.5533  2.6808  2.6302  2.0981  71.715  0.4654 
   947.500 -52.266  2.5530  2.5400  2.2210  13.674  63.148  0.4890  0.3460  0.0320  13.072  151.51 -7.4273  2.2210  2.5400  2.5530  152.71  12.990  2.0791  2.0795  0.0320  13.687  64.504  0.4912  2.5375  2.5645  2.5582  2.1082  73.727  0.4749 
   948.000 -51.681  2.5110  2.4920  2.2040  13.971  64.973  0.4950  0.3400  0.0320  13.128  150.22 -6.8315  2.2040  2.4920  2.5110  151.53  13.071  2.0890  2.0888  0.0320  13.973  66.451  0.4957  2.5248  2.5169  2.5169  2.1188  76.457  0.4801 
   948.500 -51.335  2.4870  2.4780  2.1870  14.011  66.956  0.4970  0.3420  0.0320  13.211  150.18 -6.4748  2.1870  2.4780  2.4870  150.24  13.127  2.0857  2.0855  0.0321  13.989  67.667  0.4894  2.5048  2.5026  2.4928  2.1155  77.884  0.4731 
   949.000 -51.308  2.4630  2.4670  2.2020  13.655  67.907  0.4760  0.3440  0.0330  13.230  150.15 -6.4370  2.2020  2.4670  2.4630  150.18  13.209  2.0824  2.0835  0.0335  13.640  66.423  0.4674  2.5136  2.4899  2.4677  2.1119  75.836  0.4486 
   949.500 -51.361  2.4370  2.4570  2.2460  13.445  65.929  0.4520  0.3350  0.0400  13.190  150.98 -6.4793  2.2460  2.4570  2.4370  150.15  13.230  2.0972  2.0991  0.0436  13.435  63.245  0.4499  2.5603  2.4788  2.4410  2.1266  71.858  0.4292 
   950.000 -51.406  2.4120  2.4490  2.2310  13.318  62.365  0.4460  0.3210  0.0850  13.074  151.26 -6.5135  2.2310  2.4490  2.4120  150.96  13.191  2.1204  2.1212  0.0864  13.328  61.587  0.4528  2.5397  2.4702  2.4156  2.1483  69.794  0.4324 
   950.500 -51.384  2.4100  2.4410  2.2160  13.429  61.335  0.4650  0.3150  0.1010  13.081  151.07 -6.4808  2.2160  2.4410  2.4100  151.26  13.077  2.1303  2.1286  0.1008  13.431  61.398  0.4781  2.5247  2.4625  2.4139  2.1561  69.753  0.4604 
   951.000 -51.312  2.4090  2.4420  2.1650  13.453  61.418  0.5020  0.3250  0.0990  13.112  150.12 -6.3980  2.1650  2.4420  2.4090  151.07  13.081  2.1138  2.1102  0.0953  13.441  61.480  0.5137  2.4645  2.4636  2.4129  2.1377  69.863  0.4997 
   951.500 -51.240  2.4210  2.4430  2.1720  13.342  61.500  0.5350  0.3450  0.0650  13.155  149.85 -6.3153  2.1720  2.4430  2.4210  150.15  13.111  2.0807  2.0790  0.0603  13.335  61.956  0.5308  2.4701  2.4641  2.4247  2.1061  70.223  0.5185 
   952.000 -50.943  2.4330  2.4410  2.1850  13.279  62.097  0.5230  0.3540  0.0250  13.193  149.58 -6.0075  2.1850  2.4410  2.4330  149.86  13.153  2.0659  2.0678  0.0239  13.285  62.553  0.5086  2.4842  2.4619  2.4366  2.0946  70.816  0.4940 
   952.500 -50.918  2.4470  2.4450  2.1980  13.326  62.693  0.4820  0.3450  0.0160  13.230  150.11 -5.9718  2.1980  2.4450  2.4470  149.59  13.192  2.0807  2.0819  0.0163  13.331  63.606  0.4715  2.5008  2.4661  2.4507  2.1089  72.087  0.4531 
   953.000 -50.964  2.4620  2.4480  2.2370  13.362  63.881  0.4520  0.3400  0.0180  13.265  150.65 -6.0070  2.2370  2.4480  2.4620  150.09  13.228  2.0890  2.0904  0.0183  13.360  64.127  0.4492  2.5476  2.4693  2.4659  2.1176  72.728  0.4285 
   953.500 -51.021  2.4600  2.4580  2.2650  13.346  64.200  0.4440  0.3340  0.0200  13.300  150.38 -6.0533  2.2650  2.4580  2.4600  150.62  13.263  2.0989  2.0994  0.0221  13.343  61.995  0.4499  2.5802  2.4794  2.4638  2.1265  70.282  0.4292 
   954.000 -51.109  2.4680  2.4670  2.3140  13.325  61.350  0.4610  0.3320  0.0340  13.339  150.12 -6.1305  2.3140  2.4670  2.4680  150.39  13.298  2.1022  2.1025  0.0358  13.321  59.936  0.4644  2.6375  2.4885  2.4718  2.1295  67.912  0.4453 
   954.500 -51.176  2.4760  2.4710  2.2770  13.303  59.528  0.4710  0.3310  0.0450  13.378  149.85 -6.1868  2.2770  2.4710  2.4760  150.13  13.337  2.1039  2.1013  0.0467  13.306  59.963  0.4724  2.5933  2.4925  2.4798  2.1282  67.917  0.4540 
   955.000 -51.244  2.4950  2.4740  2.2410  13.319  60.086  0.4750  0.3400  0.0550  13.394  149.36 -6.2440  2.2410  2.4740  2.4950  149.87  13.376  2.0890  2.0887  0.0582  13.321  60.522  0.4730  2.5513  2.4956  2.4989  2.1157  68.576  0.4547 
   955.500 -51.298  2.5140  2.4840  2.1700  13.331  60.644  0.4690  0.3410  0.0730  13.403  148.95 -6.2872  2.1700  2.4840  2.5140  149.39  13.393  2.0874  2.0870  0.0753  13.338  63.253  0.4673  2.4679  2.5059  2.5180  2.1141  71.699  0.4484 
   956.000 -51.352  2.5300  2.4940  2.1030  13.367  63.972  0.4640  0.3420  0.0850  13.412  149.76 -6.3305  2.1030  2.4940  2.5300  148.97  13.402  2.0857  2.0864  0.0856  13.386  61.729  0.4633  2.3898  2.5162  2.5342  2.1136  70.053  0.4440 
   956.500 -51.290  2.5410  2.4950  2.0600  13.462  61.120  0.4620  0.3400  0.0880  13.350  151.25 -6.2577  2.0600  2.4950  2.5410  149.71  13.411  2.0890  2.0907  0.0855  13.500  60.622  0.4644  2.3413  2.5178  2.5456  2.1185  68.986  0.4452 
   957.000 -51.377  2.5510  2.4960  2.0590  13.648  60.489  0.4690  0.3350  0.0760  13.288  153.42 -6.3340  2.0590  2.4960  2.5510  151.15  13.354  2.0972  2.1026  0.0743  13.672  61.933  0.4767  2.3439  2.5196  2.5561  2.1312  70.763  0.4589 
   957.500 -51.590  2.5570  2.5170  2.1030  13.759  62.313  0.4920  0.3200  0.0680  13.163  155.27 -6.5362  2.1030  2.5170  2.5570  153.28  13.292  2.1220  2.1250  0.0671  13.751  63.574  0.4987  2.3982  2.5413  2.5624  2.1539  72.773  0.4832 
   958.000 -51.800  2.5630  2.5390  2.1490  13.724  63.901  0.5120  0.3120  0.0640  13.142  155.52 -6.7355  2.1490  2.5390  2.5630  155.14  13.172  2.1352  2.1364  0.0638  13.716  64.216  0.5103  2.4524  2.5636  2.5683  2.1652  73.448  0.4961 
   958.500 -52.026  2.5730  2.5560  2.1960  13.688  64.297  0.5070  0.3090  0.0630  13.114  154.05 -6.9507  2.1960  2.5560  2.5730  155.50  13.144  2.1402  2.1406  0.0632  13.660  64.172  0.4961  2.5070  2.5807  2.5782  2.1691  73.301  0.4804 
   959.000 -52.252  2.5840  2.5740  2.2440  13.573  64.140  0.4740  0.3080  0.0640  13.093  151.71 -7.1660  2.2440  2.5740  2.5840  154.16  13.116  2.1418  2.1410  0.0655  13.578  64.079  0.4674  2.5619  2.5986  2.5890  2.1692  73.054  0.4487 
   959.500 -53.104  2.6050  2.6060  2.3470  13.593  64.064  0.4540  0.3100  0.0700  13.072  150.12 -8.0072  2.3470  2.6060  2.6050  151.89  13.095  2.1385  2.1355  0.0710  13.697  64.001  0.4517  2.6879  2.6318  2.6104  2.1642  73.170  0.4313 
   960.000 -53.469  2.6210  2.6370  2.3870  13.993  63.986  0.4470  0.3170  0.0740  13.064  148.80 -8.3615  2.3870  2.6370  2.6210  150.25  13.074  2.1270  2.1278  0.0754  14.018  63.222  0.4444  2.7458  2.6651  2.6275  2.1580  72.816  0.4234 
   960.500 -53.538  2.6370  2.6600  2.4280  14.085  63.039  0.4390  0.3150  0.0790  13.056  147.49 -8.4197  2.4280  2.6600  2.6370  148.91  13.065  2.1303  2.1316  0.0798  14.001  60.218  0.4367  2.7944  2.6885  2.6435  2.1617  69.329  0.4149 
   961.000 -53.608  2.6730  2.6840  2.4980  13.784  59.554  0.4320  0.3120  0.0820  13.055  145.18 -8.4790  2.4980  2.6840  2.6730  147.60  13.057  2.1352  2.1361  0.0806  13.687  58.912  0.4310  2.8674  2.7114  2.6787  2.1648  67.336  0.4085 
