~Version Information
VERS.                     2.0: CWLS log ASCII Standard Version 2.00
WRAP.                     YES: Multiple lines per depth step
~Well Information Block
#MNEM.UNIT                               Data Type  Information
#---------                               ---------  -----------
STRT.FT                                   805.0000:
STOP.FT                                  5010.0000:
STEP.FT                                     0.5000:
NULL.                 -999.25                     :
COMP.                                             :COMPANY            
WELL.     SANTIAGO C 55-28                        :WELL               
FLD .                                             :FIELD              
CTRY.                                             :COUNTRY            
STAT.                                             :STATE              
LOC .                                             :LOCATION           
UWI .                                             :UNIQUE WELL ID     
SRVC.                                             :Service company    
DATE.                                             :LOG DATE           
~Curve Information
#MNEM.UNIT           API CODE  Curve Description
#---------           --------  -----------------
DEPT.FT                      :   1 DEPTH
CALI.IN                      :   2
GR  .GAPI                    :   3
NPHI.PU-S                    :   4
DPHI.PU-S                    :   5
DRHO.G/C3                    :   6
SP  .MV                      :   7
ILD .OHMM                    :   8
ILM .OHMM                    :   9
SFLU.OHMM                    :  10
LLD .OHMM                    :  11
LLS .OHMM                    :  12
MSFL.OHMM                    :  13
DT  .US/F                    :  14
SPHI.                        :  15
KSCI.                        :  16
PSCI.                        :  17
OSCI.                        :  18
WSCI.                        :  19
KWCI.                        :  20
PWCI.                        :  21
OWCI.                        :  22
WWCI.                        :  23
SBL .MV                      :  24
RS  .OHMM                    :  25
RM  .OHMM                    :  26
RD  .OHMM                    :  27
DTS .US/F                    :  28
RHOB.G/C3                    :  29
ROBS.G/C3                    :  30
DROS.G/C3                    :  31
CALS.IN                      :  32
GRS .GAPI                    :  33
NPHS.PU-S                    :  34
SFLU.OHMM                    :  35
ILMC.OHMM                    :  36
ILDC.OHMM                    :  37
ROBC.G/C3                    :  38
GRC .GAPI                    :  39
NPHC.PU-S                    :  40
~A
# ...
  4369.000 
  10.386  122.78  0.3980  0.4700 -0.0380 -43.295 -999.25 -999.25 -999.25 
  5.8730  4.8480  15.416 -999.25  33.509 -999.25 -999.25 -999.25 -999.25 
 -999.25 -999.25 -999.25 -999.25 -20.440  15.416  4.8480  5.8730 -999.25 
  1.8745  1.9910 -0.0130  10.015  118.81  0.4567  15.416  4.8480  5.8730 
  1.9910  118.81  0.4567 
  4369.500 
  10.656  123.57  0.4250  0.4570 -0.0330 -43.296 -999.25 -999.25 -999.25 
  6.1740  4.9480  6.3120 -999.25  33.522 -999.25 -999.25 -999.25 -999.25 
 -999.25 -999.25 -999.25 -999.25 -20.442  6.3120  4.9480  6.1740 -999.25 
  1.8960  1.9672 -0.0194  10.064  113.09  0.4367  6.3120  4.9480  6.1740 
  1.9672  113.09  0.4367 
  4370.000 
  10.239  117.73  0.4640  0.4420 -0.0280 -43.216 -999.25 -999.25 -999.25 
  6.4780  5.4970  10.720 -999.25  33.583 -999.25 -999.25 -999.25 -999.25 
 -999.25 -999.25 -999.25 -999.25 -20.363  10.720  5.4970  6.4780 -999.25 
  1.9207  1.9482 -0.0236  10.074  104.14  0.4341  10.720  5.4970  6.4780 
  1.9482  104.14  0.4341 
  4370.500 
  10.266  112.41  0.4740  0.4320 -0.0250 -42.740 -999.25 -999.25 -999.25 
  6.5980  5.8630  16.537 -999.25  34.026 -999.25 -999.25 -999.25 -999.25 
 -999.25 -999.25 -999.25 -999.25 -19.888  16.537  5.8630  6.5980 -999.25 
  1.9372  1.9303 -0.0221  10.007  93.480  0.4440  16.537  5.8630  6.5980 
  1.9303  93.480  0.4440 
  4371.000 
  10.384  114.11  0.4590  0.4260 -0.0220 -41.638 -999.25 -999.25 -999.25 
  6.5130  5.6190  8.3550 -999.25  34.683 -999.25 -999.25 -999.25 -999.25 
 -999.25 -999.25 -999.25 -999.25 -18.787  8.3550  5.6190  6.5130 -999.25 
  1.9471  1.9148 -0.0163  9.9539  84.768  0.4368  8.3550  5.6190  6.5130 
  1.9148  84.768  0.4368 
  4371.500 
  10.426  124.03  0.4530  0.4300 -0.0200 -40.457 -999.25 -999.25 -999.25 
  5.9930  5.2280  5.8080 -999.25  34.946 -999.25 -999.25 -999.25 -999.25 
 -999.25 -999.25 -999.25 -999.25 -17.607  5.8080  5.2280  5.9930 -999.25 
  1.9405  1.9003 -0.0127  10.091  79.764  0.4124  5.8080  5.2280  5.9930 
  1.9003  79.764  0.4124 
  4372.000 
  10.397  130.19  0.4780  0.4340 -0.0160 -39.315 -999.25 -999.25 -999.25 
  5.5050  4.8830  5.0010 -999.25  33.184 -999.25 -999.25 -999.25 -999.25 
 -999.25 -999.25 -999.25 -999.25 -16.466  5.0010  4.8830  5.5050 -999.25 
  1.9339  1.8865 -0.0120  10.290  76.527  0.3916  5.0010  4.8830  5.5050 
  1.8865  76.527  0.3916 
  4372.500 
  10.204  137.35  0.5000  0.4170 -0.0100 -38.729 -999.25 -999.25 -999.25 
  5.3150  4.6880  4.9280 -999.25  32.829 -999.25 -999.25 -999.25 -999.25 
 -999.25 -999.25 -999.25 -999.25 -15.881  4.9280  4.6880  5.3150 -999.25 
  1.9620  1.8689 -0.0181  10.163  74.066  0.3807  4.9280  4.6880  5.3150 
  1.8689  74.066  0.3807 
  4373.000 
  10.034  131.04  0.5390  0.3750 -0.0040 -38.261 -999.25 -999.25 -999.25 
  5.4940  4.6530  4.9180 -999.25  34.320 -999.25 -999.25 -999.25 -999.25 
 -999.25 -999.25 -999.25 -999.25 -15.414  4.9180  4.6530  5.4940 -999.25 
  2.0312  1.8526 -0.0273  9.9938  72.293  0.3867  4.9180  4.6530  5.4940 
  1.8526  72.293  0.3867 
  4373.500 
  9.9770  128.19  0.5260  0.3820  0.0040 -37.952 -999.25 -999.25 -999.25 
  5.7110  5.1030  5.7740 -999.25  37.729 -999.25 -999.25 -999.25 -999.25 
 -999.25 -999.25 -999.25 -999.25 -15.106  5.7740  5.1030  5.7110 -999.25 
  2.0197  1.8441 -0.0350  9.9833  72.020  0.3908  5.7740  5.1030  5.7110 
  1.8441  72.020  0.3908 
  4374.000 
  9.9990  124.51  0.4870  0.3520  0.0120 -37.722 -999.25 -999.25 -999.25 
  6.0910  5.4830  15.098 -999.25  39.137 -999.25 -999.25 -999.25 -999.25 
 -999.25 -999.25 -999.25 -999.25 -14.877  15.098  5.4830  6.0910 -999.25 
  2.0692  1.8506 -0.0351  10.031  74.803  0.3741  15.098  5.4830  6.0910 
  1.8506  74.803  0.3741 
  4374.500 
  10.058  120.74  0.4630  0.3500  0.0180 -37.651 -999.25 -999.25 -999.25 
  6.3540  5.7520  20.020 -999.25  40.497 -999.25 -999.25 -999.25 -999.25 
 -999.25 -999.25 -999.25 -999.25 -14.807  20.020  5.7520  6.3540 -999.25 
  2.0725  1.8655 -0.0150  10.076  78.913  0.3673  20.020  5.7520  6.3540 
  1.8655  78.913  0.3673 
  4375.000 
  10.068  116.86  0.4410  0.3580  0.0180 -37.579 -999.25 -999.25 -999.25 
  6.5560  6.0450  9.2400 -999.25  40.928 -999.25 -999.25 -999.25 -999.25 
 -999.25 -999.25 -999.25 -999.25 -14.736  9.2400  6.0450  6.5560 -999.25 
  2.0593  1.8728 -0.0090  10.005  81.894  0.3739  9.2400  6.0450  6.5560 
  1.8728  81.894  0.3739 
  4375.500 
  10.019  109.58  0.4290  0.3760  0.0120 -37.944 -999.25 -999.25 -999.25 
  6.7770  6.3180  10.455 -999.25  38.820 -999.25 -999.25 -999.25 -999.25 
 -999.25 -999.25 -999.25 -999.25 -15.102  10.455  6.3180  6.7770 -999.25 
  2.0296  1.8758 -0.0060  9.9604  83.481  0.3887  10.455  6.3180  6.7770 
  1.8758  83.481  0.3887 
  4376.000 
  9.9970  99.673  0.4410  0.3920 -0.0100 -38.982 -999.25 -999.25 -999.25 
  7.0050  6.6040  7.7250 -999.25  34.567 -999.25 -999.25 -999.25 -999.25 
 -999.25 -999.25 -999.25 -999.25 -16.141  7.7250  6.6040  7.0050 -999.25 
  2.0032  1.8670 -0.0080  10.055  83.173  0.3998  7.7250  6.6040  7.0050 
  1.8670  83.173  0.3998 
  4376.500 
  10.039  88.529  0.4470  0.4090 -0.0170 -39.902 -999.25 -999.25 -999.25 
  7.1480  6.8510  5.0440 -999.25  30.648 -999.25 -999.25 -999.25 -999.25 
 -999.25 -999.25 -999.25 -999.25 -17.062  5.0440  6.8510  7.1480 -999.25 
  1.9752  1.8573 -0.0187  10.057  83.001  0.4002  5.0440  6.8510  7.1480 
  1.8573  83.001  0.4002 
  4377.000 
  10.090  82.291  0.4290  0.4190 -0.0220 -40.861 -999.25 -999.25 -999.25 
  7.0560  7.0690  10.865 -999.25  29.804 -999.25 -999.25 -999.25 -999.25 
 -999.25 -999.25 -999.25 -999.25 -18.022  10.865  7.0690  7.0560 -999.25 
  1.9587  1.8561 -0.0232  9.9896  87.275  0.3894  10.865  7.0690  7.0560 
  1.8561  87.275  0.3894 
  4377.500 
  10.060  78.406  0.4030  0.4310 -0.0250 -41.543 -999.25 -999.25 -999.25 
  6.8500  7.0030  10.587 -999.25  30.437 -999.25 -999.25 -999.25 -999.25 
 -999.25 -999.25 -999.25 -999.25 -18.705  10.587  7.0030  6.8500 -999.25 
  1.9389  1.8730 -0.0247  10.006  92.055  0.3736  10.587  7.0030  6.8500 
  1.8730  92.055  0.3736 
  4378.000 
  9.9670  75.758  0.3870  0.4400 -0.0200 -41.273 -999.25 -999.25 -999.25 
  6.6870  6.6620  7.3470 -999.25  33.263 -999.25 -999.25 -999.25 -999.25 
 -999.25 -999.25 -999.25 -999.25 -18.436  7.3470  6.6620  6.6870 -999.25 
  1.9240  1.8890 -0.0276  10.025  98.160  0.3770  7.3470  6.6620  6.6870 
  1.8890  98.160  0.3770 
  4378.500 
  9.9460  73.469  0.3790  0.4490 -0.0140 -40.767 -999.25 -999.25 -999.25 
  6.5400  6.5520  6.1990 -999.25  34.825 -999.25 -999.25 -999.25 -999.25 
 -999.25 -999.25 -999.25 -999.25 -17.931  6.1990  6.5520  6.5400 -999.25 
  1.9092  1.9041 -0.0264  10.020  102.71  0.3935  6.1990  6.5520  6.5400 
  1.9041  102.71  0.3935 
  4379.000 
  10.163  71.857  0.3880  0.4570 -0.0120 -40.457 -999.25 -999.25 -999.25 
  6.8100  6.7350  9.1320 -999.25  35.065 -999.25 -999.25 -999.25 -999.25 
 -999.25 -999.25 -999.25 -999.25 -17.622  9.1320  6.7350  6.8100 -999.25 
  1.8960  1.9127 -0.0180  10.002  104.77  0.4039  9.1320  6.7350  6.8100 
  1.9127  104.77  0.4039 
  4379.500 
  10.341  71.603  0.3910  0.4650 -0.0120 -40.267 -999.25 -999.25 -999.25 
  6.9240  6.7840  12.869 -999.25  35.067 -999.25 -999.25 -999.25 -999.25 
 -999.25 -999.25 -999.25 -999.25 -17.433  12.869  6.7840  6.9240 -999.25 
  1.8828  1.9137 -0.0117  9.9851  105.60  0.4099  12.869  6.7840  6.9240 
  1.9137  105.60  0.4099 
  4380.000 
  10.108  75.058  0.3740  0.4760 -0.0200 -40.869 -999.25 -999.25 -999.25 
  6.9480  6.9360  15.419 -999.25  34.914 -999.25 -999.25 -999.25 -999.25 
 -999.25 -999.25 -999.25 -999.25 -18.036  15.419  6.9360  6.9480 -999.25 
  1.8646  1.9085 -0.0114  10.020  103.81  0.4212  15.419  6.9360  6.9480 
  1.9085  103.81  0.4212 
  4380.500 
  9.9670  79.310  0.3670  0.4850 -0.0290 -41.075 -999.25 -999.25 -999.25 
  6.7930  6.7800  9.3810 -999.25  34.760 -999.25 -999.25 -999.25 -999.25 
 -999.25 -999.25 -999.25 -999.25 -18.243  9.3810  6.7800  6.7930 -999.25 
  1.8498  1.9050 -0.0115  10.213  98.937  0.4396  9.3810  6.7800  6.7930 
  1.9050  98.937  0.4396 
