~Version Information
VERS.                     2.0: CWLS log ASCII Standard Version 2.00
WRAP.                     YES: Multiple lines per depth step
~Well Information Block
#MNEM.UNIT                               Data Type  Information
#---------                               ---------  -----------
STRT.FT                                   100.0000:
STOP.FT                                  3000.0000:
STEP.FT                                     0.5000:
NULL.                 -999.25                     :
COMP.                                             :COMPANY            
WELL.     LOS LOBOS 51X-30                        :WELL               
FLD .                                             :FIELD              
CTRY.                                             :COUNTRY            
STAT.                                             :STATE              
LOC .                                             :LOCATION           
UWI .                                             :UNIQUE WELL ID     
SRVC.                                             :Service company    
DATE.                                             :LOG DATE           
~Curve Information
#MNEM.UNIT           API CODE  Curve Description
#---------           --------  -----------------
DEPT.FT                      :   1 DEPTH
GR  .GAPI                    :   2
CALI.IN                      :   3
DPHI.PU-S                    :   4
NPHI.PU-S                    :   5
DRHO.G/C3                    :   6
DT  .US/F                    :   7
ROP .                        :   8
GAS .                        :   9
CGAS.                        :  10
C1R .                        :  11
C2R .                        :  12
C3R .                        :  13
SP  .MV                      :  14
ILD .OHMM                    :  15
ILM .OHMM                    :  16
SFLU.OHMM                    :  17
GRS .GAPI                    :  18
CALS.IN                      :  19
ROBS.G/C3                    :  20
NPHS.PU-S                    :  21
DROS.G/C3                    :  22
DTS .US/F                    :  23
SBL .MV                      :  24
 RD .OHMM                    :  25
RM  .OHMM                    :  26
RS  .OHMM                    :  27
SFLU.OHMM                    :  28
ILMC.OHMM                    :  29
ILDC.OHMM                    :  30
ROBC.G/C3                    :  31
GRC .GAPI                    :  32
NPHC.PU-S                    :  33
~A
# ...
  2739.000 
  109.79  7.0210  0.5200  0.5330  0.0030  130.59  117.43  10.558  5.4224 
  4.1296 -999.25 -999.25 -999.25  1.3310  1.4300 -999.25  110.44  7.0537 
  1.7864  0.5726  0.0048  135.79 -999.25  1.3310  1.4300 -999.25 -999.25 
  1.4300  1.3310  1.7864  103.11  0.5730 
  2739.500 
  108.84  7.0250  0.5130  0.4990  0.0080  129.04  118.00  9.6375  5.0946 
  4.1281 -999.25 -999.25 -999.25  1.3350  1.4630 -999.25  110.40  7.0338 
  1.7878  0.5445  0.0017  133.66 -999.25  1.3350  1.4630 -999.25 -999.25 
  1.4630  1.3350  1.7878  102.98  0.5415 
  2740.000 
  109.79  7.0410  0.5160  0.4730  0.0060  128.59  118.52  9.2336  4.5693 
  4.1262 -999.25 -999.25 -999.25  1.3260  1.4240 -999.25  109.45  7.0224 
  1.7961  0.5210  0.0048  130.26 -999.25  1.3260  1.4240 -999.25 -999.25 
  1.4240  1.3260  1.7961  102.05  0.5151 
  2740.500 
  108.99  7.0920  0.5200  0.4690  0.0010  132.96  84.058  9.0106  4.0440 
  4.3263 -999.25 -999.25 -999.25  1.3180  1.3590 -999.25  109.17  7.0306 
  1.8018  0.4899  0.0073  128.95 -999.25  1.3180  1.3590 -999.25 -999.25 
  1.3590  1.3180  1.8018  101.82  0.4803 
  2741.000 
  105.19  7.1000  0.5270  0.4790 -0.0050  136.56  84.042  9.1780  3.6279 
  4.3277 -999.25 -999.25 -999.25  1.3040  1.2900 -999.25  109.51  7.0585 
  1.7963  0.4716  0.0043  129.46 -999.25  1.3040  1.2900 -999.25 -999.25 
  1.2900  1.3040  1.7963  102.27  0.4598 
  2741.500 
  104.24  7.1080  0.5300  0.5050 -0.0080  138.27  84.025  9.1857  3.2713 
  4.3291 -999.25 -999.25 -999.25  1.2870  1.2450 -999.25  107.71  7.0947 
  1.7881  0.4724 -0.0010  133.65 -999.25  1.2870  1.2450 -999.25 -999.25 
  1.2450  1.2870  1.7881  100.74  0.4607 
  2742.000 
  104.00  7.1160  0.5300  0.5390 -0.0090  139.14  84.008  9.1292  3.0723 
  4.3305 -999.25 -999.25 -999.25  1.2530  1.2300 -999.25  104.87  7.1027 
  1.7788  0.4876 -0.0060  136.87 -999.25  1.2530  1.2300 -999.25 -999.25 
  1.2300  1.2530  1.7788  98.124  0.4778 
  2742.500 
  106.54  7.1000  0.5280  0.5380 -0.0030  139.11  83.991  9.0664  2.7658 
  4.3319 -999.25 -999.25 -999.25  1.2290  1.2180 -999.25  104.16  7.1106 
  1.7755  0.5161 -0.0083  138.42 -999.25  1.2290  1.2180 -999.25 -999.25 
  1.2180  1.2290  1.7755  97.491  0.5097 
  2743.000 
  109.07  7.0840  0.5290  0.5360 -0.0020  138.54  83.974  8.9737  2.5225 
  4.3333 -999.25 -999.25 -999.25  1.2010  1.2010 -999.25  104.82  7.1109 
  1.7766  0.5387 -0.0071  139.14 -999.25  1.2010  1.2010 -999.25 -999.25 
  1.2010  1.2010  1.7766  98.105  0.5350 
  2743.500 
  108.52  7.0690  0.5300  0.5300 -0.0050  137.21  83.957  8.8604  2.2792 
  4.3347 -999.25 -999.25 -999.25  1.1800  1.1870 -999.25  107.34  7.0949 
  1.7783  0.5374 -0.0027  139.01 -999.25  1.1800  1.1870 -999.25 -999.25 
  1.1870  1.1800  1.7783  100.40  0.5335 
  2744.000 
  101.94  7.0650  0.5310  0.5180 -0.0060  135.79  83.940  8.6710  2.0778 
  4.3361 -999.25 -999.25 -999.25  1.1810  1.1880 -999.25  108.90  7.0793 
  1.7766  0.5341 -0.0029  138.32 -999.25  1.1810  1.1880 -999.25 -999.25 
  1.1880  1.1810  1.7766  101.79  0.5299 
  2744.500 
  98.218  7.0880  1.1320  0.5030  0.0000  134.44  83.923  8.4278  1.8932 
  4.3375 -999.25 -999.25 -999.25  1.1990  1.2120 -999.25  106.51  7.0678 
  1.7750  0.5263 -0.0053  136.99 -999.25  1.1990  1.2120 -999.25 -999.25 
  1.2120  1.1990  1.7750  99.503  0.5211 
  2745.000 
  95.920  7.1240  1.1310  0.4950  0.0010  134.46  83.913  8.2332  1.7085 
  4.3389 -999.25 -999.25 -999.25  1.2340  1.2380 -999.25  100.82  7.0719 
  1.4762  0.5135 -0.0042  135.59 -999.25  1.2340  1.2380 -999.25 -999.25 
  1.2380  1.2340  1.4762  94.208  0.5067 
  2745.500 
  94.256  7.1400  1.1310  0.5000  0.0010  133.89  98.475  8.0360  1.5239 
  4.3403 -999.25 -999.25 -999.25  1.2880  1.2900 -999.25  97.541  7.0986 
  0.7827  0.5006  0.0003  134.44 -999.25  1.2880  1.2900 -999.25 -999.25 
  1.2900  1.2880  0.7827  91.246  0.4923 
  2746.000 
  93.067  7.1360  0.5320  0.5010 -0.0010  133.48  98.488  7.8322  1.3468 
  4.3417 -999.25 -999.25 -999.25  1.3420  1.3560 -999.25  95.438  7.1286 
  0.7839  0.4964  0.0010  134.39 -999.25  1.3420  1.3560 -999.25 -999.25 
  1.3560  1.3420  0.7839  89.395  0.4877 
  2746.500 
  93.384  7.1080  0.5330  0.4940 -0.0020  132.95  98.502  7.6478  1.2445 
  4.3431 -999.25 -999.25 -999.25  1.4000  1.4260 -999.25  93.918  7.1389 
  1.0647  0.5003  0.0004  133.84 -999.25  1.4000  1.4260 -999.25 -999.25 
  1.4260  1.4000  1.0647  88.010  0.4920 
  2747.000 
  94.731  7.1000  0.5370  0.4800 -0.0040  131.50  98.515  7.7319  1.1302 
  4.3446 -999.25 -999.25 -999.25  1.4540  1.4830 -999.25  93.155  7.1282 
  1.7717  0.4990 -0.0013  133.41 -999.25  1.4540  1.4830 -999.25 -999.25 
  1.4830  1.4540  1.7717  87.255  0.4906 
  2747.500 
  95.840  7.0920  0.5390  0.4680 -0.0060  132.18  98.528  7.9070  1.3397 
  4.3460 -999.25 -999.25 -999.25  1.5200  1.5740 -999.25  93.752  7.1058 
  1.7687  0.4902 -0.0025  132.78 -999.25  1.5200  1.5740 -999.25 -999.25 
  1.5740  1.5200  1.7687  87.729  0.4806 
  2748.000 
  95.840  7.0530  0.5380  0.4640 -0.0090  132.27  98.541  8.0346  1.5768 
  4.3474 -999.25 -999.25 -999.25  1.6250  1.6460 -999.25  95.028  7.0979 
  1.7631  0.4768 -0.0045  131.58 -999.25  1.6250  1.6460 -999.25 -999.25 
  1.6460  1.6250  1.7631  88.893  0.4656 
  2748.500 
  95.048  7.0050  0.5380  0.4630 -0.0100  130.11  98.554  8.1665  1.8920 
  4.3488 -999.25 -999.25 -999.25  1.7140  1.7370 -999.25  95.840  7.0818 
  1.7611  0.4669 -0.0068  132.19 -999.25  1.7140  1.7370 -999.25 -999.25 
  1.7370  1.7140  1.7611  89.590  0.4546 
  2749.000 
  98.297  6.9620  0.5280  0.4630 -0.0110  127.25  98.567  8.3670  2.2288 
  4.3502 -999.25 -999.25 -999.25  1.8330  1.8460 -999.25  95.636  7.0406 
  1.7623  0.4637 -0.0093  132.05 -999.25  1.8330  1.8460 -999.25 -999.25 
  1.8460  1.8330  1.7623  89.239  0.4509 
  2749.500 
  104.79  6.9260  0.5150  0.4620 -0.0080  121.84  98.580  8.5634  2.4823 
  4.3516 -999.25 -999.25 -999.25  1.9910  1.9300 -999.25  95.867  6.9942 
  1.7665  0.4630 -0.0103  129.85 -999.25  1.9910  1.9300 -999.25 -999.25 
  1.9300  1.9910  1.7665  89.273  0.4501 
  2750.000 
  104.95  6.9300  0.4990  0.4560 -0.0030  117.64  98.593  9.4693  2.6771 
  4.3530 -999.25 -999.25 -999.25  2.1640  2.0450 -999.25  99.900  6.9531 
  1.7841  0.4628 -0.0103  126.79 -999.25  2.1640  2.0450 -999.25 -999.25 
  2.0450  2.1640  1.7841  92.861  0.4498 
  2750.500 
  103.92  6.9300  0.4840  0.4250  0.0040  116.37  98.606  9.9375  2.8719 
  4.3544 -999.25 -999.25 -999.25  2.2920  2.1660 -999.25  104.83  6.9270 
  1.8066  0.4606 -0.0068  121.51 -999.25  2.2920  2.1660 -999.25 -999.25 
  2.1660  2.2920  1.8066  97.334  0.4473 
  2751.000 
  104.08  6.9420  0.4780  0.4120  0.0100  116.58  98.619  10.195  3.0241 
  4.2162 -999.25 -999.25 -999.25  2.3960  2.3220 -999.25  104.71  6.9300 
  1.8325  0.4487 -0.0013  117.55 -999.25  2.3960  2.3220 -999.25 -999.25 
  2.3220  2.3960  1.8325  97.233  0.4340 
  2751.500 
  106.22  6.9810  0.4790  0.3950  0.0090  118.56  98.632  11.588  3.1460 
  4.2213 -999.25 -999.25 -999.25  2.4510  2.4150 -999.25  103.96  6.9328 
  1.8537  0.4220  0.0054  116.39 -999.25  2.4510  2.4150 -999.25 -999.25 
  2.4150  2.4510  1.8537  96.547  0.4041 
  2752.000 
  108.91  6.9930  0.4860  0.3890  0.0090  122.56  117.56  11.750  3.2933 
  4.2241 -999.25 -999.25 -999.25  2.4930  2.4800 -999.25  104.56  6.9508 
  1.8609  0.4082  0.0098  116.70 -999.25  2.4930  2.4800 -999.25 -999.25 
  2.4800  2.4930  1.8609  97.185  0.3886 
  2752.500 
  108.36  7.0490  0.4950  0.3910  0.0200  123.69  117.64  11.611  3.4679 
  4.2269 -999.25 -999.25 -999.25  2.5090  2.5410 -999.25  106.81  6.9836 
  1.8571  0.3937  0.0090  118.78 -999.25  2.5090  2.5410 -999.25 -999.25 
  2.5410  2.5090  1.8571  99.418  0.3724 
  2753.000 
  106.37  7.1080  0.5070  0.4040  0.0290  123.75  117.73  11.392  3.6480 
  4.2297 -999.25 -999.25 -999.25  2.5200  2.5800 -999.25  108.79  7.0050 
  1.8449  0.3894  0.0114  122.61 -999.25  2.5200  2.5800 -999.25 -999.25 
  2.5800  2.5200  1.8449  101.36  0.3676 
