~Version Information
VERS.                     2.0: CWLS log ASCII Standard Version 2.00
WRAP.                     YES: Multiple lines per depth step
~Well Information Block
#MNEM.UNIT                               Data Type  Information
#---------                               ---------  -----------
STRT.FT                                   800.0000:
STOP.FT                                  5530.0000:
STEP.FT                                     0.5000:
NULL.                 -999.25                     :
COMP.                                             :COMPANY            
WELL.     SANTIAGO B 73-29                        :WELL               
FLD .                                             :FIELD              
CTRY.                                             :COUNTRY            
STAT.                                             :STATE              
LOC .                                             :LOCATION           
UWI .                                             :UNIQUE WELL ID     
SRVC.                                             :Service company    
DATE.                                             :LOG DATE           
~Curve Information
#MNEM.UNIT           API CODE  Curve Description
#---------           --------  -----------------
DEPT.FT                      :   1 DEPTH
SP  .MV                      :   2
GR  .GAPI                    :   3
ILD .OHMM                    :   4
ILM .OHMM                    :   5
SFL .OHMM                    :   6
DT  .US/F                    :   7
CALI.IN                      :   8
KSCI.                        :   9
PSCI.                        :  10
OSCI.                        :  11
WSCI.                        :  12
GR  .GAPI                    :  13
RHOB.G/C3                    :  14
NPHI.PU-S                    :  15
DRHO.G/C3                    :  16
SBL .MV                      :  17
GRS .GAPI                    :  18
RD  .OHMM                    :  19
RM  .OHMM                    :  20
RS  .OHMM                    :  21
R0BS.G/C3                    :  22
DRHS.G/C3                    :  23
GRS .GAPI                    :  24
NPHS.PU-S                    :  25
DTS .US/F                    :  26
CALS.IN                      :  27
SFLC.OHMM                    :  28
ILMC.OHMM                    :  29
ILDC.OHMM                    :  30
R0BC.G/C3                    :  31
GRC .GAPI                    :  32
NPHC.PU-S                    :  33
~A
# ...
  4570.000 
 -39.596  102.68  3.5240  3.3050  3.3360  82.176  11.645 -999.25 -999.25 
 -999.25 -999.25  110.59  1.8330  0.3690  0.0030 -16.932  102.68  3.5240 
  3.3050  3.3360  1.8527  0.0000  110.30  0.3690  79.309  11.760  3.7593 
  3.3433  3.5237  1.8714  122.37  0.3461 
  4570.500 
 -40.768  100.32  3.5600  3.3400  3.4000  80.175  11.725 -999.25 -999.25 
 -999.25 -999.25  110.98  1.8460  0.3640  0.0030 -18.105  100.32  3.5600 
  3.3400  3.4000  1.8445  0.0000  108.42  0.3640  78.734  11.802  3.8350 
  3.3796  3.5598  1.8634  120.43  0.3405 
  4571.000 
 -41.742  98.357  3.5970  3.3420  3.4660  79.168  11.766 -999.25 -999.25 
 -999.25 -999.25  109.98  1.8630  0.3740  0.0020 -19.080  98.357  3.5970 
  3.3420  3.4660  1.8434  0.0000  105.27  0.3740  78.992  11.844  3.9133 
  3.3822  3.5968  1.8625  117.06  0.3518 
  4571.500 
 -42.712  95.605  3.5980  3.3440  3.5340  78.661  11.808 -999.25 -999.25 
 -999.25 -999.25  107.80  1.8590  0.3890  0.0000 -20.051  95.605  3.5980 
  3.3440  3.5340  1.8427 -0.0007  103.95  0.3890  79.552  11.801  3.9872 
  3.3837  3.5978  1.8616  115.47  0.3686 
  4572.000 
 -42.288  95.823  3.6000  3.3460  3.5050  79.049  11.850 -999.25 -999.25 
 -999.25 -999.25  104.43  1.8500  0.3880  0.0000 -19.627  95.823  3.6000 
  3.3460  3.5050  1.8387 -0.0023  104.31  0.3880  80.225  11.727  3.9483 
  3.3849  3.5997  1.8572  115.62  0.3674 
  4572.500 
 -42.079  98.614  3.5390  3.3190  3.4120  79.640  11.793 -999.25 -999.25 
 -999.25 -999.25  103.83  1.8420  0.3800  0.0000 -19.419  98.614  3.5390 
  3.3190  3.4120  1.8377 -0.0030  105.76  0.3800  80.996  11.667  3.8383 
  3.3565  3.5386  1.8558  117.02  0.3584 
  4573.000 
 -41.263  103.19  3.5430  3.3520  3.0870  80.330  11.715 -999.25 -999.25 
 -999.25 -999.25  104.41  1.8440  0.3760  0.0000 -18.604  103.19  3.5430 
  3.3520  3.0870  1.8419 -0.0037  107.74  0.3760  81.027  11.592  3.4657 
  3.3894  3.5425  1.8596  118.96  0.3539 
  4573.500 
 -40.052  106.78  3.5780  3.4490  3.1750  81.118  11.658 -999.25 -999.25 
 -999.25 -999.25  105.99  1.8420  0.3830 -0.0010 -17.393  106.78  3.5780 
  3.4490  3.1750  1.8504 -0.0040  110.87  0.3830  80.669  11.565  3.5632 
  3.4883  3.5775  1.8680  122.33  0.3617 
  4574.000 
 -39.446  108.97  3.6120  3.5810  3.4200  81.010  11.580 -999.25 -999.25 
 -999.25 -999.25  107.96  1.8370  0.3830 -0.0030 -16.788  108.97  3.6120 
  3.5810  3.4200  1.8521 -0.0040  116.03  0.3830  80.265  11.548  3.8382 
  3.6231  3.6115  1.8695  127.96  0.3617 
  4574.500 
 -38.841  110.18  3.7520  3.6490  3.5840  80.604  11.562 -999.25 -999.25 
 -999.25 -999.25  111.11  1.8380  0.3670 -0.0030 -16.184  110.18  3.7520 
  3.6490  3.5840  1.8466 -0.0053  120.17  0.3670  78.692  11.530  4.0217 
  3.6925  3.7514  1.8639  132.45  0.3437 
  4575.000 
 -37.617  111.59  3.8600  3.7190  3.6870  80.199  11.545 -999.25 -999.25 
 -999.25 -999.25  116.25  1.8440  0.3640 -0.0040 -14.960  111.59  3.8600 
  3.7190  3.6870  1.8508 -0.0066  122.57  0.3640  78.300  11.495  4.1349 
  3.7637  3.8593  1.8679  134.96  0.3404 
  4575.500 
 -37.206  114.38  3.9350  3.8280  3.8990  78.391  11.527 -999.25 -999.25 
 -999.25 -999.25  120.20  1.8540  0.3710 -0.0040 -14.550  114.38  3.9350 
  3.8280  3.8990  1.8691 -0.0052  126.32  0.3710  79.182  11.425  4.3672 
  3.8743  3.9342  1.8858  138.80  0.3482 
  4576.000 
 -36.786  116.38  4.0110  3.7610  3.9030  78.282  11.489 -999.25 -999.25 
 -999.25 -999.25  122.57  1.8510  0.3820 -0.0040 -14.131  116.38  4.0110 
  3.7610  3.9030  1.8980 -0.0016  129.08  0.3820  80.675  11.381  4.3676 
  3.8050  4.0101  1.9144  141.65  0.3605 
  4576.500 
 -36.177  120.16  3.9770  3.7290  3.8000  79.369  11.412 -999.25 -999.25 
 -999.25 -999.25  126.32  1.8440  0.4020 -0.0060 -13.523  120.16  3.9770 
  3.7290  3.8000  1.9265  0.0030  130.26  0.4020  82.009  11.376  4.2516 
  3.7722  3.9761  1.9429  142.93  0.3829 
  4577.000 
 -35.167  119.99  3.9460  3.6970  3.6660  80.952  11.374 -999.25 -999.25 
 -999.25 -999.25  129.08  1.8550  0.4180 -0.0070 -12.513  119.99  3.9460 
  3.6970  3.6660  1.9506  0.0085  130.25  0.4180  82.887  11.411  4.1041 
  3.7399  3.9452  1.9672  143.06  0.4009 
  4577.500 
 -34.554  118.82  3.9130  3.7710  3.5360  82.238  11.377 -999.25 -999.25 
 -999.25 -999.25  130.26  1.8780  0.4370 -0.0040 -11.901  118.82  3.9130 
  3.7710  3.5360  1.9664  0.0139  127.67  0.4370  84.811  11.500  3.9653 
  3.8170  3.9123  1.9835  140.60  0.4223 
  4578.000 
 -32.353  117.65  3.9520  3.8800  3.4440  83.030  11.418 -999.25 -999.25 
 -999.25 -999.25  130.25  1.9110  0.4640  0.0000 -9.7007  117.65  3.9520 
  3.8800  3.4440  1.9779  0.0223  126.28  0.4640  85.528  11.585  3.8682 
  3.9301  3.9514  1.9955  139.40  0.4527 
  4578.500 
 -32.923  115.69  3.9540  3.9540  3.4460  85.213  11.519 -999.25 -999.25 
 -999.25 -999.25  127.67  1.9370  0.4650  0.0050 -10.271  115.69  3.9540 
  3.9540  3.4460  1.9830  0.0310  124.09  0.4650  84.787  11.650  3.8755 
  4.0071  3.9535  2.0010  137.25  0.4538 
  4579.000 
 -33.695  113.53  4.0680  4.0690  3.5450  85.600  11.600 -999.25 -999.25 
 -999.25 -999.25  126.28  1.9600  0.4610  0.0110 -11.044  113.53  4.0680 
  4.0690  3.5450  1.9785  0.0368  124.68  0.4610  83.061  11.568  3.9808 
  4.1238  4.0674  1.9961  137.57  0.4493 
  4579.500 
 -32.690  112.75  4.2640  4.2640  3.8180  84.597  11.662 -999.25 -999.25 
 -999.25 -999.25  124.09  1.9710  0.4670  0.0160 -10.040  112.75  4.2640 
  4.2640  3.8180  1.9530  0.0401  125.86  0.4670  81.726  11.435  4.2770 
  4.3217  4.2631  1.9697  138.34  0.4559 
  4580.000 
 -33.264  112.58  4.3850  4.4260  3.9270  82.694  11.545 -999.25 -999.25 
 -999.25 -999.25  124.68  1.9830  0.4590  0.0270 -10.615  112.58  4.3850 
  4.4260  3.9270  1.9138  0.0356  124.46  0.4590  80.445  11.330  4.3898 
  4.4860  4.3838  1.9300  136.39  0.4469 
  4580.500 
 -34.238  111.61  4.5540  4.5950  3.8610  81.490  11.408 -999.25 -999.25 
 -999.25 -999.25  125.86  1.9830  0.4440  0.0340 -11.589  111.61  4.5540 
  4.5950  3.8610  1.8832  0.0240  121.29  0.4440  82.486  11.265  4.3099 
  4.6583  4.5526  1.8989  132.66  0.4300 
  4581.000 
 -35.200  109.25  4.7280  4.8610  3.7580  80.186  11.311 -999.25 -999.25 
 -999.25 -999.25  124.46  1.9750  0.4350  0.0390 -12.552  109.25  4.7280 
  4.8610  3.7580  1.8767  0.0133  116.34  0.4350  83.773  11.256  4.1938 
  4.9316  4.7265  1.8924  127.20  0.4199 
  4581.500 
 -35.782  105.71  4.9090  4.9530  3.6920  83.066  11.254 -999.25 -999.25 
 -999.25 -999.25  121.29  1.9350  0.4270  0.0410 -13.135  105.71  4.9090 
  4.9530  3.6920  1.8940  0.0111  110.20  0.4270  82.447  11.288  4.1228 
  5.0272  4.9074  1.9098  120.61  0.4110 
  4582.000 
 -37.148  103.15  5.0490  5.0960  3.8340  83.955  11.256 -999.25 -999.25 
 -999.25 -999.25  116.34  1.8960  0.4210  0.0310 -14.501  103.15  5.0490 
  5.0960  3.8340  1.9045  0.0181  110.19  0.4210  80.393  11.377  4.2898 
  5.1770  5.0476  1.9209  120.91  0.4043 
  4582.500 
 -38.315  100.60  5.1950  5.2430  4.3630  82.052  11.297 -999.25 -999.25 
 -999.25 -999.25  110.20  1.8720  0.4070  0.0180 -15.669  100.60  5.1950 
  5.2430  4.3630  1.8970  0.0265  108.80  0.4070  78.062  11.400  4.8861 
  5.3295  5.1935  1.9135  119.46  0.3886 
  4583.000 
 -39.879  97.844  5.2950  5.3430  4.7420  79.951  11.398 -999.25 -999.25 
 -999.25 -999.25  110.19  1.8810  0.3930  0.0090 -17.234  97.844  5.2950 
  5.3430  4.7420  1.8791  0.0315  102.46  0.3930  77.932  11.449  5.3178 
  5.4343  5.2936  1.8959  112.66  0.3729 
  4583.500 
 -40.849  93.909  5.3980  5.4470  4.7470  77.550  11.400 -999.25 -999.25 
 -999.25 -999.25  108.80  1.9060  0.3790  0.0130 -18.205  93.909  5.3980 
  5.4470  4.7470  1.8582  0.0271  100.27  0.3790  78.420  11.633  5.3458 
  5.5478  5.3970  1.8762  110.85  0.3573 
  4584.000 
 -41.621  91.546  5.4510  5.4510  4.6210  78.037  11.462 -999.25 -999.25 
 -999.25 -999.25  102.46  1.9030  0.3760  0.0230 -18.977  91.546  5.4510 
  5.4510  4.6210  1.8418  0.0186  95.715  0.3760  78.754  11.837  5.2269 
  5.5584  5.4506  1.8609  106.42  0.3540 
