~Version Information
VERS.                     2.0: CWLS log ASCII Standard Version 2.00
WRAP.                      NO: One line per depth step
~Well Information Block
#MNEM.UNIT                               Data Type  Information
#---------                               ---------  -----------
STRT.FT                                   318.0000:
STOP.FT                                  2700.0000:
STEP.FT                                     0.5000:
NULL.                 -999.25                     :
COMP.                                             :COMPANY            
WELL.     LOS LOBOS 82X-30                        :WELL               
FLD .                                             :FIELD              
CTRY.                                             :COUNTRY            
STAT.                                             :STATE              
LOC .                                             :LOCATION           
UWI .                                             :UNIQUE WELL ID     
SRVC.                                             :Service company    
DATE.                                             :LOG DATE           
~Curve Information
#MNEM.UNIT           API CODE  Curve Description
#---------           --------  -----------------
DEPT.FT                      :   1 DEPTH
SP  .MV                      :   2
ILD .OHMM                    :   3
ILM .OHMM                    :   4
SFLU.OHMM                    :   5
CALI.IN                      :   6
GR  .GAPI                    :   7
NPHI.PU-S                    :   8
DPHI.PU-S                    :   9
DRHO.G/C3                    :  10
CALI.IN                      :  11
DT  .US/F                    :  12
SBL .MV                      :  13
RS  .OHMM                    :  14
RM  .OHMM                    :  15
RD  .OHMM                    :  16
DTS .US/F                    :  17
CALS.IN                      :  18
RHOB.G/C3                    :  19
ROBS.G/C3                    :  20
DROS.G/C3                    :  21
CALS.IN                      :  22
GRS .GAPI                    :  23
NPHS.PU-S                    :  24
SFLU.OHMM                    :  25
ILMC.OHMM                    :  26
ILDC.OHMM                    :  27
ROBC.G/C3                    :  28
GRC .GAPI                    :  29
NPHC.PU-S                    :  30
~A
# ...
  2512.500 -23.551  3.4500  3.4910  3.1370  6.6420  137.26  0.4230  0.5210  0.0020  6.6720  126.18 -21.551  3.1370  3.4910  3.4500  128.37  6.6732  1.7904  1.8151 -0.0020  6.6590  138.05  0.4287  3.1491  3.4805  3.4422  1.8151  126.46  0.4119 
  2513.000 -23.559  3.6420  3.6420  3.8050  6.6460  121.82  0.4110  0.5220  0.0000  6.6680  125.09 -21.559  3.8050  3.6420  3.6420  125.53  6.6696  1.7887  1.8333 -0.0020  6.6690  137.27  0.4187  3.7926  3.6307  3.6334  1.8333  125.80  0.4006 
  2513.500 -24.956  3.8880  3.7490  4.0260  6.6500  112.79  0.3980  0.5220 -0.0030  6.6700  126.47 -22.956  4.0260  3.7490  3.8880  125.90  6.6692  1.7887  1.8448 -0.0010  6.6810  122.00  0.4064  4.0059  3.7371  3.8782  1.8448  111.86  0.3868 
  2514.000 -27.547  4.0680  3.8600  4.1890  6.6590  106.38  0.3800  0.5060 -0.0020  6.6710  130.85 -25.547  4.1890  3.8600  4.0680  129.03  6.6706  1.8151  1.8333  0.0020  6.6920  112.96  0.3917  4.1634  3.8475  4.0573  1.8333  103.63  0.3703 
  2514.500 -27.910  4.0520  4.0790  5.8500  6.6690  103.29  0.3740  0.4950 -0.0020  6.6720  136.20 -25.910  5.8500  4.0790  4.0520  133.96  6.6716  1.8333  1.8217  0.0040  6.7160  106.54  0.3779  5.7521  4.0652  4.0414  1.8217  97.842  0.3549 
  2515.000 -28.274  4.0210  4.3110  7.7620  6.6810  104.63  0.3680  0.4880 -0.0010  6.6740  135.77 -26.274  7.7620  4.3110  4.0210  135.95  6.6732  1.8448  1.8184  0.0080  6.7310  103.38  0.3719  7.5675  4.2958  4.0106  1.8184  95.010  0.3482 
  2515.500 -27.732  3.9830  4.3810  8.3930  6.6920  107.32  0.3760  0.4950  0.0020  6.6780  134.23 -25.732  8.3930  4.3810  3.9830  134.88  6.6763  1.8333  1.8217  0.0110  6.7470  104.65  0.3707  8.1708  4.3654  3.9728  1.8217  96.245  0.3469 
  2516.000 -27.339  3.8810  4.4520  8.1930  6.7160  114.83  0.3890  0.5020  0.0040  6.6830  134.46 -25.339  8.1930  4.4520  3.8810  134.36  6.6809  1.8217  1.8234  0.0140  6.7740  107.46  0.3804  7.9860  4.4362  3.8714  1.8234  98.948  0.3577 
  2516.500 -26.196  3.7540  4.2480  6.4820  6.7310  134.14  0.4110  0.5040  0.0080  6.6840  136.46 -24.196  6.4820  4.2480  3.7540  135.60  6.6836  1.8184  1.8267  0.0150  6.7940  115.40  0.3963  6.3678  4.2338  3.7450  1.8267  106.35  0.3756 
  2517.000 -24.738  3.5980  4.0520  5.1010  6.7470  144.90  0.4340  0.5020  0.0110  6.6860  138.24 -22.738  5.1010  4.0520  3.5980  137.47  6.6851  1.8217  1.8300  0.0170  6.8020  134.56  0.4185  5.0511  4.0391  3.5898  1.8300  124.05  0.4005 
  2517.500 -23.909  3.4580  3.5970  3.6770  6.7740  153.52  0.4700  0.5010  0.0140  6.6880  139.10 -21.909  3.6770  3.5970  3.4580  138.73  6.6871  1.8234  1.8300  0.0180  6.8170  145.32  0.4456  3.6838  3.5870  3.4504  1.8300  134.06  0.4309 
  2518.000 -22.609  3.3240  3.3000  2.8150  6.7940  152.56  0.4850  0.4990  0.0150  6.6900  139.85 -20.609  2.8150  3.3000  3.3240  139.52  6.6891  1.8267  1.8316  0.0190  6.8330  153.46  0.4748  2.8496  3.2916  3.3170  1.8316  141.67  0.4636 
  2518.500 -21.942  3.2190  3.1620  2.8440  6.8020  146.79  0.4670  0.4970  0.0170  6.6910  140.91 -19.942  2.8440  3.1620  3.2190  140.44  6.6906  1.8300  1.8201  0.0180  6.8490  152.17  0.4794  2.8789  3.1544  3.2125  1.8201  140.57  0.4688 
  2519.000 -22.549  3.1160  3.1390  3.2430  6.8170  141.16  0.4570  0.4970  0.0180  6.6930  141.55 -20.549  3.2430  3.1390  3.1160  141.27  6.6921  1.8300  1.7854  0.0120  6.8560  146.34  0.4639  3.2671  3.1315  3.1099  1.7854  135.24  0.4515 
  2519.500 -23.308  3.1060  3.1150  3.8350  6.8330  135.54  0.4500  0.4960  0.0190  6.6940  141.96 -21.308  3.8350  3.1150  3.1060  141.78  6.6936  1.8316  1.7755  0.0030  6.8010  140.67  0.4549  3.8347  3.1074  3.0999  1.7755  129.67  0.4413 
  2520.000 -24.108  3.0960  3.1310  4.0420  6.8490  131.18  0.4540  0.5030  0.0180  6.6960  141.54 -22.108  4.0420  3.1310  3.0960  141.73  6.6951  1.8201  1.7755 -0.0010  6.7410  135.11  0.4512  4.0277  3.1230  3.0898  1.7755  124.22  0.4371 
  2520.500 -25.033  3.1460  3.1470  3.9030  6.8560  135.53  0.4760  0.5240  0.0120  6.6970  139.87 -23.033  3.9030  3.1470  3.1460  140.63  6.6965  1.7854  1.7920 -0.0050  6.7020  131.65  0.4605  3.8901  3.1387  3.1396  1.7920  120.83  0.4476 
  2521.000 -25.120  3.1770  3.2380  3.3960  6.8010  138.85  0.5000  0.5300  0.0030  6.6980  139.95 -23.120  3.3960  3.2380  3.1770  139.91  6.6975  1.7755  1.8267 -0.0090  6.7070  135.92  0.4830  3.4027  3.2293  3.1705  1.8267  124.78  0.4728 
  2521.500 -24.214  3.2080  3.2790  3.0760  6.7410  139.63  0.5160  0.5300 -0.0010  6.7050  140.16 -22.214  3.0760  3.2790  3.2080  140.06  6.7018  1.7755  1.8415  0.0000  6.7130  138.95  0.5046  3.0943  3.2701  3.2014  1.8415  127.59  0.4970 
  2522.000 -22.795  3.3190  3.3810  2.7700  6.7020  139.00  0.5150  0.5200 -0.0050  6.7120  138.09 -20.795  2.7700  3.3810  3.3190  139.04  6.7088  1.7920  1.8415  0.0040  6.7390  139.55  0.5157  2.7998  3.3717  3.3119  1.8415  128.29  0.5096 
  2522.500 -22.285  3.3770  3.5830  3.0230  6.7070  137.81  0.5020  0.4990 -0.0090  6.7190  132.44 -20.285  3.0230  3.5830  3.3770  135.06  6.7157  1.8267  1.8448  0.0080  6.7640  138.82  0.5114  3.0467  3.5727  3.3697  1.8448  127.77  0.5047 
  2523.000 -22.492  3.4350  3.7630  3.6740  6.7130  135.35  0.4870  0.4900  0.0000  6.7250  127.20 -20.492  3.6740  3.7630  3.4350  129.65  6.7222  1.8415  1.8564  0.0180  6.7800  137.42  0.4979  3.6774  3.7517  3.4275  1.8564  126.57  0.4896 
  2523.500 -23.572  3.6590  3.9150  4.0470  6.7390  129.65  0.4710  0.4900  0.0040  6.7310  125.74 -21.572  4.0470  3.9150  3.6590  126.43  6.7282  1.8415  1.8894  0.0210  6.7930  134.40  0.4827  4.0381  3.9029  3.6505  1.8894  123.85  0.4725 
  2524.000 -24.892  3.7880  4.0520  4.4570  6.7640  125.22  0.4360  0.4880  0.0080  6.7370  126.35 -22.892  4.4570  4.0520  3.7880  126.06  6.7342  1.8448  1.9059  0.0220  6.8070  128.86  0.4617  4.4341  4.0392  3.7789  1.9059  118.82  0.4490 
  2524.500 -25.253  3.9210  4.1550  4.8630  6.7800  120.78  0.4030  0.4810  0.0180  6.7450  129.40 -23.253  4.8630  4.1550  3.9210  127.95  6.7412  1.8564  1.9042  0.0230  6.7670  124.39  0.4274  4.8183  4.1412  3.9112  1.9042  114.49  0.4105 
  2525.000 -25.615  4.1920  4.2610  5.4840  6.7930  109.61  0.3720  0.4610  0.0210  6.7540  133.54 -23.615  5.4840  4.2610  4.1920  131.56  6.7497  1.8894  1.8795  0.0180  6.7000  118.58  0.3951  5.4012  4.2458  4.1806  1.8795  108.82  0.3741 
  2525.500 -24.832  4.3540  4.3460  7.0790  6.8070  104.86  0.3510  0.4510  0.0220  6.7570  131.63 -22.832  7.0790  4.3460  4.3540  132.55  6.7556  1.9059  1.8465  0.0090  6.6950  108.63  0.3667  6.9135  4.3302  4.3417  1.8465  99.671  0.3423 
  2526.000 -23.135  4.4090  4.3970  7.7250  6.7670  107.47  0.3260  0.4520  0.0230  6.7610  122.61 -21.135  7.7250  4.3970  4.4090  126.98  6.7591  1.9042  1.8184  0.0040  6.7110  105.43  0.3448  7.5277  4.3809  4.3965  1.8184  96.801  0.3178 
  2526.500 -21.517  4.3190  4.4480  7.9650  6.7000  120.21  0.3280  0.4670  0.0180  6.7640  115.53 -19.517  7.9650  4.4480  4.3190  118.98  6.7625  1.8795  1.8019  0.0020  6.7170  110.36  0.3265  7.7557  4.4316  4.3070  1.8019  101.36  0.2945 
  2527.000 -20.058  4.0870  4.3900  7.0190  6.6950  139.83  0.3540  0.4870  0.0090  6.7670  114.04 -18.058  7.0190  4.3900  4.0870  114.77  6.7655  1.8465  1.8052  0.0000  6.7230  124.85  0.3342  6.8628  4.3741  4.0762  1.8052  114.70  0.3029 
  2527.500 -19.506  3.8470  4.2380  5.6250  6.7110  150.27  0.4060  0.5040  0.0040  6.7700  114.92 -17.506  5.6250  4.2380  3.8470  114.48  6.7685  1.8184  1.8102  0.0020  6.7270  142.41  0.3662  5.5398  4.2232  3.8375  1.8102  130.85  0.3418 
  2528.000 -18.953  3.5550  3.9880  4.1520  6.7170  166.81  0.4720  0.5140  0.0020  6.7690  118.02 -16.953  4.1520  3.9880  3.5550  116.48  6.7695  1.8019  1.8201  0.0040  6.7310  154.51  0.4212  4.1322  3.9750  3.5469  1.8201  142.00  0.4035 
  2528.500 -18.134  3.3950  3.9360  3.4700  6.7230  177.34  0.4910  0.5120  0.0000  6.7680  122.55 -16.134  3.4700  3.9360  3.3950  120.29  6.7685  1.8052  1.8283  0.0090  6.7260  169.61  0.4763  3.4757  3.9233  3.3876  1.8283  155.84  0.4653 
