~Version Information
VERS.                     2.0: CWLS log ASCII Standard Version 2.00
WRAP.                     YES: Multiple lines per depth step
~Well Information Block
#MNEM.UNIT                               Data Type  Information
#---------                               ---------  -----------
STRT.FT                                   800.0000:
STOP.FT                                  5530.0000:
STEP.FT                                     0.5000:
NULL.                 -999.25                     :
COMP.                                             :COMPANY            
WELL.     SANTIAGO B 73-29                        :WELL               
FLD .                                             :FIELD              
CTRY.                                             :COUNTRY            
STAT.                                             :STATE              
LOC .                                             :LOCATION           
UWI .                                             :UNIQUE WELL ID     
SRVC.                                             :Service company    
DATE.                                             :LOG DATE           
~Curve Information
#MNEM.UNIT           API CODE  Curve Description
#---------           --------  -----------------
DEPT.FT                      :   1 DEPTH
SP  .MV                      :   2
GR  .GAPI                    :   3
ILD .OHMM                    :   4
ILM .OHMM                    :   5
SFL .OHMM                    :   6
DT  .US/F                    :   7
CALI.IN                      :   8
KSCI.                        :   9
PSCI.                        :  10
OSCI.                        :  11
WSCI.                        :  12
GR  .GAPI                    :  13
RHOB.G/C3                    :  14
NPHI.PU-S                    :  15
DRHO.G/C3                    :  16
SBL .MV                      :  17
GRS .GAPI                    :  18
RD  .OHMM                    :  19
RM  .OHMM                    :  20
RS  .OHMM                    :  21
R0BS.G/C3                    :  22
DRHS.G/C3                    :  23
GRS .GAPI                    :  24
NPHS.PU-S                    :  25
DTS .US/F                    :  26
CALS.IN                      :  27
SFLC.OHMM                    :  28
ILMC.OHMM                    :  29
ILDC.OHMM                    :  30
R0BC.G/C3                    :  31
GRC .GAPI                    :  32
NPHC.PU-S                    :  33
~A
# ...
  3018.500 
 -31.876  69.440  2.6260  2.4620  2.3730  87.032  10.864 -999.25 -999.25 
 -999.25 -999.25 -999.25 -999.25 -999.25 -999.25 -7.8760  69.440  2.6260 
  2.4620  2.3730 -999.25 -999.25 -999.25 -999.25  86.897  10.952  2.6319 
  2.4781  2.6253 -999.25 -999.25 -999.25 
  3019.000 
 -31.675  69.837  2.6500  2.4620  2.3620  87.034  10.854 -999.25 -999.25 
 -999.25 -999.25 -999.25 -999.25 -999.25 -999.25 -7.6750  69.837  2.6500 
  2.4620  2.3620 -999.25 -999.25 -999.25 -999.25  87.195  10.887  2.6169 
  2.4777  2.6493 -999.25 -999.25 -999.25 
  3019.500 
 -31.475  70.136  2.6250  2.4610  2.3510  87.634  10.835 -999.25 -999.25 
 -999.25 -999.25 -999.25 -999.25 -999.25 -999.25 -7.4750  70.136  2.6250 
  2.4610  2.3510 -999.25 -999.25 -999.25 -999.25  87.097  10.867  2.6039 
  2.4765  2.6243 -999.25 -999.25 -999.25 
  3020.000 
 -31.474  70.436  2.6000  2.4610  2.3290  88.534  10.756 -999.25 -999.25 
 -999.25 -999.25 -999.25 -999.25 -999.25 -999.25 -7.4740  70.436  2.6000 
  2.4610  2.3290 -999.25 -999.25 -999.25 -999.25  87.033  10.857  2.5791 
  2.4765  2.5993 -999.25 -999.25 -999.25 
  3020.500 
 -31.175  71.426  2.5760  2.4380  2.3070  87.239  10.617 -999.25 -999.25 
 -999.25 -999.25 -999.25 -999.25 -999.25 -999.25 -7.1750  71.426  2.5760 
  2.4380  2.3070 -999.25 -999.25 -999.25 -999.25  87.433  10.841  2.5541 
  2.4531  2.5753 -999.25 -999.25 -999.25 
  3021.000 
 -30.876  70.438  2.5760  2.4150  2.3070  85.944  10.578 -999.25 -999.25 
 -999.25 -999.25 -999.25 -999.25 -999.25 -999.25 -6.8760  70.438  2.5760 
  2.4150  2.3070 -999.25 -999.25 -999.25 -999.25  88.231  10.783  2.5517 
  2.4294  2.5753 -999.25 -999.25 -999.25 
  3021.500 
 -31.468  69.847  2.5750  2.4150  2.3280  81.358  10.539 -999.25 -999.25 
 -999.25 -999.25 -999.25 -999.25 -999.25 -999.25 -7.4680  69.847  2.5750 
  2.4150  2.3280 -999.25 -999.25 -999.25 -999.25  87.677  10.664  2.5698 
  2.4287  2.5742 -999.25 -999.25 -999.25 
  3022.000 
 -32.060  69.454  2.5510  2.4030  2.3270  67.594  10.519 -999.25 -999.25 
 -999.25 -999.25 -999.25 -999.25 -999.25 -999.25 -8.0600  69.454  2.5510 
  2.4030  2.3270 -999.25 -999.25 -999.25 -999.25  86.383  10.591  2.5656 
  2.4161  2.5502 -999.25 -999.25 -999.25 
  3022.500 
 -32.058  68.862  2.5510  2.3920  2.3270  75.776  10.499 -999.25 -999.25 
 -999.25 -999.25 -999.25 -999.25 -999.25 -999.25 -8.0580  68.862  2.5510 
  2.3920  2.3270 -999.25 -999.25 -999.25 -999.25  82.921  10.552  2.5640 
  2.4048  2.5501 -999.25 -999.25 -999.25 
  3023.000 
 -32.056  69.062  2.5500  2.3700  2.3050  88.845  10.480 -999.25 -999.25 
 -999.25 -999.25 -999.25 -999.25 -999.25 -999.25 -8.0560  69.062  2.5500 
  2.3700  2.3050 -999.25 -999.25 -999.25 -999.25  72.305  10.526  2.5387 
  2.3824  2.5491 -999.25 -999.25 -999.25 
  3023.500 
 -31.658  70.053  2.5500  2.3470  2.2420  88.996  10.460 -999.25 -999.25 
 -999.25 -999.25 -999.25 -999.25 -999.25 -999.25 -7.6580  70.053  2.5500 
  2.3470  2.2420 -999.25 -999.25 -999.25 -999.25  72.964  10.506  2.4689 
  2.3590  2.5491 -999.25 -999.25 -999.25 
  3024.000 
 -31.557  70.649  2.5490  2.3470  2.2420  89.148  10.441 -999.25 -999.25 
 -999.25 -999.25 -999.25 -999.25 -999.25 -999.25 -7.5570  70.649  2.5490 
  2.3470  2.2420 -999.25 -999.25 -999.25 -999.25  84.334  10.487  2.4682 
  2.3589  2.5481 -999.25 -999.25 -999.25 
  3024.500 
 -31.456  71.245  2.5490  2.3470  2.2210  88.951  10.441 -999.25 -999.25 
 -999.25 -999.25 -999.25 -999.25 -999.25 -999.25 -7.4560  71.245  2.5490 
  2.3470  2.2210 -999.25 -999.25 -999.25 -999.25  88.944  10.467  2.4444 
  2.3588  2.5481 -999.25 -999.25 -999.25 
  3025.000 
 -31.653  71.048  2.5480  2.3460  2.2200  88.853  10.421 -999.25 -999.25 
 -999.25 -999.25 -999.25 -999.25 -999.25 -999.25 -7.6530  71.048  2.5480 
  2.3460  2.2200 -999.25 -999.25 -999.25 -999.25  89.095  10.448  2.4426 
  2.3577  2.5471 -999.25 -999.25 -999.25 
  3025.500 
 -31.848  70.655  2.5710  2.3670  2.2200  88.556  10.412 -999.25 -999.25 
 -999.25 -999.25 -999.25 -999.25 -999.25 -999.25 -7.8480  70.655  2.5710 
  2.3670  2.2200 -999.25 -999.25 -999.25 -999.25  89.020  10.441  2.4423 
  2.3789  2.5701 -999.25 -999.25 -999.25 
  3026.000 
 -30.659  69.271  2.5710  2.3670  2.2400  88.258  10.402 -999.25 -999.25 
 -999.25 -999.25 -999.25 -999.25 -999.25 -999.25 -6.6590  69.271  2.5710 
  2.3670  2.2400 -999.25 -999.25 -999.25 -999.25  88.887  10.428  2.4636 
  2.3788  2.5701 -999.25 -999.25 -999.25 
  3026.500 
 -31.052  68.285  2.5710  2.3670  2.2600  88.959  10.402 -999.25 -999.25 
 -999.25 -999.25 -999.25 -999.25 -999.25 -999.25 -7.0520  68.285  2.5710 
  2.3670  2.2600 -999.25 -999.25 -999.25 -999.25  88.661  10.415  2.4850 
  2.3787  2.5700 -999.25 -999.25 -999.25 
  3027.000 
 -31.446  68.880  2.5700  2.3440  2.2700  89.459  10.402 -999.25 -999.25 
 -999.25 -999.25 -999.25 -999.25 -999.25 -999.25 -7.4460  68.880  2.5700 
  2.3440  2.2700 -999.25 -999.25 -999.25 -999.25  88.363  10.406  2.4955 
  2.3554  2.5690 -999.25 -999.25 -999.25 
  3027.500 
 -32.236  69.871  2.5700  2.3440  2.2800  89.561  10.403 -999.25 -999.25 
 -999.25 -999.25 -999.25 -999.25 -999.25 -999.25 -8.2360  69.871  2.5700 
  2.3440  2.2800 -999.25 -999.25 -999.25 -999.25  88.710  10.402  2.5063 
  2.3554  2.5690 -999.25 -999.25 -999.25 
  3028.000 
 -32.629  70.665  2.5930  2.3220  2.3010  88.965  10.422 -999.25 -999.25 
 -999.25 -999.25 -999.25 -999.25 -999.25 -999.25 -8.6290  70.665  2.5930 
  2.3220  2.3010 -999.25 -999.25 -999.25 -999.25  89.281  10.402  2.5292 
  2.3332  2.5920 -999.25 -999.25 -999.25 
  3028.500 
 -31.243  71.853  2.5920  2.3220  2.2790  88.368  10.423 -999.25 -999.25 
 -999.25 -999.25 -999.25 -999.25 -999.25 -999.25 -7.2430  71.853  2.5920 
  2.3220  2.2790 -999.25 -999.25 -999.25 -999.25  89.524  10.403  2.5052 
  2.3332  2.5910 -999.25 -999.25 -999.25 
  3029.000 
 -31.043  72.646  2.5920  2.3210  2.2580  87.772  10.403 -999.25 -999.25 
 -999.25 -999.25 -999.25 -999.25 -999.25 -999.25 -7.0430  72.646  2.5920 
  2.3210  2.2580 -999.25 -999.25 -999.25 -999.25  89.179  10.415  2.4828 
  2.3323  2.5910 -999.25 -999.25 -999.25 
  3029.500 
 -31.634  72.649  2.5910  2.3210  2.2370  86.876  10.423 -999.25 -999.25 
 -999.25 -999.25 -999.25 -999.25 -999.25 -999.25 -7.6340  72.649  2.5910 
  2.3210  2.2370 -999.25 -999.25 -999.25 -999.25  88.584  10.423  2.4602 
  2.3323  2.5900 -999.25 -999.25 -999.25 
  3030.000 
 -31.830  72.651  2.5670  2.3200  2.2570  86.678  10.443 -999.25 -999.25 
 -999.25 -999.25 -999.25 -999.25 -999.25 -999.25 -7.8300  72.651  2.5670 
  2.3200  2.2570 -999.25 -999.25 -999.25 -999.25  87.988  10.410  2.4815 
  2.3312  2.5660 -999.25 -999.25 -999.25 
  3030.500 
 -32.026  71.861  2.5670  2.3200  2.2360  86.680  10.443 -999.25 -999.25 
 -999.25 -999.25 -999.25 -999.25 -999.25 -999.25 -8.0260  71.861  2.5670 
  2.3200  2.2360 -999.25 -999.25 -999.25 -999.25  87.202  10.416  2.4588 
  2.3313  2.5661 -999.25 -999.25 -999.25 
  3031.000 
 -31.826  71.270  2.5660  2.3200  2.1950  87.081  10.463 -999.25 -999.25 
 -999.25 -999.25 -999.25 -999.25 -999.25 -999.25 -7.8260  71.270  2.5660 
  2.3200  2.1950 -999.25 -999.25 -999.25 -999.25  86.750  10.436  2.4148 
  2.3314  2.5651 -999.25 -999.25 -999.25 
  3031.500 
 -31.626  70.480  2.5420  2.3190  2.1750  87.482  10.404 -999.25 -999.25 
 -999.25 -999.25 -999.25 -999.25 -999.25 -999.25 -7.6260  70.480  2.5420 
  2.3190  2.1750 -999.25 -999.25 -999.25 -999.25  86.679  10.443  2.3932 
  2.3304  2.5411 -999.25 -999.25 -999.25 
  3032.000 
 -31.525  70.483  2.5190  2.3190  2.1640  88.681  10.385 -999.25 -999.25 
 -999.25 -999.25 -999.25 -999.25 -999.25 -999.25 -7.5250  70.483  2.5190 
  2.3190  2.1640 -999.25 -999.25 -999.25 -999.25  86.933  10.456  2.3816 
  2.3305  2.5181 -999.25 -999.25 -999.25 
  3032.500 
 -31.424  70.485  2.5070  2.2970  2.1540  88.783  10.365 -999.25 -999.25 
 -999.25 -999.25 -999.25 -999.25 -999.25 -999.25 -7.4240  70.485  2.5070 
  2.2970  2.1540 -999.25 -999.25 -999.25 -999.25  87.334  10.426  2.3696 
  2.3081  2.5061 -999.25 -999.25 -999.25 
