~Version Information
VERS.                     2.0: CWLS log ASCII Standard Version 2.00
WRAP.                     YES: Multiple lines per depth step
~Well Information Block
#MNEM.UNIT                               Data Type  Information
#---------                               ---------  -----------
STRT.FT                                   805.0000:
STOP.FT                                  5010.0000:
STEP.FT                                     0.5000:
NULL.                 -999.25                     :
COMP.                                             :COMPANY            
WELL.     SANTIAGO C 55-28                        :WELL               
FLD .                                             :FIELD              
CTRY.                                             :COUNTRY            
STAT.                                             :STATE              
LOC .                                             :LOCATION           
UWI .                                             :UNIQUE WELL ID     
SRVC.                                             :Service company    
DATE.                                             :LOG DATE           
~Curve Information
#MNEM.UNIT           API CODE  Curve Description
#---------           --------  -----------------
DEPT.FT                      :   1 DEPTH
CALI.IN                      :   2
GR  .GAPI                    :   3
NPHI.PU-S                    :   4
DPHI.PU-S                    :   5
DRHO.G/C3                    :   6
SP  .MV                      :   7
ILD .OHMM                    :   8
ILM .OHMM                    :   9
SFLU.OHMM                    :  10
LLD .OHMM                    :  11
LLS .OHMM                    :  12
MSFL.OHMM                    :  13
DT  .US/F                    :  14
SPHI.                        :  15
KSCI.                        :  16
PSCI.                        :  17
OSCI.                        :  18
WSCI.                        :  19
KWCI.                        :  20
PWCI.                        :  21
OWCI.                        :  22
WWCI.                        :  23
SBL .MV                      :  24
RS  .OHMM                    :  25
RM  .OHMM                    :  26
RD  .OHMM                    :  27
DTS .US/F                    :  28
RHOB.G/C3                    :  29
ROBS.G/C3                    :  30
DROS.G/C3                    :  31
CALS.IN                      :  32
GRS .GAPI                    :  33
NPHS.PU-S                    :  34
SFLU.OHMM                    :  35
ILMC.OHMM                    :  36
ILDC.OHMM                    :  37
ROBC.G/C3                    :  38
GRC .GAPI                    :  39
NPHC.PU-S                    :  40
~A
# ...
  4969.000 
  9.9220 -999.25  0.3420  0.4550 -0.0180 -999.25 -999.25 -999.25 -999.25 
  19.518  19.268  18.810 -999.25  32.317 -999.25 -999.25 -999.25 -999.25 
 -999.25 -999.25 -999.25 -999.25 -999.25  18.810  19.268  19.518 -999.25 
  1.8993  1.9075 -0.0330  10.728 -999.25  0.3160  18.810  19.268  19.518 
  1.9075 -999.25  0.3160 
  4969.500 
  9.7820 -999.25  0.3430  0.4540 -0.0220 -999.25 -999.25 -999.25 -999.25 
  19.405  18.806  21.598 -999.25  32.115 -999.25 -999.25 -999.25 -999.25 
 -999.25 -999.25 -999.25 -999.25 -999.25  21.598  18.806  19.405 -999.25 
  1.9009  1.9141 -0.0260  11.168 -999.25  0.3020  21.598  18.806  19.405 
  1.9141 -999.25  0.3020 
  4970.000 
  9.7940 -999.25  0.3310  0.4620 -0.0270 -999.25 -999.25 -999.25 -999.25 
  16.736  16.985  16.829 -999.25  33.161 -999.25 -999.25 -999.25 -999.25 
 -999.25 -999.25 -999.25 -999.25 -999.25  16.829  16.985  16.736 -999.25 
  1.8877  1.9174 -0.0210  11.248 -999.25  0.2910  16.829  16.985  16.736 
  1.9174 -999.25  0.2910 
  4970.500 
  9.8460 -999.25  0.3330  0.4660 -0.0340 -999.25 -999.25 -999.25 -999.25 
  13.837  15.259  17.332 -999.25  33.138 -999.25 -999.25 -999.25 -999.25 
 -999.25 -999.25 -999.25 -999.25 -999.25  17.332  15.259  13.837 -999.25 
  1.8811  1.9092 -0.0240  10.144 -999.25  0.2870  17.332  15.259  13.837 
  1.9092 -999.25  0.2870 
  4971.000 
  9.8660 -999.25  0.3510  0.4490 -0.0400 -999.25 -999.25 -999.25 -999.25 
  11.086  12.827  16.427 -999.25  32.531 -999.25 -999.25 -999.25 -999.25 
 -999.25 -999.25 -999.25 -999.25 -999.25  16.427  12.827  11.086 -999.25 
  1.9092  1.8828 -0.0280  10.236 -999.25  0.2890  16.427  12.827  11.086 
  1.8828 -999.25  0.2890 
  4971.500 
  9.8220 -999.25  0.3700  0.4370 -0.0430 -999.25 -999.25 -999.25 -999.25 
  9.7410  10.723  10.277 -999.25  31.699 -999.25 -999.25 -999.25 -999.25 
 -999.25 -999.25 -999.25 -999.25 -999.25  10.277  10.723  9.7410 -999.25 
  1.9290  1.8547 -0.0350  10.284 -999.25  0.2950  10.277  10.723  9.7410 
  1.8547 -999.25  0.2950 
  4972.000 
  9.7910 -999.25  0.3820  0.4300 -0.0450 -999.25 -999.25 -999.25 -999.25 
  9.1310  9.5270  6.1850 -999.25  31.355 -999.25 -999.25 -999.25 -999.25 
 -999.25 -999.25 -999.25 -999.25 -999.25  6.1850  9.5270  9.1310 -999.25 
  1.9405  1.8102 -0.0470  9.7170 -999.25  0.2970  6.1850  9.5270  9.1310 
  1.8102 -999.25  0.2970 
  4972.500 
  9.7830 -999.25  0.3880  0.4280 -0.0440 -999.25 -999.25 -999.25 -999.25 
  8.5120  8.8970  8.8640 -999.25  31.700 -999.25 -999.25 -999.25 -999.25 
 -999.25 -999.25 -999.25 -999.25 -999.25  8.8640  8.8970  8.5120 -999.25 
  1.9438  1.7805 -0.0690  9.4250 -999.25  0.2960  8.8640  8.8970  8.5120 
  1.7805 -999.25  0.2960 
  4973.000 
  9.8670 -999.25  0.3760  0.4300 -0.0420 -999.25 -999.25 -999.25 -999.25 
  8.1420  8.7660  9.0620 -999.25  34.053 -999.25 -999.25 -999.25 -999.25 
 -999.25 -999.25 -999.25 -999.25 -999.25  9.0620  8.7660  8.1420 -999.25 
  1.9405  1.8151 -0.0790  8.9530 -999.25  0.2940  9.0620  8.7660  8.1420 
  1.8151 -999.25  0.2940 
  4973.500 
  9.8510 -999.25  0.3580  0.4400 -0.0400 -999.25 -999.25 -999.25 -999.25 
  8.0660  8.7490  7.4510 -999.25  34.838 -999.25 -999.25 -999.25 -999.25 
 -999.25 -999.25 -999.25 -999.25 -999.25  7.4510  8.7490  8.0660 -999.25 
  1.9240  1.8498 -0.0660  8.4530 -999.25  0.2910  7.4510  8.7490  8.0660 
  1.8498 -999.25  0.2910 
  4974.000 
  9.7950 -999.25  0.3380  0.4540 -0.0380 -999.25 -999.25 -999.25 -999.25 
  8.0650  8.7800  15.419 -999.25  35.183 -999.25 -999.25 -999.25 -999.25 
 -999.25 -999.25 -999.25 -999.25 -999.25  15.419  8.7800  8.0650 -999.25 
  1.9009  1.8745 -0.0350  8.2990 -999.25  0.2880  15.419  8.7800  8.0650 
  1.8745 -999.25  0.2880 
  4974.500 
  9.7590 -999.25  0.3220  0.4630 -0.0360 -999.25 -999.25 -999.25 -999.25 
  8.0640  8.8610  17.674 -999.25  35.551 -999.25 -999.25 -999.25 -999.25 
 -999.25 -999.25 -999.25 -999.25 -999.25  17.674  8.8610  8.0640 -999.25 
  1.8861  1.8910 -0.0210  8.1450 -999.25  0.2860  17.674  8.8610  8.0640 
  1.8910 -999.25  0.2860 
  4975.000 
  9.7110 -999.25  0.3060  0.4710 -0.0330 -999.25 -999.25 -999.25 -999.25 
  8.0340  8.8600  18.852 -999.25  35.860 -999.25 -999.25 -999.25 -999.25 
 -999.25 -999.25 -999.25 -999.25 -999.25  18.852  8.8600  8.0340 -999.25 
  1.8729  1.9009 -0.0160  7.9910 -999.25  0.2840  18.852  8.8600  8.0340 
  1.9009 -999.25  0.2840 
  4975.500 
  9.7230 -999.25  0.2960  0.4800 -0.0320 -999.25 -999.25 -999.25 -999.25 
  8.0780  8.8430  12.535 -999.25  36.027 -999.25 -999.25 -999.25 -999.25 
 -999.25 -999.25 -999.25 -999.25 -999.25  12.535  8.8430  8.0780 -999.25 
  1.8580  1.8927 -0.0140  7.7790 -999.25  0.2830  12.535  8.8430  8.0780 
  1.8927 -999.25  0.2830 
  4976.000 
  9.7600 -999.25  0.2910  0.4870 -0.0280 -999.25 -999.25 -999.25 -999.25 
  8.1680  8.7930  9.8420 -999.25  36.146 -999.25 -999.25 -999.25 -999.25 
 -999.25 -999.25 -999.25 -999.25 -999.25  9.8420  8.7930  8.1680 -999.25 
  1.8465  1.8630 -0.0180  7.7070 -999.25  0.2860  9.8420  8.7930  8.1680 
  1.8630 -999.25  0.2860 
  4976.500 
  9.7960 -999.25  0.2920  0.4860 -0.0260 -999.25 -999.25 -999.25 -999.25 
  8.2120  8.7440  9.1740 -999.25  36.229 -999.25 -999.25 -999.25 -999.25 
 -999.25 -999.25 -999.25 -999.25 -999.25  9.1740  8.7440  8.2120 -999.25 
  1.8481  1.8366 -0.0280  7.5070 -999.25  0.2880  9.1740  8.7440  8.2120 
  1.8366 -999.25  0.2880 
  4977.000 
  9.8440 -999.25  0.3000  0.4740 -0.0250 -999.25 -999.25 -999.25 -999.25 
  8.2570  8.7430  9.6060 -999.25  36.217 -999.25 -999.25 -999.25 -999.25 
 -999.25 -999.25 -999.25 -999.25 -999.25  9.6060  8.7430  8.2570 -999.25 
  1.8679  1.8201 -0.0380  6.8270 -999.25  0.2900  9.6060  8.7430  8.2570 
  1.8201 -999.25  0.2900 
  4977.500 
  9.8560 -999.25  0.3050  0.4640 -0.0250 -999.25 -999.25 -999.25 -999.25 
  8.2700  8.7750  6.2700 -999.25  36.182 -999.25 -999.25 -999.25 -999.25 
 -999.25 -999.25 -999.25 -999.25 -999.25  6.2700  8.7750  8.2700 -999.25 
  1.8844  1.8019 -0.0500  6.1950 -999.25  0.2920  6.2700  8.7750  8.2700 
  1.8019 -999.25  0.2920 
  4978.000 
  9.7920 -999.25  0.3040  0.4590 -0.0260 -999.25 -999.25 -999.25 -999.25 
  8.2850  8.7900  5.1370 -999.25  36.158 -999.25 -999.25 -999.25 -999.25 
 -999.25 -999.25 -999.25 -999.25 -999.25  5.1370  8.7900  8.2850 -999.25 
  1.8927  1.7920 -0.0580  6.0270 -999.25  0.2960  5.1370  8.7900  8.2850 
  1.7920 -999.25  0.2960 
  4978.500 
  9.6800 -999.25  0.3000  0.4630 -0.0270 -999.25 -999.25 -999.25 -999.25 
  8.2840  8.8220  4.8330 -999.25  36.170 -999.25 -999.25 -999.25 -999.25 
 -999.25 -999.25 -999.25 -999.25 -999.25  4.8330  8.8220  8.2840 -999.25 
  1.8861  1.7854 -0.0590  5.8880 -999.25  0.3020  4.8330  8.8220  8.2840 
  1.7854 -999.25  0.3020 
  4979.000 
  9.6120 -999.25  0.2960  0.4700 -0.0280 -999.25 -999.25 -999.25 -999.25 
  8.2690  8.8530  3.9660 -999.25  36.206 -999.25 -999.25 -999.25 -999.25 
 -999.25 -999.25 -999.25 -999.25 -999.25  3.9660  8.8530  8.2690 -999.25 
  1.8745 -999.25 -999.25 -999.25 -999.25  0.3080  3.9660  8.8530  8.2690 
 -999.25 -999.25  0.3080 
  4979.500 
  9.5570 -999.25  0.2930  0.4740 -0.0280 -999.25 -999.25 -999.25 -999.25 
  8.2520  8.8690  3.3340 -999.25  36.206 -999.25 -999.25 -999.25 -999.25 
 -999.25 -999.25 -999.25 -999.25 -999.25  3.3340  8.8690  8.2520 -999.25 
  1.8679 -999.25 -999.25 -999.25 -999.25  0.3120  3.3340  8.8690  8.2520 
 -999.25 -999.25  0.3120 
  4980.000 
  9.5570 -999.25  0.2920  0.4570 -0.0210 -999.25 -999.25 -999.25 -999.25 
  8.2520  8.8520  3.0570 -999.25  36.206 -999.25 -999.25 -999.25 -999.25 
 -999.25 -999.25 -999.25 -999.25 -999.25  3.0570  8.8520  8.2520 -999.25 
  1.8960 -999.25 -999.25 -999.25 -999.25  0.3150  3.0570  8.8520  8.2520 
 -999.25 -999.25  0.3150 
  4980.500 
  9.5730 -999.25  0.2920  0.4420 -0.0150 -999.25 -999.25 -999.25 -999.25 
  8.2520  8.8020  3.0850 -999.25  36.122 -999.25 -999.25 -999.25 -999.25 
 -999.25 -999.25 -999.25 -999.25 -999.25  3.0850  8.8020  8.2520 -999.25 
  1.9207 -999.25 -999.25 -999.25 -999.25  0.3160  3.0850  8.8020  8.2520 
 -999.25 -999.25  0.3160 
