~Version Information
VERS.                     2.0: CWLS log ASCII Standard Version 2.00
WRAP.                      NO: One line per depth step
~Well Information Block
#MNEM.UNIT                               Data Type  Information
#---------                               ---------  -----------
STRT.FT                                    90.0000:
STOP.FT                                  2000.0000:
STEP.FT                                     0.5000:
NULL.                 -999.25                     :
COMP.                                             :COMPANY            
WELL.     LL 76-30 OR MUDDY CREEK 76-30           :WELL               
FLD .                                             :FIELD              
CTRY.                                             :COUNTRY            
STAT.                                             :STATE              
LOC .                                             :LOCATION           
UWI .                                             :UNIQUE WELL ID     
SRVC.                                             :Service company    
DATE.                                             :LOG DATE           
~Curve Information
#MNEM.UNIT           API CODE  Curve Description
#---------           --------  -----------------
DEPT.FT                      :   1 DEPTH
GR  .GAPI                    :   2
CALI.IN                      :   3
DPHI.PU-S                    :   4
NPHI.PU-S                    :   5
DRHO.G/C3                    :   6
SP  .MV                      :   7
ILD .OHMM                    :   8
ILM .OHMM                    :   9
SFLU.OHMM                    :  10
DT  .US/F                    :  11
RHOB.G/C3                    :  12
ROBS.G/C3                    :  13
CALS.IN                      :  14
DRHS.G/C3                    :  15
GRS .GAPI                    :  16
NPHS.PU-S                    :  17
DTS .US/F                    :  18
SBL .MV                      :  19
RD  .OHMM                    :  20
RM  .OHMM                    :  21
RS  .OHMM                    :  22
SFLU.OHMM                    :  23
ILMC.OHMM                    :  24
ILDC.OHMM                    :  25
ROBC.G/C3                    :  26
GRC .GAPI                    :  27
NPHC.PU-S                    :  28
~A
# ...
  1602.000  125.75  7.0480  0.4380  0.5770 -0.0090 -999.25  1.4180  1.7190 -999.25  122.77  1.9273  1.9393  7.0573 -0.0110  122.69  0.5461  113.97 -999.25  1.4180  1.7190 -999.25 -999.25  1.7190  1.4180  1.9393  112.10  0.5198 
  1602.500  112.23  7.0890  0.4060  0.5610 -0.0180 -999.25  1.5110  1.8320 -999.25  97.655  1.9801  1.9963  7.0935 -0.0204  108.82  0.5105  97.263 -999.25  1.5110  1.8320 -999.25 -999.25  1.8320  1.5110  1.9963  99.567  0.4814 
  1603.000  96.914  7.1090  0.3620  0.5200 -0.0290 -999.25  1.6110  1.9530 -999.25  96.453  2.0527  2.0654  7.1092 -0.0290  96.741  0.4519  99.016 -999.25  1.6110  1.9530 -999.25 -999.25  1.9530  1.6110  2.0654  88.572  0.4184 
  1603.500  96.126  7.1100  0.3270  0.4920 -0.0290 -999.25  1.7170  2.1000 -999.25  104.94  2.1105  2.1307  7.0887 -0.0277  96.814  0.3682  117.50 -999.25  1.7170  2.1000 -999.25 -999.25  2.1000  1.7170  2.1307  88.567  0.3285 
  1604.000  99.318  7.0110  0.2700  0.3650 -0.0230 -999.25  1.9510  2.2180 -999.25  150.11  2.2045  2.1863  6.9987 -0.0169  100.84  0.3900  150.07 -999.25  1.9510  2.2180 -999.25 -999.25  2.2180  1.9510  2.1863  91.920  0.3518 
  1604.500  106.49  6.9530  0.3220  0.3760  0.0060 -999.25  2.3210  2.4520 -999.25  149.96  2.1187  2.1029  6.9488  0.0068  107.45  0.4334  148.08 -999.25  2.3210  2.4520 -999.25 -999.25  2.4520  2.3210  2.1029  97.749  0.3984 
  1605.000  111.08  6.9330  0.3680  0.4280  0.0100 -999.25  2.6870  3.0540 -999.25  141.77  2.0428  2.0178  6.9332  0.0090  111.85  0.4469  140.92 -999.25  2.6870  3.0540 -999.25 -999.25  3.0540  2.6870  2.0178  101.69  0.4130 
  1605.500  114.86  6.9340  0.4420  0.4500  0.0050 -999.25  2.8900  3.7350 -999.25  137.67  1.9207  1.9111  6.9382  0.0038  115.15  0.4313  133.97 -999.25  2.8900  3.7350 -999.25 -999.25  3.7350  2.8900  1.9111  104.71  0.3961 
  1606.000  116.26  6.9550  0.4710  0.4360 -0.0010 -999.25  3.1080  4.4840 -999.25  117.29  1.8729  1.8660  6.9668 -0.0012  116.23  0.4108  115.92 -999.25  3.1080  4.4840 -999.25 -999.25  4.4840  3.1080  1.8660  105.81  0.3742 
  1606.500  116.07  7.0150  0.4920  0.4120 -0.0020 -999.25  3.4680  5.3840 -999.25  108.60  1.8382  1.8344  7.0229 -0.0020  115.77  0.4053  108.24 -999.25  3.4680  5.3840 -999.25 -999.25  5.3840  3.4680  1.8344  105.63  0.3683 
  1607.000  114.49  7.0560  0.5040  0.4050 -0.0020 -999.25  3.8350  6.0070 -999.25  105.90  1.8184  1.8162  7.0600 -0.0028  114.08  0.4080  104.40 -999.25  3.8350  6.0070 -999.25 -999.25  6.0070  3.8350  1.8162  104.24  0.3712 
  1607.500  112.31  7.0770  0.5110  0.4070 -0.0060 -999.25  4.0870  6.9530 -999.25  92.219  1.8069  1.8069  7.0586 -0.0062  112.42  0.4173  91.091 -999.25  4.0870  6.9530 -999.25 -999.25  6.9530  4.0870  1.8069  102.72  0.3811 
  1608.000  112.91  6.9780  0.5110  0.4150 -0.0070 -999.25  3.9750  7.2760 -999.25  79.035  1.8069  1.8084  6.9563 -0.0068  113.28  0.4398  79.783 -999.25  3.9750  7.2760 -999.25 -999.25  7.2760  3.9750  1.8084  103.09  0.4053 
  1608.500  114.91  6.8590  0.5060  0.4370 -0.0060 -999.25  3.7270  6.7590 -999.25  91.211  1.8151  1.8178  6.8415 -0.0058  114.88  0.4728  92.089 -999.25  3.7270  6.7590 -999.25 -999.25  6.7590  3.7270  1.8178  104.06  0.4408 
  1609.000  114.72  6.7610  0.4970  0.4720 -0.0050 -999.25  3.3680  4.7270 -999.25  114.67  1.8300  1.8323  6.7542 -0.0050  114.09  0.4863  114.77 -999.25  3.3680  4.7270 -999.25 -999.25  4.7270  3.3680  1.8323  102.99  0.4553 
  1609.500  111.15  6.7220  0.4890  0.4870 -0.0050 -999.25  2.9620  3.4930 -999.25  122.26  1.8432  1.8474  6.7254 -0.0055  109.95  0.4643  122.17 -999.25  2.9620  3.4930 -999.25 -999.25  3.4930  2.9620  1.8474  99.132  0.4316 
  1610.000  104.19  6.7420  0.4740  0.4650 -0.0080 -999.25  2.6280  2.5340 -999.25  129.24  1.8679  1.8820  6.7422 -0.0087  102.95  0.3852  129.00 -999.25  2.6280  2.5340 -999.25 -999.25  2.5340  2.6280  1.8820  92.885  0.3467 
  1610.500  96.835  6.7430  0.4230  0.3840 -0.0120 -999.25  2.4190  2.0900 -999.25  139.82  1.9521  1.9572  6.7432 -0.0122  96.738  0.3888  139.20 -999.25  2.4190  2.0900 -999.25 -999.25  2.0900  2.4190  1.9572  87.281  0.3506 
  1611.000  96.246  6.7440  0.4040  0.3890 -0.0130 -999.25  2.0890  1.8040 -999.25  150.45  1.9834  1.9863  6.7442 -0.0111  96.407  0.3984  149.57 -999.25  2.0890  1.8040 -999.25 -999.25  1.8040  2.0890  1.9863  86.986  0.3608 
  1611.500  97.249  6.7450  0.3930  0.3990 -0.0010 -999.25  1.9050  1.6310 -999.25  149.80  2.0016  1.9990  6.7481  0.0010  98.376  0.4731  149.87 -999.25  1.9050  1.6310 -999.25 -999.25  1.6310  1.9050  1.9990  88.777  0.4411 
  1612.000  104.42  6.7650  0.4030  0.4800  0.0120 -999.25  1.6600  1.5290 -999.25  147.70  1.9851  1.9716  6.7682  0.0117  105.03  0.5058  147.97 -999.25  1.6600  1.5290 -999.25 -999.25  1.5290  1.6600  1.9716  94.862  0.4763 
  1612.500  108.41  6.7860  0.4560  0.5090  0.0100 -999.25  1.5420  1.4730 -999.25  143.60  1.8976  1.8929  6.7981  0.0087  109.10  0.5229  144.23 -999.25  1.5420  1.4730 -999.25 -999.25  1.4730  1.5420  1.8929  98.650  0.4947 
  1613.000  113.00  6.8670  0.4750  0.5250  0.0010 -999.25  1.4730  1.4590 -999.25  143.09  1.8663  1.8663  6.8787  0.0009  113.29  0.5351  143.18 -999.25  1.4730  1.4590 -999.25 -999.25  1.4590  1.4730  1.8663  102.77  0.5079 
  1613.500  114.99  6.9470  0.4750  0.5370  0.0000 -999.25  1.4720  1.4450 -999.25  143.29  1.8663  1.8658  6.9585 -0.0003  114.94  0.5403  143.25 -999.25  1.4720  1.4450 -999.25 -999.25  1.4450  1.4720  1.8658  104.60  0.5135 
  1614.000  114.60  7.0280  0.4770  0.5410 -0.0020 -999.25  1.4720  1.4580 -999.25  144.08  1.8630  1.8609  7.0336 -0.0016  114.19  0.5410  143.90 -999.25  1.4720  1.4580 -999.25 -999.25  1.4580  1.4720  1.8609  104.23  0.5142 
  1614.500  111.63  7.0680  0.4860  0.5410  0.0010 -999.25  1.4580  1.4580 -999.25  144.48  1.8481  1.8439  7.0708  0.0010  111.22  0.5364  144.38 -999.25  1.4580  1.4580 -999.25 -999.25  1.4580  1.4580  1.8439  101.68  0.5093 
  1615.000  108.65  7.0890  0.5050  0.5350  0.0010 -999.25  1.4440  1.4570 -999.25  144.27  1.8168  1.8146  7.0865  0.0010  108.33  0.5372  144.33 -999.25  1.4440  1.4570 -999.25 -999.25  1.4570  1.4440  1.8146  99.097  0.5102 
  1615.500  106.27  7.0700  0.5150  0.5380  0.0010 -999.25  1.4300  1.4430 -999.25  144.37  1.8003  1.8011  7.0674  0.0009  105.96  0.5402  144.34 -999.25  1.4300  1.4430 -999.25 -999.25  1.4430  1.4300  1.8011  96.855  0.5134 
  1616.000  103.89  7.0500  0.5110  0.5410  0.0000 -999.25  1.4170  1.4170 -999.25  144.86  1.8069  1.8085  7.0476  0.0001  103.52  0.5487  144.70 -999.25  1.4170  1.4170 -999.25 -999.25  1.4170  1.4170  1.8085  94.545  0.5226 
  1616.500  100.91  7.0310  0.5030  0.5520  0.0010 -999.25  1.3650  1.3650 -999.25  145.46  1.8201  1.8216  7.0263  0.0012  100.43  0.5547  145.25 -999.25  1.3650  1.3650 -999.25 -999.25  1.3650  1.3650  1.8216  91.649  0.5290 
  1617.000  96.938  6.9920  0.4950  0.5560  0.0030 -999.25  1.3400  1.3280 -999.25  146.15  1.8333  1.8315  6.9874  0.0029  96.497  0.5527  145.89 -999.25  1.3400  1.3280 -999.25 -999.25  1.3280  1.3400  1.8315  87.923  0.5269 
  1617.500  93.165  6.9530  0.5040  0.5510  0.0020 -999.25  1.3520  1.3520 -999.25  147.95  1.8184  1.8156  6.9531  0.0021  92.602  0.5396  147.24 -999.25  1.3520  1.3520 -999.25 -999.25  1.3520  1.3520  1.8156  84.259  0.5128 
  1618.000  88.198  6.9540  0.5190  0.5330  0.0030 -999.25  1.3760  1.3640 -999.25  149.74  1.7937  1.7911  6.9519  0.0029  87.566  0.5227  148.99 -999.25  1.3760  1.3640 -999.25 -999.25  1.3640  1.3760  1.7911  79.673  0.4945 
  1618.500  82.435  6.9350  0.5330  0.5160  0.0020 -999.25  1.4670  1.4140 -999.25  149.93  1.7706  1.7693  6.9372  0.0020  81.993  0.5002  149.85 -999.25  1.4670  1.4140 -999.25 -999.25  1.4140  1.4670  1.7693  74.558  0.4703 
  1619.000  78.264  6.9560  0.5400  0.4890  0.0020 -999.25  1.5780  1.4660 -999.25  148.53  1.7590  1.7585  6.9642  0.0024  77.857  0.4784  149.19 -999.25  1.5780  1.4660 -999.25 -999.25  1.4660  1.5780  1.7585  70.874  0.4468 
  1619.500  74.291  7.0360  0.5430  0.4700  0.0060 -999.25  1.6660  1.5630 -999.25  138.94  1.7541  1.7537  7.0518  0.0068  73.800  0.4668  143.66 -999.25  1.6660  1.5630 -999.25 -999.25  1.5630  1.6660  1.7537  67.416  0.4343 
