~Version Information
VERS.                     2.0: CWLS log ASCII Standard Version 2.00
WRAP.                      NO: One line per depth step
~Well Information Block
#MNEM.UNIT                               Data Type  Information
#---------                               ---------  -----------
STRT.FT                                   318.0000:
STOP.FT                                  2700.0000:
STEP.FT                                     0.5000:
NULL.                 -999.25                     :
COMP.                                             :COMPANY            
WELL.     LOS LOBOS 82X-30                        :WELL               
FLD .                                             :FIELD              
CTRY.                                             :COUNTRY            
STAT.                                             :STATE              
LOC .                                             :LOCATION           
UWI .                                             :UNIQUE WELL ID     
SRVC.                                             :Service company    
DATE.                                             :LOG DATE           
~Curve Information
#MNEM.UNIT           API CODE  Curve Description
#---------           --------  -----------------
DEPT.FT                      :   1 DEPTH
SP  .MV                      :   2
ILD .OHMM                    :   3
ILM .OHMM                    :   4
SFLU.OHMM                    :   5
CALI.IN                      :   6
GR  .GAPI                    :   7
NPHI.PU-S                    :   8
DPHI.PU-S                    :   9
DRHO.G/C3                    :  10
CALI.IN                      :  11
DT  .US/F                    :  12
SBL .MV                      :  13
RS  .OHMM                    :  14
RM  .OHMM                    :  15
RD  .OHMM                    :  16
DTS .US/F                    :  17
CALS.IN                      :  18
RHOB.G/C3                    :  19
ROBS.G/C3                    :  20
DROS.G/C3                    :  21
CALS.IN                      :  22
GRS .GAPI                    :  23
NPHS.PU-S                    :  24
SFLU.OHMM                    :  25
ILMC.OHMM                    :  26
ILDC.OHMM                    :  27
ROBC.G/C3                    :  28
GRC .GAPI                    :  29
NPHC.PU-S                    :  30
~A
# ...
  2364.000 -19.501  3.4870  3.4110  3.3930  6.7840  152.13  0.4610  0.4790  0.0090  6.7500  127.35 -17.501  3.3930  3.4110  3.4870  129.75  6.7476  1.8597  1.8652  0.0215  6.7773  139.94  0.4610  3.4058  3.4017  3.4793  1.8652  128.87  0.4482 
  2364.500 -19.748  3.4790  3.4910  3.1870  6.7820  155.70  0.4720  0.4710  0.0120  6.7470  130.31 -17.748  3.1870  3.4910  3.4790  130.75  6.7518  1.8729  1.8491  0.0163  6.7732  152.21  0.4720  3.2062  3.4813  3.4713  1.8491  140.14  0.4605 
  2365.000 -19.961  3.5610  3.5740  3.2260  6.7810  156.57  0.4800  0.4710  0.0150  6.7530  130.85 -17.961  3.2260  3.5740  3.5610  128.63  6.7586  1.8729  1.8434  0.0122  6.7701  155.71  0.4800  3.2437  3.5638  3.5529  1.8434  143.35  0.4695 
  2365.500 -19.493  3.6920  3.7190  3.3030  6.7770  155.31  0.4870  0.4760  0.0220  6.7600  128.09 -17.493  3.3030  3.7190  3.6920  126.47  6.7664  1.8646  1.8384  0.0072  6.7700  156.55  0.4870  3.3182  3.7079  3.6833  1.8384  144.12  0.4773 
  2366.000 -18.751  3.9120  3.8700  3.5700  6.7730  149.62  0.5040  0.4860  0.0160  6.7680  126.06 -16.751  3.5700  3.8700  3.9120  125.12  6.7743  1.8481  1.8430  0.0031  6.7700  155.24  0.5040  3.5761  3.8580  3.9022  1.8430  142.91  0.4964 
  2366.500 -19.160  4.1080  4.2840  3.8680  6.7700  137.91  0.4980  0.4890  0.0120  6.7760  124.88 -17.160  3.8680  4.2840  4.1080  123.94  6.7823  1.8432  1.8529 -0.0009  6.7739  149.51  0.4980  3.8637  4.2693  4.0972  1.8529  137.67  0.4897 
  2367.000 -19.526  4.3050  4.5080  4.8400  6.7700  126.67  0.4570  0.4920  0.0070  6.7840  123.69 -17.526  4.8400  4.5080  4.3050  120.21  6.7902  1.8382  1.8711 -0.0109  6.7790  137.85  0.4570  4.7979  4.4918  4.2932  1.8711  126.95  0.4437 
  2367.500 -19.732  4.4240  4.7430  5.8390  6.7700  117.97  0.4080  0.4890  0.0030  6.7920  119.23 -17.732  5.8390  4.7430  4.4240  116.68  6.7982  1.8432  1.9111 -0.0140  6.7830  126.66  0.4080  5.7532  4.7252  4.4115  1.9111  116.67  0.3887 
  2368.000 -18.391  4.6190  5.1830  7.1620  6.7740  121.93  0.3940  0.4830 -0.0010  6.8000  115.94 -16.391  7.1620  5.1830  4.6190  113.32  6.8054  1.8531  1.9746 -0.0145  6.7872  117.98  0.3940  7.0125  5.1618  4.6054  1.9746  108.70  0.3730 
  2368.500 -17.049  4.6940  5.3430  7.7860  6.7790  125.34  0.4000  0.4720 -0.0110  6.8070  112.54 -15.049  7.7860  5.3430  4.6940  111.83  6.8124  1.8712  2.0447  0.0217  6.7993  121.91  0.4000  7.6070  5.3206  4.6800  2.0447  112.38  0.3797 
  2369.000 -15.358  4.7780  5.3560  8.1310  6.7830  121.94  0.4110  0.4480 -0.0140  6.8140  111.61 -13.358  8.1310  5.3560  4.7780  111.73  6.8094  1.9108  2.0545  0.0483  6.8121  125.31  0.4110  7.9371  5.3337  4.7636  2.0545  115.58  0.3921 
  2369.500 -14.652  4.7810  5.3690  8.1560  6.7870  114.98  0.4160  0.4100 -0.0150  6.8080  111.78 -12.652  8.1560  5.3690  4.7810  112.11  6.8072  1.9735  2.0570  0.0558  6.8481  121.98  0.4160  7.9701  5.3471  4.7666  2.0570  112.68  0.3977 
  2370.000 -14.902  4.7830  5.2880  7.9910  6.7990  112.30  0.4110  0.3670  0.0210  6.8070  112.22 -12.902  7.9910  5.2880  4.7830  113.38  6.8370  2.0445  2.0416  0.0500  6.9576  114.92  0.4110  7.8415  5.2683  4.7689  2.0416  106.67  0.3922 
  2370.500 -15.548  4.7190  5.0580  6.9510  6.8110  116.57  0.4100  0.3610  0.0480  6.8470  113.76 -13.548  6.9510  5.0580  4.7190  115.98  6.8775  2.0544  1.9909  0.0325  7.0209  112.50  0.4100  6.8623  5.0408  4.7055  1.9909  104.71  0.3911 
  2371.000 -15.635  4.6150  4.8930  6.1250  6.8430  123.39  0.4210  0.3590  0.0560  6.8880  116.75 -13.635  6.1250  4.8930  4.6150  120.08  6.8393  2.0577  1.9570  0.0260  7.0610  117.06  0.4210  6.0768  4.8774  4.6022  1.9570  109.14  0.4035 
  2371.500 -14.852  4.3500  4.4630  5.0630  6.9540  127.15  0.4580  0.3670  0.0510  6.8220  121.26 -12.852  5.0630  4.4630  4.3500  123.71  6.7890  2.0445  1.9438  0.0280  6.9700  123.74  0.4580  5.0389  4.4491  4.3384  1.9438  114.92  0.4449 
  2372.000 -14.032  4.0790  4.2080  4.1160  7.0180  130.92  0.4810  0.3980  0.0330  6.7770  124.61 -12.032  4.1160  4.2080  4.0790  124.91  6.7726  1.9933  1.9108  0.0290  6.8040  127.60  0.4810  4.1057  4.1941  4.0685  1.9108  117.64  0.4706 
  2372.500 -13.682  3.7830  3.8240  3.5550  7.0610  135.16  0.4780  0.4200  0.0260  6.7710  125.03 -11.682  3.5550  3.8240  3.7830  125.04  6.7761  1.9570  1.8778  0.0230  6.7850  131.52  0.4780  3.5630  3.8124  3.7739  1.8778  121.16  0.4673 
  2373.000 -14.225  3.5730  3.5470  3.2790  6.9700  139.40  0.4680  0.4280  0.0280  6.7780  125.04 -12.225  3.2790  3.5470  3.5730  125.04  6.7830  1.9438  1.8316  0.0160  6.7890  135.86  0.4680  3.2965  3.5370  3.5649  1.8316  125.17  0.4560 
  2373.500 -14.767  3.4060  3.3560  3.3560  6.8040  143.04  0.4660  0.4480  0.0290  6.7850  125.05 -12.767  3.3560  3.3560  3.4060  126.36  6.8007  1.9108  1.8102  0.0090  6.8050  140.08  0.4660  3.3724  3.3472  3.3986  1.8102  129.16  0.4538 
  2374.000 -18.000  3.2220  3.2790  3.5170  6.7850  143.76  0.4740  0.4680  0.0230  6.8070  126.89 -16.000  3.5170  3.2790  3.2220  127.67  6.8119  1.8778  1.8069  0.0040  6.8290  143.19  0.4740  3.5302  3.2707  3.2154  1.8069  132.16  0.4628 
  2374.500 -19.163  3.1620  3.2040  3.5230  6.7890  142.49  0.4840  0.4960  0.0160  6.8140  128.00 -17.163  3.5230  3.2040  3.1620  127.82  6.8245  1.8316  1.8019  0.0060  6.8470  143.46  0.4840  3.5376  3.1962  3.1557  1.8019  132.52  0.4740 
  2375.000 -19.367  3.1560  3.1650  3.4260  6.8050  137.83  0.4870  0.5090  0.0090  6.8290  127.74 -17.367  3.4260  3.1650  3.1560  128.04  6.8387  1.8102  1.7623  0.0080  6.8660  141.29  0.4870  3.4454  3.1575  3.1498  1.7623  130.62  0.4774 
  2375.500 -19.571  3.1130  3.1260  3.5190  6.8290  134.83  0.4890  0.5110  0.0040  6.8430  128.17 -17.571  3.5190  3.1260  3.1130  129.46  6.8692  1.8069  1.7607  0.0090  6.8340  136.98  0.4890  3.5326  3.1185  3.1069  1.7607  126.46  0.4796 
  2376.000 -19.944  3.1120  3.1290  3.5820  6.8470  132.38  0.4850  0.5140  0.0060  6.8810  130.03 -17.944  3.5820  3.1290  3.1120  132.61  6.8995  1.8019  1.7640  0.0110  6.7830  134.08  0.4850  3.5889  3.1212  3.1058  1.7640  123.50  0.4751 
  2376.500 -20.354  3.1430  3.1850  3.5220  6.8660  129.93  0.4760  0.5380  0.0080  6.9080  133.79 -18.354  3.5220  3.1850  3.1430  135.58  6.9202  1.7623  1.7689  0.0080  6.9970  131.58  0.4760  3.5501  3.1781  3.1370  1.7689  122.34  0.4651 
  2377.000 -20.598  3.1730  3.2250  3.3820  6.8340  126.81  0.4680  0.5390  0.0090  6.9260  136.42 -18.598  3.3820  3.2250  3.1730  137.59  6.9294  1.7607  1.7739  0.0040  7.0680  128.84  0.4680  3.4199  3.2183  3.1669  1.7739  120.16  0.4562 
  2377.500 -21.081  3.2150  3.2660  3.2830  6.7830  123.69  0.4710  0.5370  0.0110  6.9310  138.16 -19.081  3.2830  3.2660  3.2150  138.79  6.9337  1.7640  1.7805  0.0000  7.0880  125.64  0.4710  3.3248  3.2592  3.2088  1.7805  117.28  0.4596 
  2378.000 -21.565  3.2580  3.2820  3.2400  6.9970  116.72  0.4750  0.5340  0.0080  6.9350  139.10 -19.565  3.2400  3.2820  3.2580  139.32  6.9317  1.7689  1.7871 -0.0050  7.0050  120.91  0.4750  3.2761  3.2747  3.2515  1.7871  112.46  0.4640 
  2378.500 -22.216  3.3050  3.2990  3.2320  7.0680  113.49  0.5050  0.5310  0.0040  6.9300  139.43 -20.216  3.2320  3.2990  3.3050  137.56  6.8846  1.7739  1.8118 -0.0070  6.9260  115.36  0.5050  3.2620  3.2912  3.2982  1.8118  106.93  0.4976 
  2379.000 -21.872  3.3510  3.3310  3.2840  7.0880  114.84  0.5250  0.5270  0.0000  6.8610  136.58 -19.872  3.2840  3.3310  3.3510  132.98  6.8160  1.7805  1.8580 -0.0080  6.8480  114.09  0.5250  3.3062  3.3226  3.3439  1.8580  105.39  0.5200 
  2379.500 -21.204  3.3710  3.3630  3.4360  7.0050  121.57  0.5230  0.5230 -0.0050  6.7920  131.06 -19.204  3.4360  3.3630  3.3710  127.93  6.7292  1.7871  1.8877 -0.0200  6.8220  118.00  0.5230  3.4512  3.3542  3.3638  1.8877  108.88  0.5178 
  2380.000 -20.107  3.3910  3.5360  3.9100  6.9260  128.22  0.5130  0.5080 -0.0070  6.6950  126.22 -18.107  3.9100  3.5360  3.3910  123.86  6.6911  1.8118  1.9389 -0.0180  6.7970  124.85  0.5130  3.9066  3.5262  3.3837  1.9389  115.07  0.5065 
