~Version Information
VERS.                     2.0: CWLS log ASCII Standard Version 2.00
WRAP.                     YES: Multiple lines per depth step
~Well Information Block
#MNEM.UNIT                               Data Type  Information
#---------                               ---------  -----------
STRT.FT                                   120.0000:
STOP.FT                                  3000.0000:
STEP.FT                                     0.5000:
NULL.                 -999.25                     :
COMP.                                             :COMPANY            
WELL.     LOS LOBOS 62X-30                        :WELL               
FLD .                                             :FIELD              
CTRY.                                             :COUNTRY            
STAT.                                             :STATE              
LOC .                                             :LOCATION           
UWI .                                             :UNIQUE WELL ID     
SRVC.                                             :Service company    
DATE.                                             :LOG DATE           
~Curve Information
#MNEM.UNIT           API CODE  Curve Description
#---------           --------  -----------------
DEPT.FT                      :   1 DEPTH
CALI.IN                      :   2
GR  .GAPI                    :   3
NPHI.PU-S                    :   4
DPHI.PU-S                    :   5
DRHO.G/C3                    :   6
SP  .MV                      :   7
ILD .OHMM                    :   8
ILM .OHMM                    :   9
LL8U.OHMM                    :  10
DT  .US/F                    :  11
ROP .                        :  12
GASR.                        :  13
C1R .                        :  14
C2R .                        :  15
C3R .                        :  16
C4R .                        :  17
KSCI.                        :  18
PSCI.                        :  19
OSCI.                        :  20
WSCI.                        :  21
KWCI.                        :  22
PWCI.                        :  23
OWCI.                        :  24
WWCI.                        :  25
ROBS.G/C3                    :  26
NPHS.PU-S                    :  27
PWCL.                        :  28
OWCL.                        :  29
WWCL.                        :  30
KWCL.                        :  31
VCLD.                        :  32
VCLW.                        :  33
VSHL.                        :  34
PHIE.                        :  35
PHIT.                        :  36
SWE .                        :  37
SWT .                        :  38
SWTU.                        :  39
RMAT.                        :  40
BVWE.                        :  41
RHOB.G/C3                    :  42
CALS.IN                      :  43
DTS .US/F                    :  44
SBL .MV                      :  45
RD  .OHMM                    :  46
RM  .OHMM                    :  47
RS  .OHMM                    :  48
DPHI.                        :  49
GRC .GAPI                    :  50
NPHC.PU-S                    :  51
LL8C.OHMM                    :  52
ILDC.OHMM                    :  53
ILMC.OHMM                    :  54
ROBC.G/C3                    :  55
~A
# ...
   642.000 
  9.9260  81.521  0.4300  0.2490  0.0080 -41.447  9.6230  10.126  9.2790 
  229.59  102.88  0.4580  3.4360 -999.25 -999.25 -999.25 -999.25 -999.25 
 -999.25 -999.25 -999.25 -999.25 -999.25 -999.25  2.2401  0.4309 -999.25 
 -999.25 -999.25 -999.25 -999.25 -999.25 -999.25 -999.25 -999.25 -999.25 
 -999.25 -999.25 -999.25 -999.25  2.2392  9.9165  229.67 -9.4470  9.6230 
  10.126  9.2790  0.2485  89.127  0.4047  9.2790  9.5951  10.389  2.2469 
   642.500 
  9.9500  81.207  0.4160  0.2600  0.0060 -41.138  9.5160  9.9400  9.2770 
  229.55  102.65  0.4580  3.4350 -999.25 -999.25 -999.25 -999.25 -999.25 
 -999.25 -999.25 -999.25 -999.25 -999.25 -999.25  2.2325  0.4285 -999.25 
 -999.25 -999.25 -999.25 -999.25 -999.25 -999.25 -999.25 -999.25 -999.25 
 -999.25 -999.25 -999.25 -999.25  2.2210  9.9349  229.56 -9.1380  9.5160 
  9.9400  9.2770  0.2549  91.398  0.4021  9.2770  9.4889  10.197  2.2394 
   643.000 
  9.9620  83.416  0.4070  0.2670  0.0020 -40.831  9.4790  9.5650  8.9910 
  230.89  102.18  0.4570  3.4350 -999.25 -999.25 -999.25 -999.25 -999.25 
 -999.25 -999.25 -999.25 -999.25 -999.25 -999.25  2.2172  0.4186 -999.25 
 -999.25 -999.25 -999.25 -999.25 -999.25 -999.25 -999.25 -999.25 -999.25 
 -999.25 -999.25 -999.25 -999.25  2.2095  9.9540  230.57 -8.8310  9.4790 
  9.5650  8.9910  0.2641  92.458  0.3912  8.9910  9.4524  9.8055  2.2243 
   643.500 
  9.9660  84.680  0.4070  0.2670  0.0000 -40.523  9.3560  9.2200  8.3580 
  232.15  102.18  0.4750  3.4440 -999.25 -999.25 -999.25 -999.25 -999.25 
 -999.25 -999.25 -999.25 -999.25 -999.25 -999.25  2.2095  0.4097 -999.25 
 -999.25 -999.25 -999.25 -999.25 -999.25 -999.25 -999.25 -999.25 -999.25 
 -999.25 -999.25 -999.25 -999.25  2.2095  9.9632  231.83 -8.5230  9.3560 
  9.2200  8.3580  0.2670  90.760  0.3814  8.3580  9.3302  9.4446  2.2166 
   644.000 
  9.9660  83.814  0.4220  0.2480  0.0070 -40.057  9.2680  8.7600  7.7690 
  233.59  102.43  0.4860  3.4540 -999.25 -999.25 -999.25 -999.25 -999.25 
 -999.25 -999.25 -999.25 -999.25 -999.25 -999.25  2.2174  0.4096 -999.25 
 -999.25 -999.25 -999.25 -999.25 -999.25 -999.25 -999.25 -999.25 -999.25 
 -999.25 -999.25 -999.25 -999.25  2.2408  9.9660  233.20 -8.0570  9.2680 
  8.7600  7.7690  0.2542  84.701  0.3813  7.7690  9.2427  8.9629  2.2245 
   644.500 
  10.305  78.058  0.4290  0.2400  0.0280 -39.669  9.0490  8.3380  7.5170 
  233.73  102.43  0.4920  3.4530 -999.25 -999.25 -999.25 -999.25 -999.25 
 -999.25 -999.25 -999.25 -999.25 -999.25 -999.25  2.2436  0.4192 -999.25 
 -999.25 -999.25 -999.25 -999.25 -999.25 -999.25 -999.25 -999.25 -999.25 
 -999.25 -999.25 -999.25 -999.25  2.2540  10.038  233.69 -7.6690  9.0490 
  8.3380  7.5170  0.2422  80.626  0.3919  7.5170  9.0258  8.5303  2.2513 
   645.000 
  11.027  73.407  0.4200  0.2370  0.0480 -39.282  8.6910  7.8070  7.1020 
  232.76  102.91  0.4940  3.4530 -999.25 -999.25 -999.25 -999.25 -999.25 
 -999.25 -999.25 -999.25 -999.25 -999.25 -999.25  2.2549  0.4262 -999.25 
 -999.25 -999.25 -999.25 -999.25 -999.25 -999.25 -999.25 -999.25 -999.25 
 -999.25 -999.25 -999.25 -999.25  2.2589  10.431  233.05 -7.2820  8.6910 
  7.8070  7.1020  0.2377  82.754  0.3996  7.1020  8.6738  8.0167  2.2652 
   645.500 
  11.465  74.276  0.4230  0.2370  0.0630 -38.935  8.2270  7.2570  6.5300 
  231.93  102.92  0.4970  3.5150 -999.25 -999.25 -999.25 -999.25 -999.25 
 -999.25 -999.25 -999.25 -999.25 -999.25 -999.25  2.2589  0.4221 -999.25 
 -999.25 -999.25 -999.25 -999.25 -999.25 -999.25 -999.25 -999.25 -999.25 
 -999.25 -999.25 -999.25 -999.25  2.2589  11.087  232.19 -6.9350  8.2270 
  7.2570  6.5300  0.2370  86.590  0.3954  6.5300  8.2180  7.4981  2.2736 
   646.000 
  11.701  76.170  0.4400  0.2370  0.0760 -38.627  7.7880  6.6610  6.1600 
  231.35  102.92  0.4990  3.5870 -999.25 -999.25 -999.25 -999.25 -999.25 
 -999.25 -999.25 -999.25 -999.25 -999.25 -999.25  2.2589  0.4239 -999.25 
 -999.25 -999.25 -999.25 -999.25 -999.25 -999.25 -999.25 -999.25 -999.25 
 -999.25 -999.25 -999.25 -999.25  2.2589  11.488  231.54 -6.6270  7.7880 
  6.6610  6.1600  0.2370  89.609  0.3975  6.1600  7.7835  6.8949  2.2760 
   646.500 
  11.741  78.144  0.4810  0.2460  0.0840 -38.358  7.3730  6.1580  5.6840 
  232.56  103.17  0.5020  3.6160 -999.25 -999.25 -999.25 -999.25 -999.25 
 -999.25 -999.25 -999.25 -999.25 -999.25 -999.25  2.2581  0.4399 -999.25 
 -999.25 -999.25 -999.25 -999.25 -999.25 -999.25 -999.25 -999.25 -999.25 
 -999.25 -999.25 -999.25 -999.25  2.2441  11.703  232.15 -6.3580  7.3730 
  6.1580  5.6840  0.2452  89.948  0.4151  5.6840  7.3707  6.3718  2.2764 
   647.000 
  11.536  77.830  0.5220  0.2730  0.0770 -38.090  6.8030  5.8720  5.1790 
  235.65  103.17  0.5130  3.6200 -999.25 -999.25 -999.25 -999.25 -999.25 
 -999.25 -999.25 -999.25 -999.25 -999.25 -999.25  2.2432  0.4780 -999.25 
 -999.25 -999.25 -999.25 -999.25 -999.25 -999.25 -999.25 -999.25 -999.25 
 -999.25 -999.25 -999.25 -999.25  2.1996  11.737  234.57 -6.0900  6.8030 
  5.8720  5.1790  0.2717  91.478  0.4569  5.1790  6.8012  6.0681  2.2618 
   647.500 
  11.205  78.935  0.5630  0.3170  0.0460 -37.900  6.4050  5.5280  4.6340 
  240.78  103.17  0.5060  3.6200 -999.25 -999.25 -999.25 -999.25 -999.25 
 -999.25 -999.25 -999.25 -999.25 -999.25 -999.25  2.2004  0.5192 -999.25 
 -999.25 -999.25 -999.25 -999.25 -999.25 -999.25 -999.25 -999.25 -999.25 
 -999.25 -999.25 -999.25 -999.25  2.1270  11.540  238.91 -5.9000  6.4050 
  5.5280  4.6340  0.3170  94.645  0.5021  4.6340  6.4023  5.6909  2.2178 
   648.000 
  10.866  82.092  0.5720  0.3320  0.0210 -37.591  6.0740  5.2800  4.3390 
  245.75  102.23  0.5060  3.6190 -999.25 -999.25 -999.25 -999.25 -999.25 
 -999.25 -999.25 -999.25 -999.25 -999.25 -999.25  2.1312  0.5605 -999.25 
 -999.25 -999.25 -999.25 -999.25 -999.25 -999.25 -999.25 -999.25 -999.25 
 -999.25 -999.25 -999.25 -999.25  2.1022  11.224  243.88 -5.5910  6.0740 
  5.2800  4.3390  0.3320  98.538  0.5472  4.3390  6.0699  5.4131  2.1467 
   648.500 
  10.649  86.431  0.5540  0.2990  0.0050 -37.204  5.8450  5.1740  4.2130 
  250.73  101.75  0.5110  3.6190 -999.25 -999.25 -999.25 -999.25 -999.25 
 -999.25 -999.25 -999.25 -999.25 -999.25 -999.25  2.1046  0.5711 -999.25 
 -999.25 -999.25 -999.25 -999.25 -999.25 -999.25 -999.25 -999.25 -999.25 
 -999.25 -999.25 -999.25 -999.25  2.1567  10.899  248.78 -5.2040  5.8450 
  5.1740  4.2130  0.2990  100.06  0.5588  4.2130  5.8395  5.2868  2.1180 
   649.000 
  10.771  88.798  0.5370  0.2810  0.0110 -36.975  5.7700  5.2300  4.1740 
  253.87  101.52  0.5110  3.6330 -999.25 -999.25 -999.25 -999.25 -999.25 
 -999.25 -999.25 -999.25 -999.25 -999.25 -999.25  2.1492  0.5564 -999.25 
 -999.25 -999.25 -999.25 -999.25 -999.25 -999.25 -999.25 -999.25 -999.25 
 -999.25 -999.25 -999.25 -999.25  2.1864  10.679  252.60 -4.9750  5.7700 
  5.2300  4.1740  0.2810  98.505  0.5426  4.1740  5.7636  5.3349  2.1612 
   649.500 
  10.933  88.090  0.5140  0.2710  0.0180 -36.667  5.7360  5.3730  4.3980 
  250.28  101.05  0.5220  3.7390 -999.25 -999.25 -999.25 -999.25 -999.25 
 -999.25 -999.25 -999.25 -999.25 -999.25 -999.25  2.1812  0.5400 -999.25 
 -999.25 -999.25 -999.25 -999.25 -999.25 -999.25 -999.25 -999.25 -999.25 
 -999.25 -999.25 -999.25 -999.25  2.2029  10.750  251.78 -4.6670  5.7360 
  5.3730  4.3980  0.2710  95.474  0.5245  4.3980  5.7300  5.4873  2.1936 
   650.000 
  10.487  85.174  0.4820  0.2680  0.0170 -36.595  5.8290  5.5300  4.7210 
  243.74  100.81  0.5280  3.8870 -999.25 -999.25 -999.25 -999.25 -999.25 
 -999.25 -999.25 -999.25 -999.25 -999.25 -999.25  2.1993  0.5189 -999.25 
 -999.25 -999.25 -999.25 -999.25 -999.25 -999.25 -999.25 -999.25 -999.25 
 -999.25 -999.25 -999.25 -999.25  2.2078  10.898  246.56 -4.5950  5.8290 
  5.5300  4.7210  0.2680  92.233  0.5015  4.7210  5.8236  5.6590  2.2127 
   650.500 
  10.176  81.859  0.4740  0.2770  0.0080 -36.997  6.0000  5.7120  5.2820 
  239.90  100.56  0.5280  3.8920 -999.25 -999.25 -999.25 -999.25 -999.25 
 -999.25 -999.25 -999.25 -999.25 -999.25 -999.25  2.2066  0.4901 -999.25 
 -999.25 -999.25 -999.25 -999.25 -999.25 -999.25 -999.25 -999.25 -999.25 
 -999.25 -999.25 -999.25 -999.25  2.1930  10.600  241.60 -4.9970  6.0000 
  5.7120  5.2820  0.2770  88.935  0.4698  5.2820  5.9927  5.8329  2.2180 
