~Version Information
VERS.                     2.0: CWLS log ASCII Standard Version 2.00
WRAP.                     YES: Multiple lines per depth step
~Well Information Block
#MNEM.UNIT                               Data Type  Information
#---------                               ---------  -----------
STRT.FT                                   850.0000:
STOP.FT                                  6800.0000:
STEP.FT                                     0.5000:
NULL.                 -999.25                     :
COMP.                                             :COMPANY            
WELL.     SANTIAGO D #26-27                       :WELL               
FLD .                                             :FIELD              
CTRY.                                             :COUNTRY            
STAT.                                             :STATE              
LOC .                                             :LOCATION           
UWI .                                             :UNIQUE WELL ID     
SRVC.                                             :Service company    
DATE.                                             :LOG DATE           
~Curve Information
#MNEM.UNIT           API CODE  Curve Description
#---------           --------  -----------------
DEPT.FT                      :   1 DEPTH
DCAL.IN                      :   2
DGR .GAPI                    :   3
NPHI.PU-S                    :   4
DPHI.PU-S                    :   5
DRHO.G/C3                    :   6
AGR .GAPI                    :   7
ACAL.IN                      :   8
DT  .US/F                    :   9
GR  .GAPI                    :  10
SP  .MV                      :  11
ILM .OHMM                    :  12
ILD .OHMM                    :  13
SFLU.OHMM                    :  14
RHOB.G/C3                    :  15
RS  .OHMM                    :  16
RM  .OHMM                    :  17
RD  .OHMM                    :  18
GRS .GAPI                    :  19
SBL .MV                      :  20
ROBS.G/C3                    :  21
DRHS.G/C3                    :  22
CALS.IN                      :  23
GRS .GAPI                    :  24
NPHS.PU-S                    :  25
CALS.IN                      :  26
GRS .GAPI                    :  27
SFLU.OHMM                    :  28
ILMC.OHMM                    :  29
ILDC.OHMM                    :  30
ROBC.G/C3                    :  31
GRC .GAPI                    :  32
NPHC.PU-S                    :  33
~A
# ...
  4794.000 
  10.323  97.172  0.3710  0.4160  0.0040  95.621  12.784  91.041  82.419 
 -52.287  20.450  21.880  21.405  1.9636  21.405  20.450  21.880  82.419 
 -15.705  1.9863  0.0295  10.341  97.116  0.3777  12.858  92.625  23.169 
  21.149  21.822  1.9961  102.53  0.3855 
  4794.500 
  10.327  97.007  0.3770  0.4070  0.0190  94.269  12.859  89.735  83.166 
 -52.134  19.928  21.205  20.407  1.9785  20.407  19.928  21.205  83.166 
 -15.553  1.9867  0.0329  10.345  98.022  0.3706  12.759  94.513  22.105 
  20.593  21.151  1.9965  103.50  0.3770 
  4795.000 
  10.342  97.121  0.3790  0.4020  0.0300  92.638  12.899  88.528  87.674 
 -51.824  18.964  20.402  19.244  1.9867  19.244  18.964  20.402  87.674 
 -15.243  1.9757  0.0273  10.337  100.40  0.3592  12.622  98.718  20.857 
  19.562  20.351  1.9854  105.98  0.3632 
  4795.500 
  10.345  98.066  0.3740  0.4020  0.0330  92.317  12.878  88.212  93.687 
 -51.631  17.850  19.450  17.981  1.9867  17.981  17.850  19.450  93.687 
 -15.051  1.9658  0.0194  10.332  102.65  0.3540  12.504  104.08  19.503 
  18.378  19.404  1.9755  108.35  0.3569 
  4796.000 
  10.337  100.52  0.3610  0.4090  0.0270  93.583  12.795  88.511  101.68 
 -51.281  16.863  18.476  16.832  1.9752  16.832  16.863  18.476  101.68 
 -14.702  1.9730  0.0152  10.328  105.95  0.3553  12.360  109.07  18.271 
  17.332  18.434  1.9827  111.81  0.3585 
  4796.500 
  10.332  102.77  0.3540  0.4150  0.0190  97.269  12.652  89.048  103.61 
 -51.009  16.047  17.646  15.989  1.9653  15.989  16.047  17.646  103.61 
 -14.431  1.9828  0.0159  10.335  109.23  0.3603  12.192  115.35  17.371 
  16.473  17.608  1.9925  115.29  0.3645 
  4797.000 
  10.328  106.14  0.3540  0.4100  0.0150  102.82  12.536  89.446  103.96 
 -50.620  15.439  17.040  15.159  1.9735  15.159  15.439  17.040  103.96 
 -14.043  1.9942  0.0169  10.342  112.76  0.3642  12.166  121.54  16.484 
  15.834  17.005  2.0040  119.05  0.3693 
  4797.500 
  10.335  109.42  0.3590  0.4040  0.0160  107.50  12.417  90.340  104.71 
 -50.387  14.639  16.245  14.505  1.9834  14.505  14.639  16.245  104.71 
 -13.811  1.9903  0.0058  10.346  116.20  0.3645  12.249  122.96  15.784 
  14.995  16.213  2.0001  122.70  0.3696 
  4798.000 
  10.342  112.98  0.3640  0.3970  0.0170  113.13  12.214  91.432  106.76 
 -50.037  13.956  15.773  13.879  1.9950  13.879  13.956  15.773  106.76 
 -13.461  1.9823 -0.0015  10.356  116.49  0.3623  12.253  121.57  15.117 
  14.281  15.743  1.9921  123.05  0.3670 
  4798.500 
  10.346  116.42  0.3650  0.4000  0.0050  120.86  12.138  92.900  107.39 
 -49.845  13.476  15.037  13.452  1.9900  13.452  13.476  15.037  107.39 
 -13.270  1.9771  0.0036  10.356  115.31  0.3595  12.164  117.53  14.655 
  13.778  15.010  1.9870  121.80  0.3636 
  4799.000 
  10.357  116.50  0.3630  0.4050 -0.0020  123.16  12.233  94.586  107.62 
 -49.692  13.108  14.520  13.132  1.9818  13.132  13.108  14.520  107.62 
 -13.118  1.9860  0.0160  10.405  106.51  0.3592  12.138  111.90  14.329 
  13.401  14.495  1.9962  112.68  0.3633 
  4799.500 
  10.356  115.22  0.3600  0.4080  0.0040  122.52  12.284  95.361  107.42 
 -49.619  12.868  14.176  12.986  1.9768  12.986  12.868  14.176  107.42 
 -13.046  1.9913  0.0272  10.418  104.74  0.3625  12.193  109.73  14.175 
  13.152  14.153  2.0015  110.85  0.3673 
  4800.000 
  10.409  105.82  0.3580  0.4020  0.0170  119.50  12.185  95.561  105.75 
 -49.506  12.678  13.941  13.030  1.9867  13.030  12.678  13.941  105.75 
 -12.934  1.9810  0.0280  10.421  104.05  0.3594  12.231  111.73  14.224 
  12.954  13.919  1.9913  110.13  0.3635 
  4800.500 
  10.419  104.65  0.3630  0.3990  0.0280  113.39  12.121  95.145  103.10 
 -49.391  12.538  13.851  13.172  1.9917  13.172  12.538  13.851  103.10 
 -12.820  1.9665  0.0206  10.427  102.89  0.3513  12.209  112.03  14.381 
  12.809  13.829  1.9768  108.92  0.3537 
  4801.000 
  10.421  104.00  0.3610  0.4060  0.0280  108.91  12.173  94.690  98.617 
 -49.275  12.332  13.762  13.291  1.9801  13.291  12.332  13.762  98.617 
 -12.704  1.9547  0.0118  10.422  100.53  0.3420  12.179  109.95  14.508 
  12.593  13.740  1.9650  106.41  0.3392 
  4801.500 
  10.427  102.79  0.3540  0.4150  0.0200  111.32  12.232  94.889  99.129 
 -49.120  12.285  13.659  13.363  1.9653  13.363  12.285  13.659  99.129 
 -12.550  1.9462  0.0037  10.407  97.889  0.3413  12.211  105.04  14.581 
  12.543  13.637  1.9564  103.57  0.3384 
  4802.000 
  10.421  100.32  0.3420  0.4220  0.0110  112.47  12.228  95.504  99.918 
 -49.003  12.374  13.583  13.483  1.9537  13.483  12.374  13.583  99.918 
 -12.434  1.9455 -0.0015  10.389  96.271  0.3366  12.267  98.239  14.703 
  12.633  13.561  1.9555  101.79  0.3327 
  4802.500 
  10.406  97.655  0.3420  0.4270  0.0030  111.24  12.176  95.980  99.043 
 -48.888  12.577  13.482  13.531  1.9455  13.531  12.577  13.482  99.043 
 -12.320  1.9484  0.0034  10.370  97.725  0.3267  12.276  94.613  14.747 
  12.842  13.460  1.9584  103.27  0.3210 
  4803.000 
  10.387  96.133  0.3390  0.4270 -0.0020  107.71  12.184  95.782  96.546 
 -48.851  12.738  13.309  13.604  1.9455  13.604  12.738  13.309  96.546 
 -12.284  1.9532  0.0085  10.340  103.26  0.3216  12.234  97.570  14.813 
  13.006  13.288  1.9630  109.02  0.3149 
  4803.500 
  10.368  97.889  0.3280  0.4250  0.0040  100.61  12.255  95.308  93.335 
 -48.855  12.760  13.210  13.777  1.9488  13.777  12.760  13.210  93.335 
 -12.289  1.9537  0.0081  10.316  106.30  0.3202  12.191  103.85  14.989 
  13.025  13.189  1.9633  112.14  0.3133 
  4804.000 
  10.337  103.83  0.3220  0.4220  0.0090  94.457  12.287  94.892  91.352 
 -48.937  12.550  13.088  13.978  1.9537  13.978  12.550  13.088  91.352 
 -12.371  1.9552  0.0026  10.313  106.88  0.3225  12.193  106.80  15.204 
  12.806  13.067  1.9647  112.74  0.3159 
  4804.500 
  10.314  106.58  0.3200  0.4220  0.0080  94.853  12.259  94.516  89.647 
 -49.059  12.254  12.992  13.698  1.9537  13.698  12.254  12.992  89.647 
 -12.494  1.9657  0.0002  10.311  105.45  0.3321  12.243  104.93  14.902 
  12.498  12.971  1.9752  111.22  0.3273 
  4805.000 
  10.313  106.91  0.3210  0.4210  0.0020  101.60  12.196  94.298  87.902 
 -49.120  11.921  12.801  13.109  1.9554  13.109  11.921  12.801  87.902 
 -12.556  1.9743  0.0107  10.309  100.36  0.3508  12.302  101.44  14.264 
  12.151  12.781  1.9838  105.84  0.3531 
  4805.500 
  10.311  105.27  0.3280  0.4140  0.0000  107.07  12.183  94.795  88.453 
 -49.182  11.833  12.614  12.591  1.9669  12.591  11.833  12.614  88.453 
 -12.619  1.9752  0.0156  10.306  95.419  0.3626  12.283  100.13  13.702 
  12.060  12.594  1.9847  100.63  0.3673 
  4806.000 
  10.309  99.759  0.3480  0.4090  0.0120  106.43  12.207  95.627  91.063 
 -49.463  11.939  12.589  12.429  1.9752  12.429  11.939  12.589  91.063 
 -12.901  1.9649  0.0151  10.304  92.271  0.3638  12.201  102.12  13.525 
  12.169  12.569  1.9744  97.302  0.3688 
  4806.500 
  10.306  94.877  0.3620  0.4090  0.0160  102.94  12.290  96.163  92.525 
 -49.704  12.136  12.634  12.519  1.9752  12.519  12.136  12.634  92.525 
 -13.143  1.9490  0.0106  10.299  90.557  0.3545  12.177  104.64  13.621 
  12.373  12.614  1.9585  95.478  0.3575 
  4807.000 
  10.304  91.936  0.3650  0.4160  0.0150  99.528  12.318  96.481  92.166 
 -49.905  12.471  12.795  12.841  1.9636  12.841  12.471  12.795  92.166 
 -13.344  1.9427  0.0109  10.294  90.947  0.3328  12.218  104.23  13.967 
  12.721  12.775  1.9522  95.873  0.3280 
  4807.500 
  10.298  90.375  0.3590  0.4260  0.0100  100.88  12.239  96.521  88.797 
 -50.145  12.910  13.173  13.197  1.9471  13.197  12.910  13.173  88.797 
 -13.585  1.9422  0.0110  10.288  92.807  0.3167  12.211  100.81  14.350 
  13.177  13.151  1.9515  97.815  0.3092 
  4808.000 
  10.293  91.025  0.3360  0.4290  0.0110  103.61  12.155  95.927  85.785 
 -50.505  13.219  13.812  13.761  1.9422  13.761  13.219  13.812  85.785 
 -13.946  1.9393  0.0101  10.284  94.318  0.3055  12.184  99.260  14.958 
  13.499  13.788  1.9486  99.397  0.2962 
