~Version Information
VERS.                     2.0: CWLS log ASCII Standard Version 2.00
WRAP.                     YES: Multiple lines per depth step
~Well Information Block
#MNEM.UNIT                               Data Type  Information
#---------                               ---------  -----------
STRT.FT                                   800.0000:
STOP.FT                                  5530.0000:
STEP.FT                                     0.5000:
NULL.                 -999.25                     :
COMP.                                             :COMPANY            
WELL.     SANTIAGO B 73-29                        :WELL               
FLD .                                             :FIELD              
CTRY.                                             :COUNTRY            
STAT.                                             :STATE              
LOC .                                             :LOCATION           
UWI .                                             :UNIQUE WELL ID     
SRVC.                                             :Service company    
DATE.                                             :LOG DATE           
~Curve Information
#MNEM.UNIT           API CODE  Curve Description
#---------           --------  -----------------
DEPT.FT                      :   1 DEPTH
SP  .MV                      :   2
GR  .GAPI                    :   3
ILD .OHMM                    :   4
ILM .OHMM                    :   5
SFL .OHMM                    :   6
DT  .US/F                    :   7
CALI.IN                      :   8
KSCI.                        :   9
PSCI.                        :  10
OSCI.                        :  11
WSCI.                        :  12
GR  .GAPI                    :  13
RHOB.G/C3                    :  14
NPHI.PU-S                    :  15
DRHO.G/C3                    :  16
SBL .MV                      :  17
GRS .GAPI                    :  18
RD  .OHMM                    :  19
RM  .OHMM                    :  20
RS  .OHMM                    :  21
R0BS.G/C3                    :  22
DRHS.G/C3                    :  23
GRS .GAPI                    :  24
NPHS.PU-S                    :  25
DTS .US/F                    :  26
CALS.IN                      :  27
SFLC.OHMM                    :  28
ILMC.OHMM                    :  29
ILDC.OHMM                    :  30
R0BC.G/C3                    :  31
GRC .GAPI                    :  32
NPHC.PU-S                    :  33
~A
# ...
  1467.000 
 -47.078  82.923  14.106  14.236  10.903  142.14  9.5500 -999.25 -999.25 
 -999.25 -999.25 -999.25 -999.25 -999.25 -999.25 -23.078  82.923  14.106 
  14.236  10.903 -999.25 -999.25 -999.25 -999.25  133.07  9.6100  11.618 
  14.494  14.063 -999.25 -999.25 -999.25 
  1467.500 
 -47.080  82.922  13.972  14.102  10.701  142.14  9.5490 -999.25 -999.25 
 -999.25 -999.25 -999.25 -999.25 -999.25 -999.25 -23.080  82.922  13.972 
  14.102  10.701 -999.25 -999.25 -999.25 -999.25  135.43  9.6052  11.404 
  14.354  13.930 -999.25 -999.25 -999.25 
  1468.000 
 -47.082  84.106  13.463  13.588  10.698  142.74  9.5490 -999.25 -999.25 
 -999.25 -999.25 -999.25 -999.25 -999.25 -999.25 -23.082  84.106  13.463 
  13.588  10.698 -999.25 -999.25 -999.25 -999.25  138.01  9.5680  11.388 
  13.814  13.423 -999.25 -999.25 -999.25 
  1468.500 
 -47.281  85.887  12.974  13.094  10.597  143.95  9.5490 -999.25 -999.25 
 -999.25 -999.25 -999.25 -999.25 -999.25 -999.25 -23.281  85.887  12.974 
  13.094  10.597 -999.25 -999.25 -999.25 -999.25  142.14  9.5499  11.275 
  13.301  12.937 -999.25 -999.25 -999.25 
  1469.000 
 -47.085  88.063  12.851  12.502  10.306  144.95  9.5690 -999.25 -999.25 
 -999.25 -999.25 -999.25 -999.25 -999.25 -999.25 -23.085  88.063  12.851 
  12.502  10.306 -999.25 -999.25 -999.25 -999.25  142.18  9.5490  10.968 
  12.690  12.814 -999.25 -999.25 -999.25 
  1469.500 
 -46.295  90.239  12.614  11.612  10.209  145.75  9.6080 -999.25 -999.25 
 -999.25 -999.25 -999.25 -999.25 -999.25 -999.25 -22.295  90.239  12.614 
  11.612  10.209 -999.25 -999.25 -999.25 -999.25  142.80  9.5490  10.866 
  11.774  12.579 -999.25 -999.25 -999.25 
  1470.000 
 -44.911  90.633  12.844  11.189  8.4140  145.75  9.6280 -999.25 -999.25 
 -999.25 -999.25 -999.25 -999.25 -999.25 -999.25 -20.911  90.633  12.844 
  11.189  8.4140 -999.25 -999.25 -999.25 -999.25  143.98  9.5496  8.9726 
  11.340  12.807 -999.25 -999.25 -999.25 
  1470.500 
 -43.329  90.829  12.841  11.447  7.1280  144.15  9.6470 -999.25 -999.25 
 -999.25 -999.25 -999.25 -999.25 -999.25 -999.25 -19.329  90.829  12.841 
  11.447  7.1280 -999.25 -999.25 -999.25 -999.25  144.96  9.5695  7.6183 
  11.607  12.805 -999.25 -999.25 -999.25 
  1471.000 
 -41.747  92.213  13.076  11.710  7.4620  137.97  9.7060 -999.25 -999.25 
 -999.25 -999.25 -999.25 -999.25 -999.25 -999.25 -17.747  92.213  13.076 
  11.710  7.4620 -999.25 -999.25 -999.25 -999.25  145.75  9.6085  7.9800 
  11.884  13.039 -999.25 -999.25 -999.25 
  1471.500 
 -41.749  92.212  13.193  12.834  8.2540  137.57  9.7260 -999.25 -999.25 
 -999.25 -999.25 -999.25 -999.25 -999.25 -999.25 -17.749  92.212  13.193 
  12.834  8.2540 -999.25 -999.25 -999.25 -999.25  145.67  9.6289  8.8233 
  13.046  13.156 -999.25 -999.25 -999.25 
  1472.000 
 -43.533  91.616  13.311  13.683  9.7370  136.37  9.7260 -999.25 -999.25 
 -999.25 -999.25 -999.25 -999.25 -999.25 -999.25 -19.533  91.616  13.311 
  13.683  9.7370 -999.25 -999.25 -999.25 -999.25  143.71  9.6512  10.399 
  13.929  13.273 -999.25 -999.25 -999.25 
  1472.500 
 -45.713  88.247  13.430  14.589  10.970  135.38  9.6860 -999.25 -999.25 
 -999.25 -999.25 -999.25 -999.25 -999.25 -999.25 -21.713  88.247  13.430 
  14.589  10.970 -999.25 -999.25 -999.25 -999.25  137.93  9.7079  11.724 
  14.882  13.393 -999.25 -999.25 -999.25 
  1473.000 
 -47.893  85.473  13.550  14.993  11.274  133.38  9.6460 -999.25 -999.25 
 -999.25 -999.25 -999.25 -999.25 -999.25 -999.25 -23.893  85.473  13.550 
  14.993  11.274 -999.25 -999.25 -999.25 -999.25  137.43  9.7260  12.051 
  15.307  13.512 -999.25 -999.25 -999.25 
  1473.500 
 -47.896  79.927  13.798  15.128  11.168  131.59  9.6860 -999.25 -999.25 
 -999.25 -999.25 -999.25 -999.25 -999.25 -999.25 -23.896  79.927  13.798 
  15.128  11.168 -999.25 -999.25 -999.25 -999.25  136.23  9.7203  11.937 
  15.447  13.759 -999.25 -999.25 -999.25 
  1474.000 
 -47.897  77.350  14.180  15.263  10.861  129.99  9.7250 -999.25 -999.25 
 -999.25 -999.25 -999.25 -999.25 -999.25 -999.25 -23.897  77.350  14.180 
  15.263  10.861 -999.25 -999.25 -999.25 -999.25  135.05  9.6794  11.598 
  15.577  14.138 -999.25 -999.25 -999.25 
  1474.500 
 -47.898  75.764  14.707  14.843  10.660  128.40  9.7450 -999.25 -999.25 
 -999.25 -999.25 -999.25 -999.25 -999.25 -999.25 -23.898  75.764  14.707 
  14.843  10.660 -999.25 -999.25 -999.25 -999.25  133.04  9.6536  11.377 
  15.134  14.661 -999.25 -999.25 -999.25 
  1475.000 
 -47.901  74.376  14.840  14.436  10.560  128.00  9.7250 -999.25 -999.25 
 -999.25 -999.25 -999.25 -999.25 -999.25 -999.25 -23.901  74.376  14.840 
  14.436  10.560 -999.25 -999.25 -999.25 -999.25  131.25  9.6943  11.284 
  14.720  14.794 -999.25 -999.25 -999.25 
  1475.500 
 -47.507  74.968  14.973  13.532  10.753  128.21  9.7050 -999.25 -999.25 
 -999.25 -999.25 -999.25 -999.25 -999.25 -999.25 -23.507  74.968  14.973 
  13.532  10.753 -999.25 -999.25 -999.25 -999.25  129.62  9.7297  11.501 
  13.788  14.927 -999.25 -999.25 -999.25 
  1476.000 
 -47.311  75.956  14.831  12.920  10.949  129.81  9.6850 -999.25 -999.25 
 -999.25 -999.25 -999.25 -999.25 -999.25 -999.25 -23.311  75.956  14.831 
  12.920  10.949 -999.25 -999.25 -999.25 -999.25  128.30  9.7398  11.712 
  13.155  14.786 -999.25 -999.25 -999.25 
  1476.500 
 -46.917  75.954  14.556  12.111  11.047  131.01  9.6450 -999.25 -999.25 
 -999.25 -999.25 -999.25 -999.25 -999.25 -999.25 -22.917  75.954  14.556 
  12.111  11.047 -999.25 -999.25 -999.25 -999.25  128.06  9.7193  11.809 
  12.314  14.512 -999.25 -999.25 -999.25 
  1477.000 
 -46.523  76.150  14.420  11.564  10.843  133.80  9.6250 -999.25 -999.25 
 -999.25 -999.25 -999.25 -999.25 -999.25 -999.25 -22.523  76.150  14.420 
  11.564  10.843 -999.25 -999.25 -999.25 -999.25  128.70  9.6988  11.586 
  11.746  14.377 -999.25 -999.25 -999.25 
  1477.500 
 -45.139  76.940  13.642  10.448  10.448  135.80  9.6450 -999.25 -999.25 
 -999.25 -999.25 -999.25 -999.25 -999.25 -999.25 -21.139  76.940  13.642 
  10.448  10.448 -999.25 -999.25 -999.25 -999.25  130.20  9.6717  11.158 
  10.593  13.603 -999.25 -999.25 -999.25 
  1478.000 
 -41.181  79.314  12.671  10.350  9.9760  137.80  9.6640 -999.25 -999.25 
 -999.25 -999.25 -999.25 -999.25 -999.25 -999.25 -17.181  79.314  12.671 
  10.350  9.9760 -999.25 -999.25 -999.25 -999.25  132.00  9.6379  10.648 
  10.489  12.637 -999.25 -999.25 -999.25 
  1478.500 
 -38.014  80.897  11.877  9.8820  8.8500  137.41  9.7830 -999.25 -999.25 
 -999.25 -999.25 -999.25 -999.25 -999.25 -999.25 -14.014  80.897  11.877 
  9.8820  8.8500 -999.25 -999.25 -999.25 -999.25  134.56  9.6326  9.4551 
  10.008  11.847 -999.25 -999.25 -999.25 
  1479.000 
 -36.234  84.657  11.134  9.9710  6.4120  136.31  9.8820 -999.25 -999.25 
 -999.25 -999.25 -999.25 -999.25 -999.25 -999.25 -12.234  84.657  11.134 
  9.9710  6.4120 -999.25 -999.25 -999.25 -999.25  136.61  9.6527  6.8755 
  10.101  11.108 -999.25 -999.25 -999.25 
  1479.500 
 -35.840  86.239  10.828  10.247  6.3520  135.21  9.9410 -999.25 -999.25 
 -999.25 -999.25 -999.25 -999.25 -999.25 -999.25 -11.840  86.239  10.828 
  10.247  6.3520 -999.25 -999.25 -999.25 -999.25  137.63  9.7149  6.8229 
  10.392  10.804 -999.25 -999.25 -999.25 
  1480.000 
 -37.228  85.247  10.726  10.825  6.8980  132.22  9.9800 -999.25 -999.25 
 -999.25 -999.25 -999.25 -999.25 -999.25 -999.25 -13.228  85.247  10.726 
  10.825  6.8980 -999.25 -999.25 -999.25 -999.25  136.91  9.8277  7.4258 
  11.001  10.703 -999.25 -999.25 -999.25 
  1480.500 
 -41.589  83.658  10.824  11.127  7.3220  131.03  10.019 -999.25 -999.25 
 -999.25 -999.25 -999.25 -999.25 -999.25 -999.25 -17.589  83.658  10.824 
  11.127  7.3220 -999.25 -999.25 -999.25 -999.25  135.79  9.9100  7.8958 
  11.323  10.802 -999.25 -999.25 -999.25 
  1481.000 
 -45.753  80.682  10.923  11.649  7.7730  131.63  10.038 -999.25 -999.25 
 -999.25 -999.25 -999.25 -999.25 -999.25 -999.25 -21.753  80.682  10.923 
  11.649  7.7730 -999.25 -999.25 -999.25 -999.25  133.72  9.9604  8.3899 
  11.872  10.901 -999.25 -999.25 -999.25 
