~Version Information
VERS.                     2.0: CWLS log ASCII Standard Version 2.00
WRAP.                     YES: Multiple lines per depth step
~Well Information Block
#MNEM.UNIT                               Data Type  Information
#---------                               ---------  -----------
STRT.FT                                   805.0000:
STOP.FT                                  5010.0000:
STEP.FT                                     0.5000:
NULL.                 -999.25                     :
COMP.                                             :COMPANY            
WELL.     SANTIAGO C 55-28                        :WELL               
FLD .                                             :FIELD              
CTRY.                                             :COUNTRY            
STAT.                                             :STATE              
LOC .                                             :LOCATION           
UWI .                                             :UNIQUE WELL ID     
SRVC.                                             :Service company    
DATE.                                             :LOG DATE           
~Curve Information
#MNEM.UNIT           API CODE  Curve Description
#---------           --------  -----------------
DEPT.FT                      :   1 DEPTH
CALI.IN                      :   2
GR  .GAPI                    :   3
NPHI.PU-S                    :   4
DPHI.PU-S                    :   5
DRHO.G/C3                    :   6
SP  .MV                      :   7
ILD .OHMM                    :   8
ILM .OHMM                    :   9
SFLU.OHMM                    :  10
LLD .OHMM                    :  11
LLS .OHMM                    :  12
MSFL.OHMM                    :  13
DT  .US/F                    :  14
SPHI.                        :  15
KSCI.                        :  16
PSCI.                        :  17
OSCI.                        :  18
WSCI.                        :  19
KWCI.                        :  20
PWCI.                        :  21
OWCI.                        :  22
WWCI.                        :  23
SBL .MV                      :  24
RS  .OHMM                    :  25
RM  .OHMM                    :  26
RD  .OHMM                    :  27
DTS .US/F                    :  28
RHOB.G/C3                    :  29
ROBS.G/C3                    :  30
DROS.G/C3                    :  31
CALS.IN                      :  32
GRS .GAPI                    :  33
NPHS.PU-S                    :  34
SFLU.OHMM                    :  35
ILMC.OHMM                    :  36
ILDC.OHMM                    :  37
ROBC.G/C3                    :  38
GRC .GAPI                    :  39
NPHC.PU-S                    :  40
~A
# ...
  3181.000 
  17.579  56.587  0.4970  0.4660 -0.0090 -20.370 -999.25 -999.25 -999.25 
  2.6940  2.0060  2.7290  140.56 -999.25 -999.25 -999.25 -999.25 -999.25 
 -999.25 -999.25 -999.25 -999.25 -7.5767  2.7290  2.0060  2.6940  129.93 
  1.8811  1.8799 -0.0083  17.270  56.813  0.5033  2.7290  2.0060  2.6940 
  1.8799  56.813  0.5033 
  3181.500 
  17.156  56.337  0.5000  0.4670 -0.0080 -19.725 -999.25 -999.25 -999.25 
  2.7110  2.0040  2.7720  133.96 -999.25 -999.25 -999.25 -999.25 -999.25 
 -999.25 -999.25 -999.25 -999.25 -6.9365  2.7720  2.0040  2.7110  132.95 
  1.8795  1.8904 -0.0065  17.188  56.461  0.4978  2.7720  2.0040  2.7110 
  1.8904  56.461  0.4978 
  3182.000 
  17.199  58.232  0.5050  0.4580 -0.0060 -19.240 -999.25 -999.25 -999.25 
  2.7080  2.0270  2.9430  131.93 -999.25 -999.25 -999.25 -999.25 -999.25 
 -999.25 -999.25 -999.25 -999.25 -6.4563  2.9430  2.0270  2.7080  130.68 
  1.8943  1.9042 -0.0045  17.249  57.502  0.4650  2.9430  2.0270  2.7080 
  1.9042  57.502  0.4650 
  3182.500 
  17.266  59.415  0.4940  0.4500 -0.0040 -19.072 -999.25 -999.25 -999.25 
  2.7100  2.0590  2.5980  131.68 -999.25 -999.25 -999.25 -999.25 -999.25 
 -999.25 -999.25 -999.25 -999.25 -6.2932  2.5980  2.0590  2.7100  123.75 
  1.9075  1.9200 -0.0025  17.335  58.872  0.4427  2.5980  2.0590  2.7100 
  1.9200  58.872  0.4427 
  3183.000 
  17.357  59.701  0.4500  0.4400 -0.0020 -18.865 -999.25 -999.25 -999.25 
  2.7270  2.0720  2.5010  133.30 -999.25 -999.25 -999.25 -999.25 -999.25 
 -999.25 -999.25 -999.25 -999.25 -6.0910  2.5010  2.0720  2.7270  122.14 
  1.9240  1.9468 -0.0005  17.475  59.540  0.4410  2.5010  2.0720  2.7270 
  1.9468  59.540  0.4410 
  3183.500 
  17.511  56.706  0.4390  0.4220  0.0000 -19.057 -999.25 -999.25 -999.25 
  2.7090  2.0540  2.8630  140.13 -999.25 -999.25 -999.25 -999.25 -999.25 
 -999.25 -999.25 -999.25 -999.25 -6.2878  2.8630  2.0540  2.7090  125.81 
  1.9537  1.9408  0.0023  17.591  57.804  0.4613  2.8630  2.0540  2.7090 
  1.9408  57.804  0.4613 
  3184.000 
  17.614  52.579  0.4420  0.4320  0.0030 -19.446 -999.25 -999.25 -999.25 
  2.6570  2.0220  3.0060  144.38 -999.25 -999.25 -999.25 -999.25 -999.25 
 -999.25 -999.25 -999.25 -999.25 -6.6816  3.0060  2.0220  2.6570  130.85 
  1.9372  1.9099  0.0046  17.686  54.207  0.4870  3.0060  2.0220  2.6570 
  1.9099  54.207  0.4870 
  3184.500 
  17.705  50.181  0.4710  0.4530  0.0050 -19.677 -999.25 -999.25 -999.25 
  2.6100  1.9940  2.5670  146.08 -999.25 -999.25 -999.25 -999.25 -999.25 
 -999.25 -999.25 -999.25 -999.25 -6.9174  2.5670  1.9940  2.6100  134.78 
  1.9026  1.8340  0.0002  17.361  51.205  0.5165  2.5670  1.9940  2.6100 
  1.8340  51.205  0.5165 
  3185.000 
  17.274  49.691  0.4950  0.5050 -0.0010 -19.788 -999.25 -999.25 -999.25 
  2.6070  1.9730  2.5320  143.72 -999.25 -999.25 -999.25 -999.25 -999.25 
 -999.25 -999.25 -999.25 -999.25 -7.0332  2.5320  1.9730  2.6070  139.58 
  1.8168  1.7874 -0.0059  16.939  49.957  0.5230  2.5320  1.9730  2.6070 
  1.7874  49.957  0.5230 
  3185.500 
  16.860  50.991  0.5270  0.5270 -0.0070 -19.821 -999.25 -999.25 -999.25 
  2.6290  1.9500  2.6480  142.91 -999.25 -999.25 -999.25 -999.25 -999.25 
 -999.25 -999.25 -999.25 -999.25 -7.0710  2.6480  1.9500  2.6290  141.01 
  1.7805  1.7777 -0.0160  17.393  50.563  0.5169  2.6480  1.9500  2.6290 
  1.7777  50.563  0.5169 
  3186.000 
  17.511  51.159  0.5210  0.5290 -0.0180 -19.892 -999.25 -999.25 -999.25 
  2.6300  1.9470  2.9280  142.54 -999.25 -999.25 -999.25 -999.25 -999.25 
 -999.25 -999.25 -999.25 -999.25 -7.1468  2.9280  1.9470  2.6300  140.62 
  1.7772  1.7635 -0.0238  17.933  51.055  0.5184  2.9280  1.9470  2.6300 
  1.7635  51.055  0.5184 
  3186.500 
  18.021  48.582  0.5150  0.5390 -0.0250 -19.885 -999.25 -999.25 -999.25 
  2.6280  1.9560  2.8550  142.63 -999.25 -999.25 -999.25 -999.25 -999.25 
 -999.25 -999.25 -999.25 -999.25 -7.1446  2.8550  1.9560  2.6280  141.26 
  1.7607  1.7468 -0.0283  18.411  49.425  0.5241  2.8550  1.9560  2.6280 
  1.7468  49.425  0.5241 
  3187.000 
  18.486  46.302  0.5200  0.5490 -0.0290 -19.996 -999.25 -999.25 -999.25 
  2.6200  1.9570  2.6200  142.68 -999.25 -999.25 -999.25 -999.25 -999.25 
 -999.25 -999.25 -999.25 -999.25 -7.2604  2.6200  1.9570  2.6200  141.63 
  1.7442  1.7190 -0.0332  19.511  47.123  0.5096  2.6200  1.9570  2.6200 
  1.7190  47.123  0.5096 
  3187.500 
  19.694  44.560  0.5260  0.5670 -0.0340 -19.868 -999.25 -999.25 -999.25 
  2.6220  1.9520  2.4850  141.69 -999.25 -999.25 -999.25 -999.25 -999.25 
 -999.25 -999.25 -999.25 -999.25 -7.1372  2.4850  1.9520  2.6220  138.64 
  1.7145  1.7060 -0.0374  19.969  45.182  0.4910  2.4850  1.9520  2.6220 
  1.7060  45.182  0.4910 
  3188.000 
  20.015  46.516  0.5020  0.5730 -0.0380 -19.383 -999.25 -999.25 -999.25 
  2.6480  1.9530  2.5570  138.13 -999.25 -999.25 -999.25 -999.25 -999.25 
 -999.25 -999.25 -999.25 -999.25 -6.6570  2.5570  1.9530  2.6480  133.36 
  1.7046  1.7375 -0.0328  20.029  45.963  0.4812  2.5570  1.9530  2.6480 
  1.7375  45.963  0.4812 
  3188.500 
  20.031  49.071  0.4860  0.5500 -0.0320 -19.016 -999.25 -999.25 -999.25 
  2.6600  1.9580  2.4210  133.85 -999.25 -999.25 -999.25 -999.25 -999.25 
 -999.25 -999.25 -999.25 -999.25 -6.2948  2.4210  1.9580  2.6600  131.86 
  1.7425  1.8149 -0.0285  18.791  48.243  0.4762  2.4210  1.9580  2.6600 
  1.8149  48.243  0.4762 
  3189.000 
  18.618  50.789  0.4790  0.5000 -0.0280 -18.969 -999.25 -999.25 -999.25 
  2.6470  1.9710  2.5700  132.89 -999.25 -999.25 -999.25 -999.25 -999.25 
 -999.25 -999.25 -999.25 -999.25 -6.2527  2.5700  1.9710  2.6470  132.17 
  1.8250  1.8514 -0.0245  18.448  50.214  0.4785  2.5700  1.9710  2.6470 
  1.8514  50.214  0.4785 
  3189.500 
  18.426  51.732  0.4750  0.4820 -0.0240 -19.001 -999.25 -999.25 -999.25 
  2.6150  1.9650  2.6830  132.60 -999.25 -999.25 -999.25 -999.25 -999.25 
 -999.25 -999.25 -999.25 -999.25 -6.2895  2.6830  1.9650  2.6150  135.39 
  1.8547  1.8621 -0.0231  19.350  51.417  0.4918  2.6830  1.9650  2.6150 
  1.8621  51.417  0.4918 
  3190.000 
  19.456  51.719  0.4800  0.4770 -0.0230 -18.833 -999.25 -999.25 -999.25 
  2.5930  1.9590  2.8800  134.38 -999.25 -999.25 -999.25 -999.25 -999.25 
 -999.25 -999.25 -999.25 -999.25 -6.1263  2.8800  1.9590  2.5930  141.44 
  1.8630  1.8450 -0.0266  20.253  51.701  0.5054  2.8800  1.9590  2.5930 
  1.8450  51.701  0.5054 
  3190.500 
  20.334  50.992  0.4970  0.4890 -0.0270 -18.547 -999.25 -999.25 -999.25 
  2.6020  1.9590  2.8640  138.47 -999.25 -999.25 -999.25 -999.25 -999.25 
 -999.25 -999.25 -999.25 -999.25 -5.8451  2.8640  1.9590  2.6020  144.91 
  1.8432  1.8174 -0.0298  20.628  51.193  0.5174  2.8640  1.9590  2.6020 
  1.8174  51.193  0.5174 
  3191.000 
  20.655  50.622  0.5090  0.5060 -0.0300 -18.346 -999.25 -999.25 -999.25 
  2.5880  1.9620  3.0100  142.15 -999.25 -999.25 -999.25 -999.25 -999.25 
 -999.25 -999.25 -999.25 -999.25 -5.6489  3.0100  1.9620  2.5880  145.34 
  1.8151  1.8227 -0.0309  20.779  50.736  0.5175  3.0100  1.9620  2.5880 
  1.8227  50.736  0.5175 
  3191.500 
  20.789  51.326  0.5210  0.5010 -0.0310 -18.543 -999.25 -999.25 -999.25 
  2.5780  1.9620  2.9660  142.77 -999.25 -999.25 -999.25 -999.25 -999.25 
 -999.25 -999.25 -999.25 -999.25 -5.8507  2.9660  1.9620  2.5780  143.46 
  1.8234  1.8744 -0.0291  20.722  51.147  0.5097  2.9660  1.9620  2.5780 
  1.8744  51.147  0.5097 
  3192.000 
  20.717  56.146  0.5160  0.4680 -0.0290 -18.382 -999.25 -999.25 -999.25 
  2.5780  1.9580  2.8850  138.28 -999.25 -999.25 -999.25 -999.25 -999.25 
 -999.25 -999.25 -999.25 -999.25 -5.6945  2.8850  1.9580  2.5780  142.79 
  1.8778  1.9137 -0.0233  20.110  54.898  0.5035  2.8850  1.9580  2.5780 
  1.9137  54.898  0.5035 
  3192.500 
  20.076  58.997  0.5070  0.4450 -0.0230 -17.941 -999.25 -999.25 -999.25 
  2.5820  1.9550  2.8950  132.73 -999.25 -999.25 -999.25 -999.25 -999.25 
 -999.25 -999.25 -999.25 -999.25 -5.2583  2.8950  1.9550  2.5820  142.57 
  1.9158  1.9726 -0.0144  18.068  58.220  0.4914  2.8950  1.9550  2.5820 
  1.9726  58.220  0.4914 
