~Version Information
VERS.                     2.0: CWLS log ASCII Standard Version 2.00
WRAP.                      NO: One line per depth step
~Well Information Block
#MNEM.UNIT                               Data Type  Information
#---------                               ---------  -----------
STRT.FT                                    90.0000:
STOP.FT                                  2000.0000:
STEP.FT                                     0.5000:
NULL.                 -999.25                     :
COMP.                                             :COMPANY            
WELL.     LL 76-30 OR MUDDY CREEK 76-30           :WELL               
FLD .                                             :FIELD              
CTRY.                                             :COUNTRY            
STAT.                                             :STATE              
LOC .                                             :LOCATION           
UWI .                                             :UNIQUE WELL ID     
SRVC.                                             :Service company    
DATE.                                             :LOG DATE           
~Curve Information
#MNEM.UNIT           API CODE  Curve Description
#---------           --------  -----------------
DEPT.FT                      :   1 DEPTH
GR  .GAPI                    :   2
CALI.IN                      :   3
DPHI.PU-S                    :   4
NPHI.PU-S                    :   5
DRHO.G/C3                    :   6
SP  .MV                      :   7
ILD .OHMM                    :   8
ILM .OHMM                    :   9
SFLU.OHMM                    :  10
DT  .US/F                    :  11
RHOB.G/C3                    :  12
ROBS.G/C3                    :  13
CALS.IN                      :  14
DRHS.G/C3                    :  15
GRS .GAPI                    :  16
NPHS.PU-S                    :  17
DTS .US/F                    :  18
SBL .MV                      :  19
RD  .OHMM                    :  20
RM  .OHMM                    :  21
RS  .OHMM                    :  22
SFLU.OHMM                    :  23
ILMC.OHMM                    :  24
ILDC.OHMM                    :  25
ROBC.G/C3                    :  26
GRC .GAPI                    :  27
NPHC.PU-S                    :  28
~A
# ...
  1368.000  48.433  6.8200  0.4820  0.3770 -0.0040 -999.25  4.3830  4.5050 -999.25  115.38  1.8547  1.8494  6.8181 -0.0038  47.558  0.3635  118.46 -999.25  4.3830  4.5050 -999.25 -999.25  4.5050  4.3830  1.8494  43.039  0.3235 
  1368.500  52.429  6.8210  0.4740  0.3580 -0.0040 -999.25  4.2640  4.3840 -999.25  114.98  1.8679  1.8656  6.8208 -0.0040  51.741  0.3580  118.21 -999.25  4.2640  4.3840 -999.25 -999.25  4.3840  4.2640  1.8656  46.830  0.3176 
  1369.000  54.831  6.8320  0.4720  0.3580 -0.0030 -999.25  4.2260  4.3440 -999.25  115.18  1.8712  1.8707  6.8303 -0.0032  54.462  0.3697  117.07 -999.25  4.2260  4.3440 -999.25 -999.25  4.3440  4.2260  1.8707  49.312  0.3301 
  1369.500  55.636  6.8420  0.4740  0.3730 -0.0030 -999.25  4.2260  4.3050 -999.25  116.77  1.8679  1.8683  6.8406 -0.0030  55.527  0.3730  115.30 -999.25  4.2260  4.3050 -999.25 -999.25  4.3050  4.2260  1.8683  50.297  0.3336 
  1370.000  55.644  6.8440  0.4800  0.3730 -0.0020 -999.25  4.1500  4.3050 -999.25  117.17  1.8580  1.8592  6.8438 -0.0021  55.643  0.3620  115.02 -999.25  4.1500  4.3050 -999.25 -999.25  4.3050  4.1500  1.8592  50.408  0.3219 
  1370.500  55.054  6.8340  0.4980  0.3600  0.0000 -999.25  4.0750  4.2270 -999.25  117.37  1.8283  1.8312  6.8350 -0.0002  55.112  0.3538  115.53 -999.25  4.0750  4.2270 -999.25 -999.25  4.2270  4.0750  1.8312  49.910  0.3131 
  1371.000  52.869  6.8250  0.5000  0.3530  0.0000 -999.25  3.9640  4.1130 -999.25  117.07  1.8250  1.8253  6.8257  0.0000  53.044  0.3503  116.86 -999.25  3.9640  4.1130 -999.25 -999.25  4.1130  3.9640  1.8253  48.019  0.3093 
  1371.500  50.683  6.8260  0.5010  0.3500  0.0000 -999.25  3.9290  3.9650 -999.25  115.96  1.8234  1.8235  6.8259  0.0000  50.818  0.3491  117.22 -999.25  3.9290  3.9650 -999.25 -999.25  3.9650  3.9290  1.8235  46.004  0.3080 
  1372.000  49.894  6.8470  0.4970  0.3490  0.0010 -999.25  3.8930  3.9650 -999.25  112.97  1.8300  1.8297  6.8461  0.0010  49.928  0.3490  117.29 -999.25  3.8930  3.9650 -999.25 -999.25  3.9650  3.8930  1.8297  45.235  0.3079 
  1372.500  50.300  6.8480  0.4950  0.3490  0.0020 -999.25  3.9290  4.0020 -999.25  109.37  1.8333  1.8332  6.8480  0.0020  50.290  0.3572  116.79 -999.25  3.9290  4.0020 -999.25 -999.25  4.0020  3.9290  1.8332  45.567  0.3167 
  1373.000  51.106  6.8680  0.4980  0.3570  0.0020 -999.25  3.9660  4.1140 -999.25  108.77  1.8283  1.8283  6.8679  0.0020  51.101  0.3721  115.19 -999.25  3.9660  4.1140 -999.25 -999.25  4.1140  3.9660  1.8283  46.338  0.3327 
  1373.500  51.114  6.8690  0.5040  0.3720  0.0020 -999.25  4.0030  4.1140 -999.25  109.77  1.8184  1.8184  6.8693  0.0020  51.097  0.3732  112.00 -999.25  4.0030  4.1140 -999.25 -999.25  4.1140  4.0030  1.8184  46.338  0.3338 
  1374.000  49.726  6.8900  0.5060  0.3740  0.0040 -999.25  3.9670  4.1150 -999.25  111.36  1.8151  1.8149  6.8900  0.0040  49.593  0.3625  109.20 -999.25  3.9670  4.1150 -999.25 -999.25  4.1150  3.9670  1.8149  45.011  0.3224 
  1374.500  45.347  6.8910  0.5090  0.3640  0.0040 -999.25  3.8590  3.8950 -999.25  113.06  1.8102  1.8099  6.8920  0.0042  45.260  0.3485  109.05 -999.25  3.8590  3.8950 -999.25 -999.25  3.8950  3.8590  1.8099  41.082  0.3073 
  1375.000  43.561  6.9110  0.5120  0.3510  0.0080 -999.25  3.7200  3.6530 -999.25  116.75  1.8052  1.8043  6.9124  0.0081  43.602  0.3340  110.23 -999.25  3.7200  3.6530 -999.25 -999.25  3.6530  3.7200  1.8043  39.609  0.2891 
  1375.500  44.167  6.9320  0.5200  0.3340  0.0100 -999.25  3.5540  3.3940 -999.25  119.34  1.7920  1.7904  6.9338  0.0098  44.304  0.3414  111.87 -999.25  3.5540  3.3940 -999.25 -999.25  3.3940  3.5540  1.7904  40.281  0.2968 
  1376.000  45.770  6.9530  0.5310  0.3340  0.0080 -999.25  3.5540  3.1840 -999.25  120.64  1.7739  1.7740  6.9552  0.0075  45.792  0.3683  114.20 -999.25  3.5540  3.1840 -999.25 -999.25  3.1840  3.5540  1.7740  41.669  0.3286 
  1376.500  45.977  6.9740  0.5300  0.3680  0.0030 -999.25  3.5540  3.1260 -999.25  121.74  1.7755  1.7765  6.9740  0.0039  45.710  0.3687  117.57 -999.25  3.5540  3.1260 -999.25 -999.25  3.1260  3.5540  1.7765  41.626  0.3291 
  1377.000  43.792  6.9740  0.5250  0.3690  0.0100 -999.25  3.5550  3.1840 -999.25  122.83  1.7838  1.7868  6.9798  0.0115  43.513  0.3696  119.77 -999.25  3.5550  3.1840 -999.25 -999.25  3.1840  3.5550  1.7868  39.634  0.3300 
  1377.500  41.806  7.0150  0.5120  0.3680  0.0210 -999.25  3.5550  3.3960 -999.25  124.13  1.8052  1.8052  7.0215  0.0215  41.998  0.3797  121.00 -999.25  3.5550  3.3960 -999.25 -999.25  3.3960  3.5550  1.8052  38.318  0.3408 
  1378.000  43.010  7.0560  0.5120  0.3730  0.0240 -999.25  3.5550  3.5560 -999.25  127.82  1.8052  1.8043  7.0667  0.0233  43.649  0.4009  122.11 -999.25  3.5550  3.5560 -999.25 -999.25  3.5560  3.5550  1.8043  39.896  0.3636 
  1378.500  46.607  7.1160  0.5150  0.3920  0.0200 -999.25  3.5560  3.6220 -999.25  129.02  1.8003  1.7983  7.1240  0.0192  47.741  0.4213  123.29 -999.25  3.5560  3.6220 -999.25 -999.25  3.6220  3.5560  1.7983  43.736  0.3855 
  1379.000  52.397  7.1570  0.5210  0.4150  0.0160 -999.25  3.5560  3.5890 -999.25  128.82  1.7904  1.7886  7.1615  0.0151  52.570  0.4309  125.45 -999.25  3.5560  3.5890 -999.25 -999.25  3.5890  3.5560  1.7886  48.230  0.3958 
  1379.500  53.203  7.1780  0.5260  0.4300  0.0120 -999.25  3.5890  3.4920 -999.25  127.71  1.7821  1.7821  7.1643  0.0108  53.298  0.4291  128.26 -999.25  3.5890  3.4920 -999.25 -999.25  3.4920  3.5890  1.7821  48.903  0.3938 
  1380.000  53.610  7.1190  0.5260  0.4320  0.0070 -999.25  3.6900  3.3050 -999.25  123.72  1.7821  1.7825  7.1042  0.0065  53.712  0.4250  128.94 -999.25  3.6900  3.3050 -999.25 -999.25  3.3050  3.6900  1.7825  49.167  0.3894 
  1380.500  54.016  7.0600  0.5250  0.4260  0.0050 -999.25  3.7240  3.3670 -999.25  121.12  1.7838  1.7860  7.0387  0.0045  54.179  0.4257  128.40 -999.25  3.7240  3.3670 -999.25 -999.25  3.3670  3.7240  1.7860  49.466  0.3902 
  1381.000  54.622  6.9810  0.5200  0.4240  0.0030 -999.25  3.7930  3.5250 -999.25  119.12  1.7920  1.7934  6.9813  0.0027  54.797  0.4270  126.16 -999.25  3.7930  3.5250 -999.25 -999.25  3.5250  3.7930  1.7934  49.916  0.3916 
  1381.500  55.229  6.9820  0.5170  0.4270  0.0020 -999.25  3.7250  3.7250 -999.25  118.62  1.7970  1.7990  6.9820  0.0017  55.170  0.4170  122.69 -999.25  3.7250  3.7250 -999.25 -999.25  3.7250  3.7250  1.7990  50.258  0.3809 
  1382.000  55.037  6.9820  0.5130  0.4270  0.0010 -999.25  3.6910  3.9720 -999.25  118.92  1.8036  1.8046  6.9823  0.0016  54.522  0.3913  120.31 -999.25  3.6910  3.9720 -999.25 -999.25  3.9720  3.6910  1.8046  49.667  0.3533 
  1382.500  53.450  6.9830  0.5110  0.4110  0.0030 -999.25  3.6920  4.0460 -999.25  120.91  1.8069  1.8063  6.9833  0.0033  53.042  0.3748  118.91 -999.25  3.6920  4.0460 -999.25 -999.25  4.0460  3.6920  1.8063  48.321  0.3356 
  1383.000  52.261  6.9840  0.5120  0.3810  0.0040 -999.25  3.7260  4.0100 -999.25  121.61  1.8052  1.8040  6.9771  0.0051  51.903  0.3756  118.75 -999.25  3.7260  4.0100 -999.25 -999.25  4.0100  3.7260  1.8040  47.273  0.3365 
  1383.500  51.272  6.9650  0.5140  0.3720  0.0070 -999.25  4.2370  4.0470 -999.25  121.61  1.8019  1.8032  6.9502  0.0074  51.048  0.3891  119.78 -999.25  4.2370  4.0470 -999.25 -999.25  4.0470  4.2370  1.8032  46.443  0.3510 
  1384.000  50.682  6.9260  0.5120  0.3770  0.0080 -999.25  4.4770  4.6450 -999.25  120.91  1.8052  1.8098  6.9738  0.0080  50.844  0.4017  121.22 -999.25  4.4770  4.6450 -999.25 -999.25  4.6450  4.4770  1.8098  46.302  0.3644 
  1384.500  51.089  7.0460  0.5050  0.3930  0.0080 -999.25  4.6030  4.7310 -999.25  118.91  1.8168  1.8188  7.0631  0.0063  51.175  0.4057  121.61 -999.25  4.6030  4.7310 -999.25 -999.25  4.7310  4.6030  1.8188  46.769  0.3687 
  1385.000  51.296  7.0870  0.5020  0.4040  0.0040 -999.25  4.7750  4.9090 -999.25  118.81  1.8217  1.8231  7.1135  0.0031  50.953  0.4008  121.29 -999.25  4.7750  4.9090 -999.25 -999.25  4.9090  4.7750  1.8231  46.658  0.3635 
  1385.500  50.507  7.1480  0.5000  0.4060  0.0020 -999.25  5.0930  5.1400 -999.25  119.00  1.8250  1.8250  7.1661  0.0015  49.697  0.3785  119.98 -999.25  5.0930  5.1400 -999.25 -999.25  5.1400  5.0930  1.8250  45.602  0.3396 
