~Version Information
VERS.                     2.0: CWLS log ASCII Standard Version 2.00
WRAP.                      NO: One line per depth step
~Well Information Block
#MNEM.UNIT                               Data Type  Information
#---------                               ---------  -----------
STRT.FT                                    90.0000:
STOP.FT                                  2000.0000:
STEP.FT                                     0.5000:
NULL.                 -999.25                     :
COMP.                                             :COMPANY            
WELL.     LL 76-30 OR MUDDY CREEK 76-30           :WELL               
FLD .                                             :FIELD              
CTRY.                                             :COUNTRY            
STAT.                                             :STATE              
LOC .                                             :LOCATION           
UWI .                                             :UNIQUE WELL ID     
SRVC.                                             :Service company    
DATE.                                             :LOG DATE           
~Curve Information
#MNEM.UNIT           API CODE  Curve Description
#---------           --------  -----------------
DEPT.FT                      :   1 DEPTH
GR  .GAPI                    :   2
CALI.IN                      :   3
DPHI.PU-S                    :   4
NPHI.PU-S                    :   5
DRHO.G/C3                    :   6
SP  .MV                      :   7
ILD .OHMM                    :   8
ILM .OHMM                    :   9
SFLU.OHMM                    :  10
DT  .US/F                    :  11
RHOB.G/C3                    :  12
ROBS.G/C3                    :  13
CALS.IN                      :  14
DRHS.G/C3                    :  15
GRS .GAPI                    :  16
NPHS.PU-S                    :  17
DTS .US/F                    :  18
SBL .MV                      :  19
RD  .OHMM                    :  20
RM  .OHMM                    :  21
RS  .OHMM                    :  22
SFLU.OHMM                    :  23
ILMC.OHMM                    :  24
ILDC.OHMM                    :  25
ROBC.G/C3                    :  26
GRC .GAPI                    :  27
NPHC.PU-S                    :  28
~A
# ...
  1872.000  94.431  7.2790  0.4760  0.5160  0.0010 -999.25  1.5440  1.5160 -999.25  140.66  1.8646  1.8540  7.2269  0.0121  94.644  0.5176  140.66 -999.25  1.5440  1.5160 -999.25 -999.25  1.5160  1.5440  1.8540  87.053  0.4891 
  1872.500  94.639  7.2400  0.4790  0.5210  0.0080 -999.25  1.5020  1.4750 -999.25  141.85  1.8597  1.8375  7.2217  0.0147  94.512  0.5233  141.85 -999.25  1.5020  1.4750 -999.25 -999.25  1.4750  1.5020  1.8375  86.914  0.4952 
  1873.000  94.646  7.2210  0.4840  0.5280  0.0140 -999.25  1.4610  1.4340 -999.25  143.04  1.8514  1.8140  7.2788  0.0122  95.026  0.5300  143.04 -999.25  1.4610  1.4340 -999.25 -999.25  1.4340  1.4610  1.8140  87.581  0.5024 
  1873.500  94.455  7.2220  0.4960  0.5340  0.0150 -999.25  1.4340  1.4080 -999.25  144.53  1.8316  1.7902  7.3315  0.0024  96.267  0.5340  144.53 -999.25  1.4340  1.4080 -999.25 -999.25  1.4080  1.4340  1.7902  88.906  0.5067 
  1874.000  95.259  7.3020  0.5110  0.5340  0.0110 -999.25  1.4080  1.3450 -999.25  145.23  1.8069  1.7657  7.3284 -0.0032  96.665  0.5326  145.23 -999.25  1.4080  1.3450 -999.25 -999.25  1.3450  1.4080  1.7657  89.263  0.5053 
  1874.500  96.659  7.3430  0.5250  0.5300 -0.0010 -999.25  1.3950  1.3080 -999.25  145.62  1.7838  1.7541  7.3089 -0.0025  88.873  0.5290  145.62 -999.25  1.3950  1.3080 -999.25 -999.25  1.3080  1.3950  1.7541  82.005  0.5013 
  1875.000  96.667  7.3230  0.5400  0.5270 -0.0040 -999.25  1.3820  1.3080 -999.25  145.61  1.7590  1.7635  7.3047  0.0040  83.003  0.5263  145.61 -999.25  1.3820  1.3080 -999.25 -999.25  1.3080  1.3820  1.7635  76.577  0.4984 
  1875.500  86.129  7.3040  0.5440  0.5250 -0.0020 -999.25  1.3690  1.3080 -999.25  144.51  1.7524  1.7635  7.3058  0.0068  80.755  0.5232  144.51 -999.25  1.3690  1.3080 -999.25 -999.25  1.3080  1.3690  1.7635  74.506  0.4951 
  1876.000  81.958  7.3050  0.5350  0.5200  0.0060 -999.25  1.3690  1.3190 -999.25  141.71  1.7673  1.7585  7.1383  0.0055  79.921  0.5171  141.71 -999.25  1.3690  1.3190 -999.25 -999.25  1.3190  1.3690  1.7585  73.256  0.4885 
  1876.500  80.374  7.3060  0.5380  0.5120  0.0070 -999.25  1.3810  1.3310 -999.25  139.61  1.7623  1.7509  6.9493 -0.0012  79.635  0.5105  139.61 -999.25  1.3810  1.3310 -999.25 -999.25  1.3310  1.3810  1.7509  72.450  0.4814 
  1877.000  79.785  7.0880  0.5410  0.5080  0.0050 -999.25  1.3680  1.3560 -999.25  136.82  1.7574  1.7452  6.8477 -0.0022  79.599  0.5084  136.82 -999.25  1.3680  1.3560 -999.25 -999.25  1.3560  1.3680  1.7452  72.122  0.4791 
  1877.500  79.593  6.9100  0.5460  0.5090 -0.0030 -999.25  1.3800  1.3680 -999.25  135.11  1.7491  1.7560  6.7839  0.0004  79.607  0.5071  135.11 -999.25  1.3800  1.3680 -999.25 -999.25  1.3680  1.3800  1.7560  71.944  0.4777 
  1878.000  79.601  6.8310  0.5490  0.5040 -0.0020 -999.25  1.3800  1.3430 -999.25  134.21  1.7442  1.7590  6.7405  0.0026  79.133  0.4991  134.21 -999.25  1.3800  1.3430 -999.25 -999.25  1.3430  1.3800  1.7590  71.389  0.4691 
  1878.500  79.609  6.7720  0.5400  0.4910  0.0010 -999.25  1.3550  1.3300 -999.25  133.21  1.7590  1.7590  6.7174  0.0038  81.308  0.4799  133.21 -999.25  1.3550  1.3300 -999.25 -999.25  1.3300  1.3550  1.7590  73.283  0.4484 
  1879.000  79.020  6.7330  0.5400  0.4620  0.0030 -999.25  1.3300  1.3060 -999.25  133.60  1.7590  1.7535  6.7148  0.0032  84.788  0.4616  133.60 -999.25  1.3300  1.3060 -999.25 -999.25  1.3060  1.3300  1.7535  76.411  0.4287 
  1879.500  81.815  6.7140  0.5400  0.4610  0.0040 -999.25  1.3060  1.2940 -999.25  134.89  1.7590  1.7510  6.7150 -0.0004  88.246  0.4641  134.89 -999.25  1.3060  1.2940 -999.25 -999.25  1.2940  1.3060  1.7510  79.528  0.4315 
  1880.000  85.404  6.7150  0.5440  0.4690  0.0030 -999.25  1.2940  1.2580 -999.25  136.98  1.7524  1.7591  6.7158 -0.0027  90.657  0.4825  136.98 -999.25  1.2940  1.2580 -999.25 -999.25  1.2580  1.2940  1.7591  81.704  0.4512 
  1880.500  88.794  6.7150  0.5450  0.5030 -0.0010 -999.25  1.2700  1.2470 -999.25  139.37  1.7508  1.7621  6.7169 -0.0030  93.220  0.5054  139.37 -999.25  1.2700  1.2470 -999.25 -999.25  1.2470  1.2700  1.7621  84.017  0.4759 
  1881.000  90.991  6.7160  0.5390  0.5090 -0.0030 -999.25  1.2700  1.2240 -999.25  140.96  1.7607  1.7623  6.7005 -0.0021  94.198  0.5070  140.96 -999.25  1.2700  1.2240 -999.25 -999.25  1.2240  1.2700  1.7623  84.842  0.4775 
  1881.500  93.589  6.7170  0.5380  0.5040 -0.0030 -999.25  1.2580  1.2240 -999.25  141.35  1.7623  1.7695  6.6989  0.0006  94.906  0.5032  141.35 -999.25  1.2580  1.2240 -999.25 -999.25  1.2240  1.2580  1.7695  85.474  0.4735 
  1882.000  94.291  6.6980  0.5380  0.5020 -0.0020 -999.25  1.2570  1.2350 -999.25  140.64  1.7623  1.7720  6.7168  0.0046  88.290  0.5024  140.64 -999.25  1.2570  1.2350 -999.25 -999.25  1.2350  1.2570  1.7720  79.573  0.4726 
  1882.500  94.992  6.6990  0.5330  0.5030  0.0010 -999.25  1.2690  1.2570 -999.25  140.04  1.7706  1.7648  6.7199  0.0041  83.876  0.5059  140.04 -999.25  1.2690  1.2570 -999.25 -999.25  1.2570  1.2690  1.7648  75.605  0.4764 
  1883.000  87.441  6.7190  0.5320  0.5100  0.0050 -999.25  1.2690  1.2570 -999.25  138.24  1.7722  1.7580  6.7028  0.0040  66.325  0.5087  138.24 -999.25  1.2690  1.2570 -999.25 -999.25  1.2570  1.2690  1.7580  59.743  0.4794 
  1883.500  83.469  6.7200  0.5370  0.5070  0.0040 -999.25  1.2570  1.2340 -999.25  135.94  1.7640  1.7286  6.7019 -0.0052  64.033  0.4997  135.94 -999.25  1.2570  1.2340 -999.25 -999.25  1.2340  1.2570  1.7286  57.676  0.4697 
  1884.000  64.573  6.7010  0.5410  0.4900  0.0040 -999.25  1.2000  1.2230 -999.25  134.64  1.7574  1.7153  6.7205 -0.0088  64.913  0.4813  134.64 -999.25  1.2000  1.2230 -999.25 -999.25  1.2230  1.2000  1.7153  58.513  0.4499 
  1884.500  63.984  6.7020  0.5600  0.4700 -0.0060 -999.25  1.1570  1.1780 -999.25  134.73  1.7260  1.7114  6.7229 -0.0099  66.485  0.4617  134.73 -999.25  1.1570  1.1780 -999.25 -999.25  1.1780  1.1570  1.7114  59.936  0.4288 
  1885.000  64.986  6.7220  0.5670  0.4510 -0.0090 -999.25  1.1360  1.1360 -999.25  136.32  1.7145  1.7080  6.7050 -0.0100  66.782  0.4528  136.32 -999.25  1.1360  1.1360 -999.25 -999.25  1.1360  1.1360  1.7080  60.160  0.4192 
  1885.500  66.586  6.7230  0.5690  0.4550 -0.0100 -999.25  1.1050  1.0950 -999.25  141.20  1.7112  1.6984  6.7050 -0.0090  65.278  0.4899  141.20 -999.25  1.1050  1.0950 -999.25 -999.25  1.0950  1.1050  1.6984  58.805  0.4592 
  1886.000  66.793  6.7040  0.5710  0.5330 -0.0100 -999.25  1.0840  1.0450 -999.25  144.68  1.7079  1.6852  6.7253 -0.0100  63.678  0.5348  144.68 -999.25  1.0840  1.0450 -999.25 -999.25  1.0450  1.0840  1.6852  57.411  0.5075 
  1886.500  65.209  6.7050  0.5770  0.5370 -0.0090 -999.25  1.0740  1.0360 -999.25  146.37  1.6980  1.6799  6.7270 -0.0100  60.330  0.5384  146.37 -999.25  1.0740  1.0360 -999.25 -999.25  1.0360  1.0740  1.6799  54.396  0.5114 
  1887.000  63.625  6.7260  0.5850  0.5400 -0.0100 -999.25  1.0640  1.0450 -999.25  146.37  1.6848  1.6879  6.7270 -0.0080  56.137  0.5478  146.37 -999.25  1.0640  1.0450 -999.25 -999.25  1.0450  1.0640  1.6879  50.616  0.5216 
  1887.500  60.250  6.7270  0.5880  0.5570 -0.0100 -999.25  1.0740  1.0740 -999.25  144.47  1.6798  1.7012  6.7280 -0.0060  55.096  0.5589  144.47 -999.25  1.0740  1.0740 -999.25 -999.25  1.0740  1.0740  1.7012  49.679  0.5335 
  1888.000  56.079  6.7270  0.5830  0.5610 -0.0080 -999.25  1.1040  1.1450 -999.25  142.77  1.6881  1.7290  6.7290 -0.0001  55.100  0.5379  142.77 -999.25  1.1040  1.1450 -999.25 -999.25  1.1450  1.1040  1.7290  49.685  0.5109 
  1888.500  55.092  6.7280  0.5750  0.5120 -0.0060 -999.25  1.1870  1.2660 -999.25  138.87  1.7013  1.7423  6.7290 -0.0010  56.280  0.4992  138.87 -999.25  1.1870  1.2660 -999.25 -999.25  1.2660  1.1870  1.7423  50.749  0.4691 
  1889.000  55.100  6.7290  0.5580  0.4850  0.0000 -999.25  1.2320  1.3010 -999.25  133.98  1.7293  1.7489  6.6920  0.0019  60.764  0.4696  133.98 -999.25  1.2320  1.3010 -999.25 -999.25  1.3010  1.2320  1.7489  54.710  0.4374 
  1889.500  56.302  6.7290  0.5500  0.4530 -0.0010 -999.25  1.3250  1.3370 -999.25  131.98  1.7425  1.7523  6.6910  0.0001  62.812  0.4438  131.98 -999.25  1.3250  1.3370 -999.25 -999.25  1.3370  1.3250  1.7523  56.552  0.4096 
