~Version Information
VERS.                     2.0: CWLS log ASCII Standard Version 2.00
WRAP.                      NO: One line per depth step
~Well Information Block
#MNEM.UNIT                               Data Type  Information
#---------                               ---------  -----------
STRT.FT                                   318.0000:
STOP.FT                                  2700.0000:
STEP.FT                                     0.5000:
NULL.                 -999.25                     :
COMP.                                             :COMPANY            
WELL.     LOS LOBOS 82X-30                        :WELL               
FLD .                                             :FIELD              
CTRY.                                             :COUNTRY            
STAT.                                             :STATE              
LOC .                                             :LOCATION           
UWI .                                             :UNIQUE WELL ID     
SRVC.                                             :Service company    
DATE.                                             :LOG DATE           
~Curve Information
#MNEM.UNIT           API CODE  Curve Description
#---------           --------  -----------------
DEPT.FT                      :   1 DEPTH
SP  .MV                      :   2
ILD .OHMM                    :   3
ILM .OHMM                    :   4
SFLU.OHMM                    :   5
CALI.IN                      :   6
GR  .GAPI                    :   7
NPHI.PU-S                    :   8
DPHI.PU-S                    :   9
DRHO.G/C3                    :  10
CALI.IN                      :  11
DT  .US/F                    :  12
SBL .MV                      :  13
RS  .OHMM                    :  14
RM  .OHMM                    :  15
RD  .OHMM                    :  16
DTS .US/F                    :  17
CALS.IN                      :  18
RHOB.G/C3                    :  19
ROBS.G/C3                    :  20
DROS.G/C3                    :  21
CALS.IN                      :  22
GRS .GAPI                    :  23
NPHS.PU-S                    :  24
SFLU.OHMM                    :  25
ILMC.OHMM                    :  26
ILDC.OHMM                    :  27
ROBC.G/C3                    :  28
GRC .GAPI                    :  29
NPHC.PU-S                    :  30
~A
# ...
   796.500 -50.009  4.7060  5.7040  3.1880  13.265  48.498  0.4880  0.3680  0.0560  13.110  174.07 -8.0090  3.1880  5.7040  4.7060  187.97  13.111  2.0428  2.0398  0.0505  13.266  48.498  0.4838  3.6653  5.8188  4.7192  2.0665  54.878  0.4666 
   797.000 -49.798  4.8940  6.4000  3.3030  13.266  47.821  0.4830  0.3700  0.0500  13.021  160.95 -7.7980  3.3030  6.4000  4.8940  181.65  13.119  2.0395  2.0319  0.0482  13.233  47.821  0.4679  3.7988  6.5439  4.9079  2.0585  54.069  0.4490 
   797.500 -49.588  5.0890  6.9100  3.6570  13.230  47.144  0.4650  0.3750  0.0480  12.993  156.24 -7.5880  3.6570  6.9100  5.0890  170.76  13.088  2.0312  2.0405  0.0340  13.197  47.144  0.4205  4.2135  7.0768  5.1036  2.0668  53.257  0.3967 
   798.000 -48.891  5.3920  7.4040  3.8410  13.195  44.917  0.4120  0.3690  0.0330  12.980  165.99 -6.8910  3.8410  7.4040  5.3920  159.75  13.014  2.0412  2.0737  0.0217  13.112  44.917  0.3860  4.4237  7.5924  5.4072  2.0997  50.636  0.3586 
   798.500 -48.431  5.4990  7.2670  4.5530  13.107  43.409  0.3810  0.3480  0.0210  13.026  172.18 -6.4310  4.5530  7.2670  5.4990  158.74  12.990  2.0758  2.1603  0.0058  13.065  43.409  0.3249  5.2567  7.4465  5.5142  2.1860  48.879  0.2885 
   799.000 -48.358  5.5580  6.8120  5.7760  13.063  41.901  0.3140  0.2940  0.0050  13.071  174.43 -6.3580  5.7760  6.8120  5.5580  167.59  12.992  2.1649  2.2139 -0.0027  13.082  41.901  0.2823  6.6988  6.9701  5.5737  2.2397  47.201  0.2436 
   799.500 -48.367  5.5360  6.2350  7.7560  13.083  37.616  0.2760  0.2630 -0.0030  13.340  179.92 -6.3670  7.7560  6.2350  5.5360  172.77  13.038  2.2161  2.6098  0.1468  13.148  37.616  0.2702  9.0507  6.3691  5.5526  2.6360  42.442  0.2312 
   800.000 -48.377  5.5140  6.0740  11.796  13.150  34.599  0.2690  0.0160  0.1520  13.352  192.62 -6.3770  11.796  6.0740  5.5140  175.88  13.142  2.6236  2.6413  0.1949  13.285  34.599  0.3056  13.897  6.2049  5.5324  2.6681  39.169  0.2680 
   800.500 -49.030  5.2320  6.0810  15.634  13.288  31.743  0.3130  0.0050  0.1960  13.363  203.70 -7.0300  15.634  6.0810  5.2320  183.31  13.343  2.6418  2.5232  0.2029  13.725  31.743  0.3404  18.711  6.2243  5.2543  2.5520  36.314  0.3054 
   801.000 -49.277  4.8950  6.0890  22.012  13.732  29.678  0.3460  0.0780  0.2030  13.231  203.48 -7.2770  22.012  6.0890  4.8950  195.60  13.355  2.5213  2.4656  0.1871  13.807  29.678  0.3734  26.308  6.2349  4.9154  2.4948  34.016  0.3449 
   801.500 -49.524  4.6440  6.1180  40.801  13.807  28.960  0.3790  0.1120  0.1870  13.150  183.44 -7.5240  40.801  6.1180  4.6440  203.64  13.327  2.4652  2.3860  0.1519  13.628  28.960  0.3889  48.167  6.2604  4.6605  2.4144  33.055  0.3620 
   802.000 -50.063  4.4050  5.7760  48.269  13.628  28.639  0.3910  0.1600  0.1520  13.106  148.64 -8.0630  48.269  5.7760  4.4050  197.99  13.209  2.3860  2.3728  0.1301  13.529  28.639  0.3745  56.714  5.9003  4.4190  2.4008  32.612  0.3460 
   802.500 -50.353  3.9210  5.2670  41.127  13.529  30.932  0.3710  0.1680  0.1300  13.113  125.12 -8.3530  41.127  5.2670  3.9210  173.82  13.138  2.3728  2.3843  0.1062  13.371  30.932  0.3397  48.209  5.3669  3.9309  2.4115  35.091  0.3045 
   803.000 -50.561  3.7500  4.6130  12.902  13.370  35.682  0.3330  0.1610  0.1060  13.180  125.42 -8.5610  12.902  4.6130  3.7500  142.08  13.108  2.3844  2.3925  0.1208  13.515  35.682  0.3133  15.310  4.6917  3.7600  2.4204  40.619  0.2762 
   803.500 -50.812  3.6130  3.8870  4.5680  13.517  43.838  0.3090  0.1560  0.1210  13.259  137.36 -8.8120  4.5680  3.8870  3.6130  125.20  13.132  2.3926  2.3698  0.1259  13.724  43.846  0.3238  5.3394  3.9451  3.6236  2.3987  50.159  0.2875 
   804.000 -50.829  3.4420  3.4040  2.3170  13.727  47.005  0.3270  0.1700  0.1260  13.326  148.26 -8.8290  2.3170  3.4040  3.4420  128.81  13.202  2.3695  2.2658  0.1270  13.692  47.018  0.3680  2.6520  3.4482  3.4514  2.2945  53.747  0.3389 
   804.500 -50.648  3.2440  3.1910  2.0970  13.691  49.536  0.3770  0.2340  0.1270  13.284  152.23 -8.6480  2.0970  3.1910  3.2440  140.48  13.278  2.2639  2.1202  0.0908  13.391  49.539  0.4277  2.3828  3.2276  3.2509  2.1475  56.226  0.4047 
   805.000 -50.498  3.1430  3.0070  2.1460  13.385  49.888  0.4390  0.3230  0.0900  13.241  156.19 -8.4980  2.1460  3.0070  3.1430  149.41  13.314  2.1171  2.0382  0.0666  13.223  49.892  0.4512  2.4367  3.0383  3.1487  2.0647  56.397  0.4306 
   805.500 -50.312  3.0450  2.9080  2.2170  13.219  50.241  0.4540  0.3720  0.0660  13.200  162.23 -8.3120  2.2170  2.9080  3.0450  153.38  13.271  2.0362  2.0057  0.0514  13.133  50.247  0.4532  2.5179  2.9367  3.0499  2.0318  56.673  0.4328 
   806.000 -50.126  2.7800  2.7750  2.3280  13.131  50.673  0.4530  0.3910  0.0510  13.160  170.72 -8.1260  2.3280  2.7750  2.7800  157.96  13.229  2.0049  1.9985  0.0471  13.093  50.680  0.4595  2.6471  2.8009  2.7840  2.0243  57.105  0.4397 
   806.500 -49.845  2.7030  2.6490  2.4440  13.092  51.105  0.4610  0.3950  0.0470  13.167  166.23 -7.8450  2.4440  2.6490  2.7030  164.74  13.188  1.9983  1.9935  0.0538  13.237  51.139  0.4772  2.7880  2.6734  2.7072  2.0201  57.826  0.4593 
   807.000 -49.563  2.6570  2.6050  2.5060  13.242  52.998  0.4810  0.3980  0.0540  13.226  158.76 -7.5630  2.5060  2.6050  2.6570  169.38  13.162  1.9933  1.9790  0.0646  13.763  53.042  0.4850  2.8796  2.6311  2.6629  2.0081  60.734  0.4682 
   807.500 -49.262  2.6460  2.6150  2.4720  13.784  55.134  0.4860  0.4070  0.0650  13.261  157.01 -7.2620  2.4720  2.6150  2.6460  163.98  13.185  1.9785  1.9516  0.0937  15.014  55.205  0.4715  2.8821  2.6475  2.6559  1.9857  64.980  0.4534 
   808.000 -48.960  2.6520  2.6260  2.4170  15.068  58.219  0.4680  0.4240  0.0950  13.296  154.73 -6.9600  2.4170  2.6260  2.6520  158.23  13.237  1.9504  1.9173  0.0959  15.245  58.237  0.4640  2.8220  2.6585  2.6628  1.9523  68.879  0.4452 
   808.500 -48.832  2.6580  2.6230  2.3110  15.254  58.929  0.4630  0.4450  0.0960  13.351  153.51 -6.8320  2.3110  2.6230  2.6580  156.31  13.272  1.9158  1.8609  0.0713  15.517  58.864  0.4702  2.6989  2.6552  2.6697  1.8968  70.005  0.4522 
   809.000 -48.704  2.6540  2.6210  2.2770  15.531  56.627  0.4720  0.4800  0.0700  13.358  152.11 -6.7040  2.2770  2.6210  2.6540  154.35  13.313  1.8580  1.8158  0.0463  15.880  56.566  0.4784  2.6669  2.6529  2.6669  1.8529  67.754  0.4613 
   809.500 -48.501  2.6500  2.6130  2.2460  15.899  54.641  0.4800  0.5070  0.0450  13.334  151.43 -6.5010  2.2460  2.6130  2.6500  153.08  13.353  1.8135  1.8742  0.0658  15.974  54.643  0.4824  2.6305  2.6446  2.6632  1.9115  65.571  0.4657 
   810.000 -48.299  2.6310  2.6040  2.2170  15.978  54.715  0.4830  0.4680  0.0670  13.245  152.32 -6.2990  2.2170  2.6040  2.6310  151.90  13.350  1.8778  1.9305  0.1093  15.881  54.846  0.4862  2.5914  2.6354  2.6437  1.9676  65.696  0.4699 
   810.500 -48.116  2.6130  2.5880  2.1990  15.875  58.358  0.4870  0.4340  0.1120  13.157  153.95 -6.1160  2.1990  2.5880  2.6130  151.71  13.306  1.9339  1.9694  0.1476  15.237  58.477  0.4974  2.5519  2.6196  2.6234  2.0044  69.151  0.4821 
   811.000 -47.934  2.5970  2.5720  2.1810  15.194  61.445  0.5000  0.4110  0.1500  13.059  154.93 -5.9340  2.1810  2.5720  2.5970  152.83  13.217  1.9719  1.9657  0.1593  15.131  61.341  0.5159  2.5268  2.6033  2.6069  2.0003  72.378  0.5026 
   811.500 -47.712  2.5810  2.5560  2.1860  15.126  58.907  0.5200  0.4150  0.1600  12.960  155.25 -5.7120  2.1860  2.5560  2.5810  154.26  13.126  1.9653  1.9100  0.1247  15.336  58.723  0.5319  2.5383  2.5867  2.5915  1.9453  69.582  0.5203 
   812.000 -47.491  2.5480  2.5380  2.1900  15.352  54.703  0.5350  0.4510  0.1220  13.007  154.32 -5.4910  2.1900  2.5380  2.5480  155.03  13.027  1.9059  1.8860  0.0840  15.267  54.703  0.5350  2.5415  2.5684  2.5580  1.9210  64.727  0.5237 
   812.500 -47.363  2.5160  2.5200  2.1990  15.260  54.702  0.5350  0.4640  0.0810  13.090  153.59 -5.3630  2.1990  2.5200  2.5160  154.95  12.975  1.8844  1.8935  0.0598  14.522  54.880  0.5350  2.5331  2.5479  2.5235  1.9258  63.922  0.5236 
