~Version Information
VERS.                     2.0: CWLS log ASCII Standard Version 2.00
WRAP.                      NO: One line per depth step
~Well Information Block
#MNEM.UNIT                               Data Type  Information
#---------                               ---------  -----------
STRT.FT                                   318.0000:
STOP.FT                                  2700.0000:
STEP.FT                                     0.5000:
NULL.                 -999.25                     :
COMP.                                             :COMPANY            
WELL.     LOS LOBOS 82X-30                        :WELL               
FLD .                                             :FIELD              
CTRY.                                             :COUNTRY            
STAT.                                             :STATE              
LOC .                                             :LOCATION           
UWI .                                             :UNIQUE WELL ID     
SRVC.                                             :Service company    
DATE.                                             :LOG DATE           
~Curve Information
#MNEM.UNIT           API CODE  Curve Description
#---------           --------  -----------------
DEPT.FT                      :   1 DEPTH
SP  .MV                      :   2
ILD .OHMM                    :   3
ILM .OHMM                    :   4
SFLU.OHMM                    :   5
CALI.IN                      :   6
GR  .GAPI                    :   7
NPHI.PU-S                    :   8
DPHI.PU-S                    :   9
DRHO.G/C3                    :  10
CALI.IN                      :  11
DT  .US/F                    :  12
SBL .MV                      :  13
RS  .OHMM                    :  14
RM  .OHMM                    :  15
RD  .OHMM                    :  16
DTS .US/F                    :  17
CALS.IN                      :  18
RHOB.G/C3                    :  19
ROBS.G/C3                    :  20
DROS.G/C3                    :  21
CALS.IN                      :  22
GRS .GAPI                    :  23
NPHS.PU-S                    :  24
SFLU.OHMM                    :  25
ILMC.OHMM                    :  26
ILDC.OHMM                    :  27
ROBC.G/C3                    :  28
GRC .GAPI                    :  29
NPHC.PU-S                    :  30
~A
   318.000 -31.394 -999.25 -999.25  1.9080  13.473  85.124  0.4680  0.2510  0.1320  13.253  70.204  10.606  1.9080 -999.25 -999.25 -999.25 -999.25  2.2359 -999.25 -999.25 -999.25 -999.25 -999.25  1.9080 -999.25 -999.25 -999.25 -999.25 -999.25 
   318.500 -37.343 -999.25  5.7080  6.0620  13.572  90.265  0.4760  0.3120  0.0830  13.320  68.376  4.6570  6.0620  5.7080 -999.25  160.50  13.359  2.1352  2.1616  0.0250  13.674  85.124  0.4760  7.1235  5.8329 -999.25  2.1902  97.266  0.4582 
   319.000 -43.333 -999.25  59.927  7.3990  13.674  95.406  0.4690  0.2960  0.0250  13.359  160.50 -1.3330  7.3990  59.927 -999.25  159.91  13.423  2.1616  2.2293  0.0130  13.904  90.265  0.4690  8.7738  78.288 -999.25  2.2589  103.69  0.4505 
   319.500 -43.547 -999.25  33.742  8.9640  13.904  98.646  0.4300  0.2550  0.0130  13.423  159.91 -1.5470  8.9640  33.742 -999.25  167.17  13.518  2.2293  2.2689  0.0100  14.074  95.406  0.4300  10.713  39.059 -999.25  2.2993  110.02  0.4075 
   320.000 -42.446  2.3380  12.999  11.163  14.074  104.66  0.3470  0.2310  0.0100  13.518  167.17 -0.4460  11.163  12.999  2.3380  170.25  13.577  2.2689  2.2705  0.0080  14.232  98.646  0.3470  13.452  13.740  2.3437  2.3016  114.17  0.3159 
   320.500 -41.907  119.63  5.9280  11.681  14.232  109.08  0.3220  0.2300  0.0080  13.577  170.25  0.0930  11.681  5.9280  119.63  174.11  13.613  2.2705  2.2788  0.0050  14.283  104.66  0.3220  14.106  6.0787  137.22  2.3100  121.26  0.2857 
   321.000 -42.434  361.82  8.3170  12.224  14.283  113.99  0.3190  0.2250  0.0050  13.613  174.11 -0.4340  12.224  8.3170  361.82  175.07  13.617  2.2788  2.3002  0.0070  14.294  109.08  0.3190  14.780  8.6174  592.66  2.3315  126.42  0.2825 
   321.500 -43.236  1078.4  10.725  12.793  14.294  117.86  0.3170  0.2120  0.0070  13.617  175.07 -1.2360  12.793  10.725  1078.4  160.97  13.584  2.3002  2.3382  0.0440  14.278  113.99  0.3170  15.476  11.228  2000.0  2.3694  132.06  0.2803 
   322.000 -44.161  1566.7  14.035  14.320  14.278  123.32  0.3260  0.1890  0.0440  13.584  160.97 -2.1610  14.320  14.035  1566.7  146.88  13.520  2.3382  2.3580  0.0530  14.158  117.86  0.3260  17.307  14.891  2000.0  2.3887  136.18  0.2900 
   322.500 -44.566  900.08  13.521  15.658  14.158  125.13  0.3390  0.1770  0.0530  13.520  146.88 -2.5660  15.658  13.521  900.08  123.31  13.384  2.3580  2.3844  0.0610  13.920  123.32  0.3390  18.837  14.279  2000.0  2.4141  141.71  0.3040 
   323.000 -45.132  21.724  11.822  17.341  13.920  124.49  0.3430  0.1610  0.0610  13.384  123.31 -3.1320  17.341  11.822  21.724  119.17  13.241  2.3844  2.4306  0.0620  13.682  125.13  0.3430  20.716  12.371  22.103  2.4592  143.00  0.3082 
   323.500 -46.256  16.924  10.073  21.319  13.682  121.47  0.3180  0.1330  0.0620  13.241  119.17 -4.2560  21.319  10.073  16.924  116.27  13.185  2.4306  2.4471  0.0950  13.491  124.49  0.3180  25.275  10.454  17.127  2.4748  141.63  0.2812 
   324.000 -47.335  18.133  12.707  24.900  13.491  113.06  0.2790  0.1230  0.0950  13.185  116.27 -5.3350  24.900  12.707  18.133  120.15  13.129  2.4471  2.4438  0.1170  13.328  121.47  0.2790  29.334  13.299  18.340  2.4708  137.65  0.2403 
   324.500 -50.356  27.477  27.079  26.099  13.328  103.30  0.2690  0.1250  0.1170  13.129  120.15 -8.3560  26.099  27.079  27.477  111.00  13.108  2.4438  2.4223  0.1180  13.300  113.06  0.2690  30.706  29.900  27.945  2.4492  128.03  0.2300 
   325.000 -51.437  38.481  1043.2  26.137  13.300  98.456  0.2700  0.1380  0.1180  13.108  111.00 -9.4370  26.137  1043.2  38.481  107.98  13.116  2.4223  2.3976  0.1120  13.236  103.30  0.2700  30.696  2000.0  39.359  2.4241  116.80  0.2310 
   325.500 -52.675  56.316  583.12  25.691  13.236  95.751  0.2780  0.1530  0.1120  13.116  107.98 -10.675  25.691  583.12  56.316  107.47  13.127  2.3976  2.3811  0.0960  12.974  98.456  0.2780  29.964  2000.0  57.804  2.4063  110.61  0.2392 
   326.000 -54.354  52.979  54.059  25.028  12.974  98.513  0.2810  0.1630  0.0960  13.127  107.47 -12.354  25.028  54.059  52.979  114.35  13.139  2.3811  2.3646  0.0860  12.922  95.751  0.2810  29.158  65.433  54.222  2.3896  107.43  0.2422 
   326.500 -54.762  31.174  25.387  23.206  12.922  100.25  0.2790  0.1730  0.0860  13.139  114.35 -12.762  23.206  25.387  31.174  121.95  13.143  2.3646  2.3481  0.0770  13.195  98.513  0.2790  27.264  27.793  31.729  2.3744  111.28  0.2402 
   327.000 -55.171  21.909  21.394  20.323  13.195  99.921  0.2800  0.1830  0.0770  13.143  121.95 -13.171  20.323  21.394  21.909  123.03  13.150  2.3481  2.3349  0.0690  13.499  100.25  0.2800  24.113  23.193  22.252  2.3627  114.07  0.2414 
   327.500 -55.416  20.127  18.910  17.701  13.499  97.613  0.2930  0.1910  0.0690  13.150  123.03 -13.416  17.701  18.910  20.127  122.83  13.158  2.3349  2.3414  0.0620  13.661  99.921  0.2930  21.129  20.350  20.448  2.3700  114.14  0.2549 
   328.000 -55.824  18.558  18.320  16.840  13.661  94.432  0.3010  0.1870  0.0620  13.158  122.83 -13.824  16.840  18.320  18.558  120.15  13.169  2.3414  2.3514  0.0610  13.657  97.613  0.3010  20.111  19.667  18.830  2.3799  111.49  0.2633 
   328.500 -56.351  18.855  18.961  17.235  13.657  92.521  0.2880  0.1810  0.0610  13.169  120.15 -14.351  17.235  18.961  18.855  113.25  13.169  2.3514  2.3596  0.0620  13.506  94.432  0.2880  20.494  20.363  19.110  2.3875  107.47  0.2496 
   329.000 -57.119  20.022  20.057  18.367  13.506  90.650  0.2830  0.1760  0.0620  13.169  113.25 -15.119  18.367  20.057  20.022  106.61  13.157  2.3596  2.3662  0.0620  13.327  92.521  0.2830  21.718  21.573  20.275  2.3932  104.85  0.2444 
   329.500 -57.643  21.068  21.026  20.340  13.327  88.779  0.2780  0.1720  0.0620  13.157  106.61 -15.643  20.340  21.026  21.068  98.930  13.096  2.3662  2.3943  0.0520  13.307  90.650  0.2780  24.008  22.691  21.344  2.4212  102.68  0.2392 
   330.000 -58.088  22.168  22.488  22.528  13.307  85.201  0.2730  0.1550  0.0520  13.096  98.930 -16.088  22.528  22.488  22.168  97.042  13.056  2.3943  2.4256  0.0620  13.239  88.779  0.2730  26.508  24.374  22.457  2.4522  100.39  0.2341 
   330.500 -58.532  24.812  23.064  25.835  13.239  86.459  0.2620  0.1360  0.0620  13.056  97.042 -16.532  25.835  23.064  24.812  96.645  13.004  2.4256  2.4471  0.0870  13.128  85.201  0.2620  30.257  25.003  25.142  2.4731  96.086  0.2228 
   331.000 -58.979  26.493  23.655  30.849  13.128  90.014  0.2540  0.1230  0.0870  13.004  96.645 -16.979  30.849  23.655  26.493  96.247  12.944  2.4471  2.4487  0.1150  13.087  86.459  0.2540  36.009  25.680  26.856  2.4745  97.406  0.2147 
   331.500 -59.426  29.285  25.478  36.090  13.087  92.937  0.2490  0.1220  0.1150  12.944  96.247 -17.426  36.090  25.478  29.285  95.077  12.896  2.4487  2.4240  0.1300  13.142  90.014  0.2490  42.109  27.873  29.752  2.4501  101.55  0.2097 
   332.000 -60.278  32.372  28.323  36.542  13.142  95.541  0.2600  0.1370  0.1300  12.896  95.077 -18.278  36.542  28.323  32.372  93.031  12.860  2.4240  2.3860  0.0830  13.106  92.937  0.2600  42.587  31.288  32.925  2.4119  104.75  0.2208 
   332.500 -60.622  35.205  36.456  35.792  13.106  98.224  0.2630  0.1600  0.0830  12.860  93.031 -18.622  35.792  36.456  35.205  91.521  12.856  2.3860  2.3844  0.0430  12.991  95.541  0.2630  41.592  41.381  35.791  2.4097  107.38  0.2238 
   333.000 -60.966  38.775  38.915  38.426  12.991  100.67  0.2570  0.1610  0.0430  12.856  91.521 -18.966  38.426  38.915  38.775  89.773  12.851  2.3844  2.4355  0.0320  12.915  98.224  0.2570  44.520  44.471  39.431  2.4605  110.19  0.2177 
   333.500 -61.474  40.279  40.422  47.151  12.915  107.79  0.2370  0.1300  0.0320  12.851  89.773 -19.474  47.151  40.422  40.279  88.322  12.859  2.4355  2.5461  0.0790  12.911  100.67  0.2370  54.483  46.444  40.985  2.5710  112.92  0.1976 
   334.000 -61.981  41.530  41.522  50.440  12.911  119.19  0.2100  0.0630  0.0790  12.859  88.322 -19.981  50.440  41.522  41.530  88.145  12.869  2.5461  2.5510  0.0880  12.924  107.79  0.2100  58.256  47.923  42.292  2.5760  120.95  0.1709 
