~Version Information
VERS.                     2.0: CWLS log ASCII Standard Version 2.00
WRAP.                     YES: Multiple lines per depth step
~Well Information Block
#MNEM.UNIT                               Data Type  Information
#---------                               ---------  -----------
STRT.FT                                   850.0000:
STOP.FT                                  6800.0000:
STEP.FT                                     0.5000:
NULL.                 -999.25                     :
COMP.                                             :COMPANY            
WELL.     SANTIAGO D #26-27                       :WELL               
FLD .                                             :FIELD              
CTRY.                                             :COUNTRY            
STAT.                                             :STATE              
LOC .                                             :LOCATION           
UWI .                                             :UNIQUE WELL ID     
SRVC.                                             :Service company    
DATE.                                             :LOG DATE           
~Curve Information
#MNEM.UNIT           API CODE  Curve Description
#---------           --------  -----------------
DEPT.FT                      :   1 DEPTH
DCAL.IN                      :   2
DGR .GAPI                    :   3
NPHI.PU-S                    :   4
DPHI.PU-S                    :   5
DRHO.G/C3                    :   6
AGR .GAPI                    :   7
ACAL.IN                      :   8
DT  .US/F                    :   9
GR  .GAPI                    :  10
SP  .MV                      :  11
ILM .OHMM                    :  12
ILD .OHMM                    :  13
SFLU.OHMM                    :  14
RHOB.G/C3                    :  15
RS  .OHMM                    :  16
RM  .OHMM                    :  17
RD  .OHMM                    :  18
GRS .GAPI                    :  19
SBL .MV                      :  20
ROBS.G/C3                    :  21
DRHS.G/C3                    :  22
CALS.IN                      :  23
GRS .GAPI                    :  24
NPHS.PU-S                    :  25
CALS.IN                      :  26
GRS .GAPI                    :  27
SFLU.OHMM                    :  28
ILMC.OHMM                    :  29
ILDC.OHMM                    :  30
ROBC.G/C3                    :  31
GRC .GAPI                    :  32
NPHC.PU-S                    :  33
~A
# ...
  3271.500 
  10.081  99.326  0.4370  0.3290  0.0390  99.704  11.611  123.58  87.802 
 -20.649  2.9140  2.9190  2.4370  2.1072  2.4370  2.9140  2.9190  87.802 
 -20.215  2.1534  0.0619  10.111  95.279  0.4118  11.500  103.30  2.6703 
  2.9261  2.9178  2.1615  99.848  0.4265 
  3272.000 
  10.103  97.805  0.4490  0.3130  0.0490  101.97  11.575  124.63  80.839 
 -20.502  2.8910  2.8960  2.7620  2.1336  2.7620  2.8910  2.8960  80.839 
 -20.065  2.1654  0.0582  10.115  92.795  0.3851  11.494  101.87  3.0226 
  2.9030  2.8948  2.1736  97.257  0.3942 
  3272.500 
  10.110  95.925  0.4580  0.3030  0.0610  103.16  11.520  125.76  72.645 
 -20.593  2.8010  2.8630  3.0190  2.1501  3.0190  2.8010  2.8630  72.645 
 -20.154  2.1782  0.0405  10.100  89.331  0.3739  11.507  99.104  3.3001 
  2.8122  2.8619  2.1863  93.581  0.3807 
  3273.000 
  10.113  93.689  0.4580  0.2960  0.0640  103.40  11.501  123.14  76.208 
 -21.161  2.7090  2.8100  3.1290  2.1616  3.1290  2.7090  2.8100  76.208 
 -20.719  2.1873  0.0323  10.030  84.304  0.3812  11.523  95.555  3.4149 
  2.7190  2.8089  2.1949  88.114  0.3894 
  3273.500 
  10.119  90.618  0.4350  0.2880  0.0440  102.06  11.493  107.01  80.088 
 -22.008  2.5960  2.7480  2.8970  2.1748  2.8970  2.5960  2.7480  80.088 
 -21.564  2.1778  0.0363  9.9594  78.176  0.4110  11.543  92.568  3.1605 
  2.6048  2.7469  2.1849  81.518  0.4253 
  3274.000 
  10.054  86.237  0.3990  0.2810  0.0320  99.327  11.506  92.493  82.023 
 -22.972  2.4880  2.6240  2.3220  2.1864  2.3220  2.4880  2.6240  82.023 
 -22.525  2.1361  0.0455  9.9223  75.180  0.4453  11.554  91.180  2.5390 
  2.4959  2.6230  2.1430  78.298  0.4666 
  3274.500 
  9.9740  79.710  0.3770  0.2790  0.0330  95.723  11.522  89.893  82.846 
 -23.896  2.3670  2.5240  1.9650  2.1897  1.9650  2.3670  2.5240  82.846 
 -23.447  2.0913  0.0475  9.9181  78.103  0.4655  11.563  90.391  2.1541 
  2.3741  2.5230  2.0981  81.330  0.4911 
  3275.000 
  9.9250  74.574  0.3720  0.3030  0.0440  92.634  11.542  96.138  83.349 
 -24.982  2.2730  2.4230  1.8970  2.1501  1.8970  2.2730  2.4230  83.349 
 -24.530  2.0606  0.0437  9.9261  82.257  0.4682  11.575  89.442  2.0810 
  2.2796  2.4221  2.0675  85.678  0.4943 
  3275.500 
  9.9160  76.588  0.3870  0.3310  0.0490  91.211  11.554  104.15  82.464 
 -25.112  2.2140  2.3560  1.9000  2.1039  1.9000  2.2140  2.3560  82.464 
 -24.658  2.0601  0.0442  9.9401  84.094  0.4693  11.583  89.749  2.0846 
  2.2203  2.3552  2.0670  87.633  0.4957 
  3276.000 
  9.9230  81.580  0.4270  0.3560  0.0440  90.422  11.563  116.62  81.262 
 -24.011  2.1890  2.3120  1.9620  2.0626  1.9620  2.1890  2.3120  81.262 
 -23.554  2.0707  0.0482  9.9691  84.089  0.4780  11.568  91.830  2.1521 
  2.1953  2.3112  2.0779  87.712  0.5062 
  3276.500 
  9.9330  83.792  0.4580  0.3600  0.0430  89.435  11.575  133.08  79.698 
 -22.672  2.1880  2.2940  1.8200  2.0560  1.8200  2.1880  2.2940  79.698 
 -22.213  2.0731  0.0513  10.015  81.937  0.4793  11.524  92.975  1.9999 
  2.1945  2.2932  2.0806  85.597  0.5078 
  3277.000 
  9.9560  84.772  0.4710  0.3520  0.0470  89.716  11.583  129.66  78.854 
 -21.532  2.2190  2.2930  1.6690  2.0692  1.6690  2.2190  2.2930  78.854 
 -21.071  2.0682  0.0492  10.070  80.070  0.4588  11.481  90.838  1.8379 
  2.2259  2.2923  2.0761  83.798  0.4831 
  3277.500 
  9.9980  82.575  0.4660  0.3490  0.0510  91.821  11.568  122.92  78.248 
 -20.749  2.2340  2.3090  1.7560  2.0742  1.7560  2.2340  2.3090  78.248 
 -20.285  2.0642  0.0392  10.086  79.128  0.4282  11.462  87.115  1.9322 
  2.2410  2.3083  2.0722  82.856  0.4462 
  3278.000 
  10.053  80.538  0.4720  0.3510  0.0520  92.975  11.524  122.64  78.515 
 -21.357  2.2580  2.3290  2.1490  2.0709  2.1490  2.2580  2.3290  78.515 
 -20.891  2.0723  0.0288  10.019  79.494  0.4085  11.506  85.811  2.3555 
  2.2649  2.3282  2.0798  83.055  0.4224 
  3278.500 
  10.107  79.056  0.4830  0.3560  0.0430  90.838  11.481  124.17  81.323 
 -22.004  2.2690  2.3440  2.4360  2.0626  2.4360  2.2690  2.3440  81.323 
 -21.535  2.0877  0.0279  9.9732  80.467  0.4025  11.562  89.065  2.6638 
  2.2758  2.3432  2.0949  83.945  0.4151 
  3279.000 
  10.042  79.282  0.4760  0.3530  0.0310  87.115  11.462  128.55  90.169 
 -22.015  2.2880  2.3610  2.7570  2.0676  2.7570  2.2880  2.3610  90.169 
 -21.544  2.1037  0.0383  10.010  84.079  0.4025  11.562  90.457  3.0120 
  2.2950  2.3602  2.1112  87.819  0.4151 
  3279.500 
  9.9700  79.944  0.4430  0.3440  0.0240  85.811  11.506  132.83  105.21 
 -21.075  2.3080  2.3810  2.7960  2.0824  2.7960  2.3080  2.3810  105.21 
 -20.601  2.1154  0.0430  10.105  91.427  0.4063  11.531  90.699  3.0589 
  2.3156  2.3802  2.1235  95.794  0.4198 
  3280.000 
  9.9800  81.562  0.4140  0.3340  0.0360  89.065  11.562  137.39  108.38 
 -20.490  2.2610  2.3930  2.5370  2.0989  2.5370  2.2610  2.3930  108.38 
 -20.014  2.1127  0.0387  10.202  96.974  0.4205  11.531  91.059  2.7825 
  2.2687  2.3922  2.1215  101.93  0.4371 
  3280.500 
  10.071  89.295  0.4030  0.3250  0.0430  90.457  11.562  137.52  109.12 
 -20.302  2.2390  2.4090  2.0890  2.1138  2.0890  2.2390  2.4090  109.12 
 -19.823  2.0956  0.0267  10.266  100.37  0.4472  11.533  99.705  2.2977 
  2.2468  2.4083  2.1048  105.72  0.4695 
  3281.000 
  10.176  95.796  0.4020  0.3220  0.0430  90.699  11.531  134.17  107.00 
 -20.474  2.2670  2.4160  1.8210  2.1187  1.8210  2.2670  2.4160  107.00 
 -19.993  2.0868  0.0207  10.293  102.66  0.4633  11.536  105.26  2.0067 
  2.2751  2.4153  2.0962  108.21  0.4889 
  3281.500 
  10.255  99.360  0.4030  0.3330  0.0300  91.059  11.531  131.93  102.46 
 -20.803  2.3370  2.4240  1.7230  2.1006  1.7230  2.3370  2.4240  102.46 
 -20.319  2.0951  0.0250  10.308  102.84  0.4445  11.534  106.97  1.9004 
  2.3457  2.4233  2.1046  108.46  0.4663 
  3282.000 
  10.289  102.41  0.4100  0.3420  0.0200  99.705  11.533  131.77  97.845 
 -21.529  2.4050  2.4450  1.8060  2.0857  1.8060  2.4050  2.4450  97.845 
 -21.043  2.1201  0.0351  10.330  101.83  0.4060  11.533  107.76  1.9912 
  2.4143  2.4443  2.1297  107.47  0.4197 
  3282.500 
  10.300  103.15  0.4330  0.3400  0.0220  105.26  11.536  134.03  93.822 
 -22.414  2.4480  2.4520  2.0960  2.0890  2.0960  2.4480  2.4520  93.822 
 -21.926  2.1609  0.0457  10.357  101.19  0.3770  11.545  107.97  2.3080 
  2.4578  2.4513  2.1708  106.89  0.3847 
  3283.000 
  10.323  102.22  0.4650  0.3290  0.0310  106.97  11.534  139.52  89.124 
 -23.142  2.4650  2.4690  2.5380  2.1072  2.5380  2.4650  2.4690  89.124 
 -22.651  2.1959  0.0524  10.393  101.23  0.3672  11.557  108.09  2.7916 
  2.4751  2.4683  2.2059  107.05  0.3730 
  3283.500 
  10.345  101.06  0.4610  0.3060  0.0430  107.76  11.533  143.24  88.874 
 -23.351  2.4630  2.4770  2.8300  2.1451  2.8300  2.4630  2.4770  88.874 
 -22.858  2.2045  0.0557  10.436  99.575  0.3709  11.571  107.93  3.1126 
  2.4733  2.4763  2.2149  105.45  0.3775 
  3284.000 
  10.380  101.44  0.4220  0.2780  0.0510  107.97  11.545  143.16  93.310 
 -23.482  2.4660  2.4940  2.9880  2.1913  2.9880  2.4660  2.4940  93.310 
 -22.986  2.2005  0.0567  10.496  95.912  0.3863  11.586  107.11  3.2886 
  2.4767  2.4933  2.2112  101.76  0.3962 
  3284.500 
  10.418  100.83  0.3830  0.2700  0.0550  108.09  11.557  136.99  95.563 
 -23.058  2.4560  2.5020  2.8580  2.2045  2.8580  2.4560  2.5020  95.563 
 -22.560  2.1860  0.0553  10.559  93.414  0.4043  11.606  106.12  3.1495 
  2.4669  2.5013  2.1972  99.306  0.4181 
  3285.000 
  10.469  97.209  0.3680  0.2700  0.0570  107.93  11.571  127.73  93.841 
 -22.632  2.4240  2.5090  2.4690  2.2045  2.4690  2.4240  2.5090  93.841 
 -22.131  2.1673  0.0529  10.598  96.164  0.4195  11.579  106.28  2.7245 
  2.4348  2.5084  2.1788  102.35  0.4365 
  3285.500 
  10.547  93.503  0.3660  0.2770  0.0560  107.11  11.586  123.19  93.077 
 -22.207  2.4270  2.5130  2.0710  2.1930  2.0710  2.4270  2.5130  93.077 
 -21.704  2.1508  0.0496  10.616  103.13  0.4320  11.535  106.25  2.2880 
  2.4379  2.5124  2.1623  109.83  0.4516 
