~Version Information
VERS.                     2.0: CWLS log ASCII Standard Version 2.00
WRAP.                     YES: Multiple lines per depth step
~Well Information Block
#MNEM.UNIT                               Data Type  Information
#---------                               ---------  -----------
STRT.FT                                   850.0000:
STOP.FT                                  6800.0000:
STEP.FT                                     0.5000:
NULL.                 -999.25                     :
COMP.                                             :COMPANY            
WELL.     SANTIAGO D #26-27                       :WELL               
FLD .                                             :FIELD              
CTRY.                                             :COUNTRY            
STAT.                                             :STATE              
LOC .                                             :LOCATION           
UWI .                                             :UNIQUE WELL ID     
SRVC.                                             :Service company    
DATE.                                             :LOG DATE           
~Curve Information
#MNEM.UNIT           API CODE  Curve Description
#---------           --------  -----------------
DEPT.FT                      :   1 DEPTH
DCAL.IN                      :   2
DGR .GAPI                    :   3
NPHI.PU-S                    :   4
DPHI.PU-S                    :   5
DRHO.G/C3                    :   6
AGR .GAPI                    :   7
ACAL.IN                      :   8
DT  .US/F                    :   9
GR  .GAPI                    :  10
SP  .MV                      :  11
ILM .OHMM                    :  12
ILD .OHMM                    :  13
SFLU.OHMM                    :  14
RHOB.G/C3                    :  15
RS  .OHMM                    :  16
RM  .OHMM                    :  17
RD  .OHMM                    :  18
GRS .GAPI                    :  19
SBL .MV                      :  20
ROBS.G/C3                    :  21
DRHS.G/C3                    :  22
CALS.IN                      :  23
GRS .GAPI                    :  24
NPHS.PU-S                    :  25
CALS.IN                      :  26
GRS .GAPI                    :  27
SFLU.OHMM                    :  28
ILMC.OHMM                    :  29
ILDC.OHMM                    :  30
ROBC.G/C3                    :  31
GRC .GAPI                    :  32
NPHC.PU-S                    :  33
~A
# ...
  2503.000 
  9.8630  95.637  0.3580  0.3200  0.0150  110.19  11.440  129.76  93.664 
 -13.762  4.2650  4.3830  3.2250  2.1220  3.2250  4.2650  4.3830  93.664 
 -17.105  2.1235  0.0171  9.8791  91.268  0.3700  11.468  99.432  3.5091 
  4.2875  4.3800  2.1301  94.916  0.3757 
  2503.500 
  9.8790  91.304  0.3740  0.3190  0.0170  103.25  11.459  129.15  92.167 
 -15.140  4.4170  4.3610  3.7680  2.1237  3.7680  4.4170  4.3610  92.167 
 -18.481  2.1187  0.0211  9.8861  89.631  0.3660  11.476  93.787  4.0933 
  4.4413  4.3581  2.1253  93.235  0.3709 
  2504.000 
  9.8860  89.631  0.3700  0.3220  0.0210  96.822  11.474  128.83  89.444 
 -17.032  4.5250  4.4920  4.3870  2.1187  4.3870  4.5250  4.4920  89.444 
 -20.370  2.1188  0.0240  9.8931  89.623  0.3720  11.476  89.089  4.7589 
  4.5506  4.4889  2.1254  93.249  0.3781 
  2504.500 
  9.8930  89.626  0.3660  0.3220  0.0240  91.823  11.477  131.57  85.453 
 -18.607  4.6610  4.6270  4.9330  2.1187  4.9330  4.6610  4.6270  85.453 
 -21.943  2.1221  0.0270  9.8971  89.453  0.3750  11.479  84.926  5.3456 
  4.6882  4.6237  2.1288  93.084  0.3817 
  2505.000 
  9.8970  89.463  0.3720  0.3200  0.0270  87.417  11.476  133.82  82.016 
 -19.035  4.8010  4.7490  5.5270  2.1220  5.5270  4.8010  4.7490  82.016 
 -22.368  2.1286  0.0290  9.9009  88.648  0.3690  11.482  82.916  5.9835 
  4.8300  4.7455  2.1353  92.258  0.3745 
  2505.500 
  9.9010  88.664  0.3750  0.3160  0.0290  83.487  11.480  136.56  76.877 
 -19.897  4.8910  4.8820  5.8290  2.1286  5.8290  4.8910  4.8820  76.877 
 -23.228  2.1268  0.0310  9.8920  87.007  0.3680  11.492  85.190  6.3061 
  4.9209  4.8783  2.1334  90.523  0.3733 
  2506.000 
  9.8920  87.031  0.3690  0.3170  0.0310  82.605  11.483  139.14  73.758 
 -20.206  4.9650  4.9650  5.9280  2.1270  5.9280  4.9650  4.9650  73.758 
 -23.534  2.1070  0.0300  9.8880  83.436  0.3830  11.510  90.329  6.4117 
  4.9957  4.9612  2.1136  86.797  0.3914 
  2506.500 
  9.8880  83.453  0.3680  0.3290  0.0300  86.519  11.497  140.80  72.261 
 -19.801  4.9940  5.0130  5.7700  2.1072  5.7700  4.9940  5.0130  72.261 
 -23.127  2.0791  0.0280  9.8870  79.156  0.3940  11.526  94.778  6.2421 
  5.0251  5.0091  2.0857  82.341  0.4047 
  2507.000 
  9.8870  79.159  0.3830  0.3460  0.0280  92.173  11.516  137.82  70.844 
 -18.566  4.9510  4.9960  5.3750  2.0791  5.3750  4.9510  4.9960  70.844 
 -21.890  2.0725  0.0240  9.8950  75.707  0.3900  11.544  96.930  5.8196 
  4.9817  4.9922  2.0792  78.775  0.3999 
  2507.500 
  9.8950  75.700  0.3940  0.3500  0.0240  95.964  11.531  136.63  70.932 
 -16.419  4.6540  4.6120  5.4160  2.0725  5.4160  4.6540  4.6120  70.932 
 -19.740  2.0725  0.0190  9.9059  74.984  0.3740  11.555  103.08  5.8651 
  4.6813  4.6087  2.0792  78.050  0.3805 
  2508.000 
  9.9060  74.980  0.3900  0.3500  0.0190  97.343  11.550  136.91  75.613 
 -13.243  4.1120  3.9280  5.3890  2.0725  5.3890  4.1120  3.9280  75.613 
 -16.562  2.0889  0.0279  9.9328  79.074  0.3670  11.565  111.04  5.8397 
  4.1337  3.9257  2.0958  82.382  0.3721 
  2508.500 
  9.9330  79.106  0.3740  0.3400  0.0280  105.37  11.557  139.16  88.015 
 -10.067  3.5600  3.4260  4.5400  2.0890  4.5400  3.5600  3.4260  88.015 
 -13.383  2.1070  0.0369  9.9528  87.431  0.3740  11.561  114.39  4.9295 
  3.5765  3.4242  2.1140  91.148  0.3806 
  2509.000 
  9.9530  87.521  0.3670  0.3290  0.0370  113.17  11.568  141.05  98.595 
 -6.8900  2.9830  3.1510  3.2330  2.1072  3.2330  2.9830  3.1510  98.595 
 -10.204  2.1088  0.0350  9.9757  97.074  0.4600  11.427  112.01  3.5238 
  2.9947  3.1495  2.1160  101.28  0.4845 
  2509.500 
  9.9760  97.206  0.3740  0.3280  0.0350  114.82  11.559  141.39  105.02 
 -5.2580  2.5590  2.9350  2.2400  2.1088  2.2400  2.5590  2.9350  105.02 
 -8.5692  2.0991  0.0380  9.9996  101.73  0.4770  11.316  106.95  2.4532 
  2.5678  2.9337  2.1065  106.22  0.5051 
  2510.000 
  10.000  101.81  0.4600  0.3340  0.0380  111.09  11.384  134.30  103.40 
 -4.5780  2.4640  2.7850  1.7990  2.0989  1.7990  2.4640  2.7850  103.40 
 -7.8868  2.0860  0.0419  10.026  100.25  0.5060  11.401  102.72  1.9775 
  2.4723  2.7839  2.0935  104.76  0.5402 
  2510.500 
  10.027  100.21  0.4770  0.3420  0.0420  105.69  11.296  131.63  100.88 
 -3.8570  2.4420  2.6570  1.8500  2.0857  1.8500  2.4420  2.6570  100.88 
 -7.1633  2.0776  0.0391  10.050  98.541  0.5160  11.436  99.515  2.0331 
  2.4502  2.6560  2.0854  103.06  0.5523 
  2511.000 
  10.051  98.503  0.5060  0.3470  0.0390  101.88  11.430  129.79  99.579 
 -3.4920  2.4430  2.5620  2.0610  2.0775  2.0610  2.4430  2.5620  99.579 
 -6.7958  2.0726  0.0254  10.077  99.815  0.5020  11.410  96.944  2.2620 
  2.4514  2.5611  2.0806  104.49  0.5354 
  2511.500 
  10.078  99.849  0.5160  0.3500  0.0250  98.901  11.437  129.26  98.122 
 -3.0870  2.4580  2.4620  2.4000  2.0725  2.4000  2.4580  2.4620  98.122 
 -6.3884  2.0741  0.0221  10.108  102.85  0.4810  11.416  96.697  2.6301 
  2.4666  2.4612  2.0822  107.78  0.5101 
  2512.000 
  10.109  102.94  0.5020  0.3490  0.0220  96.477  11.404  130.33  95.358 
 -2.9990  2.4670  2.4680  2.5830  2.0742  2.5830  2.4670  2.4680  95.358 
 -6.2979  2.0949  0.0385  10.125  103.13  0.4640  11.471  100.27  2.8291 
  2.4758  2.4672  2.1032  108.12  0.4896 
  2512.500 
  10.125  103.14  0.4810  0.3360  0.0390  96.745  11.419  131.23  89.031 
 -3.1500  2.5740  2.5370  2.4020  2.0956  2.4020  2.5740  2.5370  89.031 
 -6.4465  2.1163  0.0535  10.143  99.564  0.4610  11.531  104.73  2.6336 
  2.5837  2.5361  2.1247  104.45  0.4860 
  2513.000 
  10.144  99.438  0.4640  0.3230  0.0540  100.97  11.481  130.98  86.822 
 -3.3390  2.6760  2.6760  2.3380  2.1171  2.3380  2.6760  2.6760  86.822 
 -6.6330  2.1250  0.0588  10.162  93.354  0.4520  11.553  106.00  2.5649 
  2.6866  2.6750  2.1335  97.994  0.4751 
  2513.500 
  10.163  93.120  0.4610  0.3180  0.0590  105.40  11.540  130.72  88.771 
 -3.6080  2.7220  2.7670  2.6670  2.1253  2.6670  2.7220  2.7670  88.771 
 -6.8996  2.1380  0.0552  10.175  90.179  0.4330  11.554  106.02  2.9224 
  2.7330  2.7660  2.1466  94.699  0.4522 
  2514.000 
  10.175  90.057  0.4520  0.3100  0.0550  106.10  11.555  131.36  95.115 
 -3.9560  2.7780  2.8240  3.0160  2.1385  3.0160  2.7780  2.8240  95.115 
 -7.2451  2.1464  0.0550  10.174  92.144  0.4210  11.535  106.74  3.3010 
  2.7894  2.8229  2.1550  96.761  0.4377 
  2514.500 
  10.174  92.237  0.4330  0.3050  0.0550  106.01  11.554  132.63  99.122 
 -4.0650  2.8610  2.8980  3.0280  2.1467  3.0280  2.8610  2.8980  99.122 
 -7.3516  2.1578  0.0645  10.174  96.326  0.4270  11.521  107.90  3.3140 
  2.8731  2.8969  2.1664  101.15  0.4449 
  2515.000 
  10.174  96.522  0.4210  0.2980  0.0650  106.84  11.533  133.33  99.210 
 -4.2150  2.9260  2.9580  2.6700  2.1583  2.6700  2.9260  2.9580  99.210 
 -7.4992  2.1661  0.0745  10.173  100.07  0.4320  11.523  108.48  2.9256 
  2.9387  2.9568  2.1747  105.08  0.4510 
  2515.500 
  10.173  100.25  0.4270  0.2930  0.0750  108.02  11.520  128.30  95.853 
 -4.3670  3.0250  3.1150  2.2410  2.1666  2.2410  3.0250  3.1150  95.853 
 -7.6487  2.1697  0.0807  10.146  100.43  0.4260  11.529  101.94  2.4591 
  3.0384  3.1137  2.1781  105.37  0.4437 
  2516.000 
  10.145  100.44  0.4320  0.2910  0.0810  108.52  11.523  125.95  90.951 
 -6.4570  3.1500  3.2790  2.3820  2.1699  2.3820  3.1500  3.2790  90.951 
 -9.7363  2.1652  0.0791  10.100  99.050  0.4130  11.540  96.309  2.6103 
  3.1641  3.2775  2.1733  103.76  0.4279 
  2516.500 
  10.097  98.970  0.4260  0.2940  0.0790  101.42  11.530  125.08  85.654 
 -8.0330  3.4020  3.4590  3.1920  2.1649  3.1920  3.4020  3.4590  85.654 
 -11.310  2.1493  0.0639  10.029  97.169  0.3950  11.551  95.297  3.4829 
  3.4178  3.4573  2.1569  101.56  0.4061 
  2517.000 
  10.025  97.059  0.4130  0.3040  0.0630  95.989  11.541  125.19  83.682 
 -11.984  3.6750  3.7500  4.3320  2.1484  4.3320  3.6750  3.7500  83.682 
 -15.258  2.1282  0.0423  9.9348  94.405  0.3790  11.533  95.067  4.7040 
  3.6923  3.7479  2.1352  98.361  0.3866 
