~Version Information
VERS.                     2.0: CWLS log ASCII Standard Version 2.00
WRAP.                      NO: One line per depth step
~Well Information Block
#MNEM.UNIT                               Data Type  Information
#---------                               ---------  -----------
STRT.FT                                   318.0000:
STOP.FT                                  2700.0000:
STEP.FT                                     0.5000:
NULL.                 -999.25                     :
COMP.                                             :COMPANY            
WELL.     LOS LOBOS 82X-30                        :WELL               
FLD .                                             :FIELD              
CTRY.                                             :COUNTRY            
STAT.                                             :STATE              
LOC .                                             :LOCATION           
UWI .                                             :UNIQUE WELL ID     
SRVC.                                             :Service company    
DATE.                                             :LOG DATE           
~Curve Information
#MNEM.UNIT           API CODE  Curve Description
#---------           --------  -----------------
DEPT.FT                      :   1 DEPTH
SP  .MV                      :   2
ILD .OHMM                    :   3
ILM .OHMM                    :   4
SFLU.OHMM                    :   5
CALI.IN                      :   6
GR  .GAPI                    :   7
NPHI.PU-S                    :   8
DPHI.PU-S                    :   9
DRHO.G/C3                    :  10
CALI.IN                      :  11
DT  .US/F                    :  12
SBL .MV                      :  13
RS  .OHMM                    :  14
RM  .OHMM                    :  15
RD  .OHMM                    :  16
DTS .US/F                    :  17
CALS.IN                      :  18
RHOB.G/C3                    :  19
ROBS.G/C3                    :  20
DROS.G/C3                    :  21
CALS.IN                      :  22
GRS .GAPI                    :  23
NPHS.PU-S                    :  24
SFLU.OHMM                    :  25
ILMC.OHMM                    :  26
ILDC.OHMM                    :  27
ROBC.G/C3                    :  28
GRC .GAPI                    :  29
NPHC.PU-S                    :  30
~A
# ...
  1737.000 -4.8070  2.1630  2.1790  2.3870  7.6590  69.822  0.4580  0.3550  0.0450  6.9660  151.91 -11.648  2.3870  2.1790  2.1630  153.21  7.0002  2.0643  2.0206  0.0293  7.6578  67.647  0.4614  2.4754  2.1774  2.1605  2.0206  64.676  0.4492 
  1737.500 -4.2510  2.2150  2.2560  2.6690  7.6350  71.558  0.4510  0.3540  0.0520  6.9460  152.76 -11.105  2.6690  2.2560  2.2150  152.08  6.9776  2.0659  2.0540  0.0353  7.6809  68.609  0.4536  2.7594  2.2543  2.2124  2.0540  65.658  0.4404 
  1738.000 -4.1710  2.2620  2.3320  2.7360  7.6040  75.193  0.4500  0.3530  0.0570  6.9370  152.53 -11.037  2.7360  2.3320  2.2620  152.24  6.9583  2.0676  2.0626  0.0419  7.6714  70.157  0.4504  2.8259  2.3302  2.2593  2.0626  67.113  0.4368 
  1738.500 -4.0890  2.3110  2.3830  2.8040  7.5720  76.849  0.4500  0.3560  0.0610  6.9280  151.96 -10.968  2.8040  2.3830  2.3110  152.67  6.9426  2.0626  2.0651  0.0485  7.6472  72.249  0.4500  2.8923  2.3810  2.3082  2.0651  69.046  0.4364 
  1739.000 -4.1270  2.3360  2.4010  2.7790  7.5660  78.506  0.4500  0.3730  0.0640  6.9230  151.80 -11.018  2.7790  2.4010  2.3360  152.31  6.9336  2.0346  2.0667  0.0545  7.6195  75.503  0.4500  2.8656  2.3989  2.3331  2.0667  72.073  0.4363 
  1739.500 -4.2050  2.3620  2.4190  2.6970  7.5610  76.888  0.4520  0.3840  0.0650  6.9170  153.05 -11.109  2.6970  2.4190  2.3620  151.90  6.9261  2.0164  2.0650  0.0590  7.5877  77.153  0.4513  2.7817  2.4168  2.3590  2.0650  73.553  0.4378 
  1740.000 -4.2830  2.3450  2.4080  2.6170  7.5450  75.271  0.4830  0.3930  0.0660  6.9000  154.65 -11.200  2.6170  2.4080  2.3450  152.26  6.9208  2.0016  2.0481  0.0626  7.5689  78.214  0.4719  2.7006  2.4057  2.3420  2.0481  74.507  0.4609 
  1740.500 -4.0830  2.3260  2.3970  2.1290  7.5410  68.094  0.5080  0.3960  0.0580  6.8890  156.42 -11.012  2.1290  2.3970  2.3260  153.63  6.9108  1.9966  2.0250  0.0645  7.5634  76.601  0.4992  2.2123  2.3947  2.3231  2.0250  72.954  0.4915 
  1741.000 -3.8830  2.3070  2.3460  2.0410  7.5420  67.704  0.5230  0.3890  0.0390  6.8780  157.62 -10.825  2.0410  2.3460  2.3070  155.29  6.8960  2.0082  2.0085  0.0655  7.5525  74.020  0.5178  2.1236  2.3438  2.3041  2.0085  70.464  0.5124 
  1741.500 -3.7230  2.2720  2.2950  2.0490  7.5420  69.757  0.5140  0.3680  0.0300  6.8560  157.29 -10.677  2.0490  2.2950  2.2720  156.85  6.8851  2.0428  1.9989  0.0617  7.5428  68.027  0.5171  2.1312  2.2929  2.2692  1.9989  64.733  0.5117 
  1742.000 -3.7800  2.2370  2.2700  2.1220  7.5410  72.366  0.5070  0.3590  0.0330  6.8480  154.06 -10.747  2.1220  2.2700  2.2370  157.51  6.8702  2.0577  2.0030  0.0475  7.5416  68.049  0.5094  2.2043  2.2679  2.2343  2.0030  64.750  0.5030 
  1742.500 -3.8380  2.2310  2.2460  2.1910  7.5420  69.604  0.5190  0.3590  0.0360  6.8410  152.57 -10.818  2.1910  2.2460  2.2310  156.16  6.8532  2.0577  2.0275  0.0340  7.5420  70.187  0.5149  2.2734  2.2440  2.2283  2.0275  66.786  0.5092 
  1743.000 -3.9950  2.2240  2.2310  2.2620  7.5380  67.786  0.5400  0.3730  0.0390  6.8380  151.69 -10.987  2.2620  2.2310  2.2240  153.54  6.8456  2.0346  2.0512  0.0317  7.5414  71.920  0.5330  2.3444  2.2290  2.2213  2.0512  68.433  0.5295 
  1743.500 -4.1510  2.2170  2.2180  2.3810  7.5560  68.819  0.5450  0.3900  0.0420  6.8340  150.50 -11.156  2.3810  2.2180  2.2170  152.27  6.8400  2.0065  2.0577  0.0347  7.5416  69.316  0.5433  2.4634  2.2160  2.2143  2.0577  65.956  0.5411 
  1744.000 -3.6340  2.1940  2.2040  2.3600  7.5730  71.185  0.5360  0.3930  0.0420  6.8300  149.96 -10.651  2.3600  2.2040  2.1940  151.29  6.8366  2.0016  2.0442  0.0377  7.5397  67.946  0.5389  2.4423  2.2020  2.1914  2.0442  64.648  0.5362 
  1744.500 -3.3360  2.1840  2.1900  2.1740  7.5770  73.158  0.5280  0.3730  0.0400  6.8200  149.42 -10.366  2.1740  2.1900  2.1840  150.32  6.8327  2.0346  2.0180  0.0408  7.5486  69.179  0.5306  2.2567  2.1881  2.1814  2.0180  65.845  0.5268 
  1745.000 -3.0380  2.1740  2.1740  2.0580  7.5810  75.130  0.4820  0.3550  0.0360  6.8150  148.87 -10.081  2.0580  2.1740  2.1740  149.78  6.8267  2.0643  2.0035  0.0420  7.5662  71.479  0.4967  2.1412  2.1721  2.1714  2.0035  68.083  0.4888 
  1745.500 -2.7190  2.1860  2.1580  2.1540  7.5420  77.585  0.4590  0.3420  0.0420  6.8100  146.84 -9.7741  2.1540  2.1580  2.1860  149.24  6.8184  2.0857  2.0216  0.0408  7.5754  73.445  0.4663  2.2378  2.1562  2.1834  2.0216  69.983  0.4546 
  1746.000 -2.7170  2.1960  2.1740  2.2430  7.4830  78.775  0.4450  0.3360  0.0560  6.8040  143.97 -9.7847  2.2430  2.1740  2.1960  148.21  6.8134  2.0956  2.0528  0.0375  7.5795  75.480  0.4494  2.3272  2.1722  2.1934  2.0528  71.934  0.4356 
  1746.500 -2.7150  2.2070  2.1900  2.3350  7.4400  77.592  0.4520  0.3380  0.0580  6.7990  143.14 -9.7953  2.3350  2.1900  2.2070  145.92  6.8081  2.0923  2.0776  0.0397  7.5567  77.751  0.4498  2.4182  2.1881  2.2044  2.0776  74.028  0.4361 
  1747.000 -2.5940  2.2270  2.2350  2.3960  7.4240  75.537  0.4700  0.3420  0.0590  6.7960  142.99 -9.6869  2.3960  2.2350  2.2270  143.71  6.8024  2.0857  2.0920  0.0508  7.5047  78.614  0.4645  2.4764  2.2329  2.2243  2.0920  74.690  0.4526 
  1747.500 -2.2760  2.2270  2.2480  2.3440  7.4360  73.250  0.4790  0.3400  0.0560  6.7920  143.63 -9.3815  2.3440  2.2480  2.2270  143.09  6.7981  2.0890  2.0935  0.0573  7.4555  77.318  0.4763  2.4220  2.2457  2.2242  2.0935  73.309  0.4658 
  1748.000 -1.6010  2.2030  2.2050  2.2850  7.4580  77.042  0.4750  0.3220  0.0700  6.7910  145.16 -8.7191  2.2850  2.2050  2.2030  143.19  6.7948  2.1187  2.0880  0.0586  7.4296  75.240  0.4762  2.3619  2.2027  2.2003  2.0880  71.261  0.4656 
  1748.500 -0.9660  2.1790  2.1630  2.2070  7.4790  80.991  0.4770  0.3130  0.0780  6.7890  145.31 -8.0967  2.2070  2.1630  2.1790  144.10  6.7917  2.1336  2.0879  0.0570  7.4319  73.731  0.4764  2.2843  2.1608  2.1764  2.0879  69.838  0.4659 
  1749.000 -0.4900  2.1210  2.0840  2.1210  7.5230  80.365  0.4860  0.3130  0.0820  6.7940  145.47 -7.6333  2.1210  2.0840  2.1210  145.20  6.7904  2.1336  2.1087  0.0653  7.4506  77.530  0.4834  2.1993  2.0820  2.1185  2.1087  73.495  0.4737 
  1749.500 -0.0130  2.0670  2.0080  2.0300  7.5660  76.576  0.4840  0.3270  0.0550  6.7990  146.36 -7.1689  2.0300  2.0080  2.0670  145.36  6.7905  2.1105  2.1287  0.0754  7.4721  80.916  0.4846  2.1093  2.0062  2.0646  2.1287  76.772  0.4751 
  1750.000  0.0290  2.0190  1.9780  1.9360  7.5940  72.156  0.4720  0.3490  0.0330  6.8010  148.10 -7.1395  1.9360  1.9780  2.0190  145.73  6.7955  2.0742  2.1336  0.0807  7.5089  79.921  0.4754  2.0166  1.9763  2.0168  2.1336  75.944  0.4648 
  1750.500 -0.2490  1.9770  1.9500  1.8950  7.6220  69.167  0.4680  0.3480  0.0260  6.8030  148.93 -7.4301  1.8950  1.9500  1.9770  146.87  6.7996  2.0758  2.1176  0.0634  7.5526  76.072  0.4691  1.9771  1.9485  1.9749  2.1176  72.417  0.4578 
  1751.000 -0.5670  1.9350  1.9200  1.8560  7.6330  67.912  0.4690  0.3350  0.0200  6.8090  146.64 -7.7607  1.8560  1.9200  1.9350  148.34  6.8016  2.0972  2.0852  0.0397  7.5855  71.824  0.4687  1.9392  1.9186  1.9330  2.0852  68.467  0.4573 
  1751.500 -0.6080  1.9180  1.8900  1.8540  7.6430  71.316  0.4760  0.3280  0.0390  6.8150  144.14 -7.8143  1.8540  1.8900  1.9180  148.28  6.8047  2.1088  2.0753  0.0281  7.6137  69.032  0.4741  1.9381  1.8887  1.9160  2.0753  65.881  0.4634 
  1752.000 -0.0950  1.9140  1.9070  1.8520  7.6510  76.223  0.4790  0.3220  0.0470  6.8210  142.97 -7.3139  1.8520  1.9070  1.9140  145.94  6.8107  2.1187  2.0911  0.0217  7.6298  68.268  0.4782  1.9367  1.9057  1.9120  2.0911  65.195  0.4680 
  1752.500  0.2990  1.9460  1.9350  1.9280  7.6600  78.600  0.4890  0.3160  0.0590  6.8280  142.74 -6.9325  1.9280  1.9350  1.9460  143.81  6.8167  2.1286  2.1056  0.0337  7.6402  71.814  0.4864  2.0136  1.9337  1.9440  2.1056  68.611  0.4772 
  1753.000  0.6940  2.0150  1.9780  2.0000  7.6610  77.826  0.4990  0.3090  0.0610  6.8240  149.60 -6.5501  2.0000  1.9780  2.0150  142.90  6.8229  2.1402  2.1160  0.0448  7.6488  76.457  0.4964  2.0863  1.9766  2.0128  2.1160  73.072  0.4885 
