~Version Information
VERS.                     2.0: CWLS log ASCII Standard Version 2.00
WRAP.                     YES: Multiple lines per depth step
~Well Information Block
#MNEM.UNIT                               Data Type  Information
#---------                               ---------  -----------
STRT.FT                                   805.0000:
STOP.FT                                  5010.0000:
STEP.FT                                     0.5000:
NULL.                 -999.25                     :
COMP.                                             :COMPANY            
WELL.     SANTIAGO C 55-28                        :WELL               
FLD .                                             :FIELD              
CTRY.                                             :COUNTRY            
STAT.                                             :STATE              
LOC .                                             :LOCATION           
UWI .                                             :UNIQUE WELL ID     
SRVC.                                             :Service company    
DATE.                                             :LOG DATE           
~Curve Information
#MNEM.UNIT           API CODE  Curve Description
#---------           --------  -----------------
DEPT.FT                      :   1 DEPTH
CALI.IN                      :   2
GR  .GAPI                    :   3
NPHI.PU-S                    :   4
DPHI.PU-S                    :   5
DRHO.G/C3                    :   6
SP  .MV                      :   7
ILD .OHMM                    :   8
ILM .OHMM                    :   9
SFLU.OHMM                    :  10
LLD .OHMM                    :  11
LLS .OHMM                    :  12
MSFL.OHMM                    :  13
DT  .US/F                    :  14
SPHI.                        :  15
KSCI.                        :  16
PSCI.                        :  17
OSCI.                        :  18
WSCI.                        :  19
KWCI.                        :  20
PWCI.                        :  21
OWCI.                        :  22
WWCI.                        :  23
SBL .MV                      :  24
RS  .OHMM                    :  25
RM  .OHMM                    :  26
RD  .OHMM                    :  27
DTS .US/F                    :  28
RHOB.G/C3                    :  29
ROBS.G/C3                    :  30
DROS.G/C3                    :  31
CALS.IN                      :  32
GRS .GAPI                    :  33
NPHS.PU-S                    :  34
SFLU.OHMM                    :  35
ILMC.OHMM                    :  36
ILDC.OHMM                    :  37
ROBC.G/C3                    :  38
GRC .GAPI                    :  39
NPHC.PU-S                    :  40
~A
# ...
  1993.000 
 -999.25 -999.25 -999.25 -999.25 -999.25 -28.845  3.4610  3.2160  2.8900 
 -999.25 -999.25 -999.25  125.94 -999.25 -999.25 -999.25 -999.25 -999.25 
 -999.25 -999.25 -999.25 -999.25 -4.7568  2.8900  3.2160  3.4610  132.06 
 -999.25 -999.25 -999.25 -999.25 -999.25 -999.25  2.8900  3.2160  3.4610 
 -999.25 -999.25 -999.25 
  1993.500 
 -999.25 -999.25 -999.25 -999.25 -999.25 -28.813  3.4940  3.2890  2.9400 
 -999.25 -999.25 -999.25  124.30 -999.25 -999.25 -999.25 -999.25 -999.25 
 -999.25 -999.25 -999.25 -999.25 -4.7268  2.9400  3.2890  3.4940  130.70 
 -999.25 -999.25 -999.25 -999.25 -999.25 -999.25  2.9400  3.2890  3.4940 
 -999.25 -999.25 -999.25 
  1994.000 
 -999.25 -999.25 -999.25 -999.25 -999.25 -28.661  3.5210  3.3320  2.9680 
 -999.25 -999.25 -999.25  123.07 -999.25 -999.25 -999.25 -999.25 -999.25 
 -999.25 -999.25 -999.25 -999.25 -4.5767  2.9680  3.3320  3.5210  129.01 
 -999.25 -999.25 -999.25 -999.25 -999.25 -999.25  2.9680  3.3320  3.5210 
 -999.25 -999.25 -999.25 
  1994.500 
 -999.25 -999.25 -999.25 -999.25 -999.25 -28.629  3.5490  3.3960  3.0020 
 -999.25 -999.25 -999.25  123.12 -999.25 -999.25 -999.25 -999.25 -999.25 
 -999.25 -999.25 -999.25 -999.25 -4.5467  3.0020  3.3960  3.5490  128.20 
 -999.25 -999.25 -999.25 -999.25 -999.25 -999.25  3.0020  3.3960  3.5490 
 -999.25 -999.25 -999.25 
  1995.000 
 -999.25 -999.25 -999.25 -999.25 -999.25 -28.597  3.5830  3.4600  3.0870 
 -999.25 -999.25 -999.25  126.11 -999.25 -999.25 -999.25 -999.25 -999.25 
 -999.25 -999.25 -999.25 -999.25 -4.5166  3.0870  3.4600  3.5830  127.15 
 -999.25 -999.25 -999.25 -999.25 -999.25 -999.25  3.0870  3.4600  3.5830 
 -999.25 -999.25 -999.25 
  1995.500 
 -999.25 -999.25 -999.25 -999.25 -999.25 -28.565  3.6170  3.5320  3.2160 
 -999.25 -999.25 -999.25  128.63 -999.25 -999.25 -999.25 -999.25 -999.25 
 -999.25 -999.25 -999.25 -999.25 -4.4866  3.2160  3.5320  3.6170  125.85 
 -999.25 -999.25 -999.25 -999.25 -999.25 -999.25  3.2160  3.5320  3.6170 
 -999.25 -999.25 -999.25 
  1996.000 
 -999.25 -999.25 -999.25 -999.25 -999.25 -28.573  3.6590  3.5590  3.3250 
 -999.25 -999.25 -999.25  130.87 -999.25 -999.25 -999.25 -999.25 -999.25 
 -999.25 -999.25 -999.25 -999.25 -4.4966  3.3250  3.5590  3.6590  125.02 
 -999.25 -999.25 -999.25 -999.25 -999.25 -999.25  3.3250  3.5590  3.6590 
 -999.25 -999.25 -999.25 
  1996.500 
 -999.25 -999.25 -999.25 -999.25 -999.25 -28.741  3.6800  3.6000  3.4190 
 -999.25 -999.25 -999.25  131.40 -999.25 -999.25 -999.25 -999.25 -999.25 
 -999.25 -999.25 -999.25 -999.25 -4.6665  3.4190  3.6000  3.6800  125.25 
 -999.25 -999.25 -999.25 -999.25  96.752 -999.25  3.4190  3.6000  3.6800 
 -999.25  96.752 -999.25 
  1997.000 
 -999.25 -999.25 -999.25 -999.25 -999.25 -28.868  3.7090  3.6210  3.5030 
 -999.25 -999.25 -999.25  128.44 -999.25 -999.25 -999.25 -999.25 -999.25 
 -999.25 -999.25 -999.25 -999.25 -4.7955  3.5030  3.6210  3.7090  127.05 
 -999.25 -999.25 -999.25 -999.25  97.275 -999.25  3.5030  3.6210  3.7090 
 -999.25  97.275 -999.25 
  1997.500 
 -999.25 -999.25 -999.25 -999.25 -999.25 -29.036  3.7450  3.6360  3.5440 
 -999.25 -999.25 -999.25  126.96 -999.25 -999.25 -999.25 -999.25 -999.25 
 -999.25 -999.25 -999.25 -999.25 -4.9654  3.5440  3.6360  3.7450  129.01 
 -999.25 -999.25 -999.25 -999.25  98.863  0.4800  3.5440  3.6360  3.7450 
 -999.25  98.863  0.4650 
  1998.000 
 -999.25 -999.25 -999.25 -999.25 -999.25 -29.084  3.7870  3.6640  3.5320 
 -999.25 -999.25 -999.25  125.43 -999.25 -999.25 -999.25 -999.25 -999.25 
 -999.25 -999.25 -999.25 -999.25 -5.0154  3.5320  3.6640  3.7870  128.56 
 -999.25  2.2359  0.0710  10.257  100.58  0.4750  3.5320  3.6640  3.7870 
  2.2450  106.38  0.4605 
  1998.500 
 -999.25 -999.25 -999.25 -999.25 -999.25 -29.331  3.8170  3.6930  3.4500 
 -999.25 -999.25 -999.25  124.96 -999.25 -999.25 -999.25 -999.25 -999.25 
 -999.25 -999.25 -999.25 -999.25 -5.2644  3.4500  3.6930  3.8170  125.94 
 -999.25  2.2144  0.0730  10.284  102.11  0.4800  3.4500  3.6930  3.8170 
  2.2238  108.09  0.4661 
  1999.000 
 -999.25 -999.25 -999.25 -999.25 -999.25 -29.379  3.8540  3.7350  3.3510 
 -999.25 -999.25 -999.25  126.21 -999.25 -999.25 -999.25 -999.25 -999.25 
 -999.25 -999.25 -999.25 -999.25 -5.3143  3.3510  3.7350  3.8540  124.30 
 -999.25  2.1963  0.0710  10.196  101.44  0.4830  3.3510  3.7350  3.8540 
  2.2050  107.08  0.4694 
  1999.500 
 -999.25 -999.25 -999.25 -999.25 -999.25 -29.148  3.8760  3.7640  3.3580 
 -999.25 -999.25 -999.25  126.91 -999.25 -999.25 -999.25 -999.25 -999.25 
 -999.25 -999.25 -999.25 -999.25 -5.0853  3.3580  3.7640  3.8760  123.07 
 -999.25  2.1732  0.0600  10.084  99.710  0.4800  3.3580  3.7640  3.8760 
  2.1811  104.87  0.4660 
  2000.000 
  10.257  96.752  0.4800  0.2510  0.0710 -28.717  3.9060  3.7860  3.4410 
 -999.25 -999.25 -999.25  125.42 -999.25 -999.25 -999.25 -999.25 -999.25 
 -999.25 -999.25 -999.25 -999.25 -4.6562  3.4410  3.7860  3.9060  123.12 
  2.2359  2.1583  0.0490  10.016  98.450  0.4730  3.4410  3.7860  3.9060 
  2.1658  103.31  0.4582 
  2000.500 
  10.284  97.275  0.4750  0.2640  0.0730 -28.521  3.9110  3.8180  3.4890 
 -999.25 -999.25 -999.25  124.32 -999.25 -999.25 -999.25 -999.25 -999.25 
 -999.25 -999.25 -999.25 -999.25 -4.4622  3.4890  3.8180  3.9110  126.11 
  2.2144  2.1484  0.0480  9.9520  100.76  0.4650  3.4890  3.8180  3.9110 
  2.1555  105.50  0.4493 
  2001.000 
  10.196  98.863  0.4800  0.2750  0.0710 -28.405  3.9290  3.8510  3.4990 
 -999.25 -999.25 -999.25  124.18 -999.25 -999.25 -999.25 -999.25 -999.25 
 -999.25 -999.25 -999.25 -999.25 -4.3482  3.4990  3.8510  3.9290  128.63 
  2.1963  2.1534  0.0500  9.9240  104.54  0.4590  3.4990  3.8510  3.9290 
  2.1602  109.37  0.4426 
  2001.500 
  10.084  100.58  0.4830  0.2890  0.0600 -28.370  3.9480  3.8760  3.4970 
 -999.25 -999.25 -999.25  125.18 -999.25 -999.25 -999.25 -999.25 -999.25 
 -999.25 -999.25 -999.25 -999.25 -4.3151  3.4970  3.8760  3.9480  130.87 
  2.1732  2.1550  0.0480  9.9310  106.37  0.4700  3.4970  3.8760  3.9480 
  2.1619  111.31  0.4548 
  2002.000 
  10.016  102.11  0.4800  0.2980  0.0490 -28.334  3.9670  3.9090  3.5010 
 -999.25 -999.25 -999.25  125.76 -999.25 -999.25 -999.25 -999.25 -999.25 
 -999.25 -999.25 -999.25 -999.25 -4.2811  3.5010  3.9090  3.9670  131.40 
  2.1583  2.1402  0.0420  10.017  105.11  0.4790  3.5010  3.9090  3.9670 
  2.1477  110.31  0.4649 
  2002.500 
  9.9520  101.44  0.4730  0.3040  0.0480 -28.178  3.9930  3.9280  3.5110 
 -999.25 -999.25 -999.25  123.27 -999.25 -999.25 -999.25 -999.25 -999.25 
 -999.25 -999.25 -999.25 -999.25 -4.1270  3.5110  3.9280  3.9930  128.44 
  2.1484  2.1435  0.0420  10.064  102.96  0.4880  3.5110  3.9280  3.9930 
  2.1513  108.22  0.4749 
  2003.000 
  9.9240  99.710  0.4650  0.3010  0.0500 -28.142  4.0350  3.9390  3.5280 
 -999.25 -999.25 -999.25  122.03 -999.25 -999.25 -999.25 -999.25 -999.25 
 -999.25 -999.25 -999.25 -999.25 -4.0930  3.5280  3.9390  4.0350  126.96 
  2.1534  2.1567  0.0490  10.102  101.11  0.5050  3.5280  3.9390  4.0350 
  2.1648  106.40  0.4939 
  2003.500 
  9.9310  98.450  0.4590  0.3000  0.0480 -28.066  4.0690  3.9660  3.5250 
 -999.25 -999.25 -999.25  120.95 -999.25 -999.25 -999.25 -999.25 -999.25 
 -999.25 -999.25 -999.25 -999.25 -4.0190  3.5250  3.9660  4.0690  125.43 
  2.1550  2.1649  0.0540  10.094  102.64  0.5250  3.5250  3.9660  4.0690 
  2.1729  107.98  0.5161 
  2004.000 
  10.017  100.76  0.4700  0.3090  0.0420 -27.911  4.1260  3.9920  3.5160 
 -999.25 -999.25 -999.25  120.13 -999.25 -999.25 -999.25 -999.25 -999.25 
 -999.25 -999.25 -999.25 -999.25 -3.8659  3.5160  3.9920  4.1260  124.96 
  2.1402  2.1748  0.0590  10.069  105.01  0.5060  3.5160  3.9920  4.1260 
  2.1827  110.38  0.4950 
  2004.500 
  10.064  104.54  0.4790  0.3070  0.0420 -27.875  4.1840  4.0190  3.5270 
 -999.25 -999.25 -999.25  121.07 -999.25 -999.25 -999.25 -999.25 -999.25 
 -999.25 -999.25 -999.25 -999.25 -3.8319  3.5270  4.0190  4.1840  126.21 
  2.1435  2.1847  0.0620  10.037  103.45  0.4870  3.5270  4.0190  4.1840 
  2.1923  108.63  0.4738 
