~Version Information
VERS.                     2.0: CWLS log ASCII Standard Version 2.00
WRAP.                     YES: Multiple lines per depth step
~Well Information Block
#MNEM.UNIT                               Data Type  Information
#---------                               ---------  -----------
STRT.FT                                   805.0000:
STOP.FT                                  5010.0000:
STEP.FT                                     0.5000:
NULL.                 -999.25                     :
COMP.                                             :COMPANY            
WELL.     SANTIAGO C 55-28                        :WELL               
FLD .                                             :FIELD              
CTRY.                                             :COUNTRY            
STAT.                                             :STATE              
LOC .                                             :LOCATION           
UWI .                                             :UNIQUE WELL ID     
SRVC.                                             :Service company    
DATE.                                             :LOG DATE           
~Curve Information
#MNEM.UNIT           API CODE  Curve Description
#---------           --------  -----------------
DEPT.FT                      :   1 DEPTH
CALI.IN                      :   2
GR  .GAPI                    :   3
NPHI.PU-S                    :   4
DPHI.PU-S                    :   5
DRHO.G/C3                    :   6
SP  .MV                      :   7
ILD .OHMM                    :   8
ILM .OHMM                    :   9
SFLU.OHMM                    :  10
LLD .OHMM                    :  11
LLS .OHMM                    :  12
MSFL.OHMM                    :  13
DT  .US/F                    :  14
SPHI.                        :  15
KSCI.                        :  16
PSCI.                        :  17
OSCI.                        :  18
WSCI.                        :  19
KWCI.                        :  20
PWCI.                        :  21
OWCI.                        :  22
WWCI.                        :  23
SBL .MV                      :  24
RS  .OHMM                    :  25
RM  .OHMM                    :  26
RD  .OHMM                    :  27
DTS .US/F                    :  28
RHOB.G/C3                    :  29
ROBS.G/C3                    :  30
DROS.G/C3                    :  31
CALS.IN                      :  32
GRS .GAPI                    :  33
NPHS.PU-S                    :  34
SFLU.OHMM                    :  35
ILMC.OHMM                    :  36
ILDC.OHMM                    :  37
ROBC.G/C3                    :  38
GRC .GAPI                    :  39
NPHC.PU-S                    :  40
~A
# ...
  3781.000 
  11.624  185.69  0.4070  0.3910  0.0170 -25.090 -999.25 -999.25 -999.25 
  6.2760  5.4040  4.0080 -999.25  44.475 -999.25 -999.25 -999.25 -999.25 
 -999.25 -999.25 -999.25 -999.25 -1.1820  4.0080  5.4040  6.2760 -999.25 
  2.0049  1.9867  0.0507  16.830  198.32  0.4768  4.0080  5.4040  6.2760 
  1.9867  198.32  0.4768 
  3781.500 
  12.650  191.97  0.4240  0.3860  0.0240 -24.579 -999.25 -999.25 -999.25 
  6.4310  5.4570  5.2890 -999.25  52.885 -999.25 -999.25 -999.25 -999.25 
 -999.25 -999.25 -999.25 -999.25 -0.6595  5.2890  5.4570  6.4310 -999.25 
  2.0131  1.9808  0.0450  17.077  192.07  0.4899  5.2890  5.4570  6.4310 
  1.9808  192.07  0.4899 
  3782.000 
  13.482  198.69  0.4380  0.3900  0.0240 -24.267 -999.25 -999.25 -999.25 
  6.6030  5.3610  4.9150 -999.25  54.081 -999.25 -999.25 -999.25 -999.25 
 -999.25 -999.25 -999.25 -999.25 -0.3360  4.9150  5.3610  6.6030 -999.25 
  2.0065  1.9562  0.0288  17.160  184.90  0.5014  4.9150  5.3610  6.6030 
  1.9562  184.90  0.5014 
  3782.500 
  13.138  202.82  0.4510  0.3920  0.0210 -24.631 -999.25 -999.25 -999.25 
  6.7550  5.4230  4.2750 -999.25  46.811 -999.25 -999.25 -999.25 -999.25 
 -999.25 -999.25 -999.25 -999.25 -0.6885  4.2750  5.4230  6.7550 -999.25 
  2.0032  1.9284  0.0177  16.700  176.49  0.5074  4.2750  5.4230  6.7550 
  1.9284  176.49  0.5074 
  3783.000 
  13.355  206.31  0.4550  0.3780  0.0200 -25.313 -999.25 -999.25 -999.25 
  6.7960  5.3860  5.2490 -999.25  44.644 -999.25 -999.25 -999.25 -999.25 
 -999.25 -999.25 -999.25 -999.25 -1.3590  5.2490  5.3860  6.7960 -999.25 
  2.0263  1.9147  0.0119  15.564  167.31  0.5127  5.2490  5.3860  6.7960 
  1.9147  167.31  0.5127 
  3783.500 
  14.561  209.36  0.4510  0.3650  0.0310 -25.796 -999.25 -999.25 -999.25 
  6.7000  5.2230  6.2120 -999.25  43.634 -999.25 -999.25 -999.25 -999.25 
 -999.25 -999.25 -999.25 -999.25 -1.8305  6.2120  5.2230  6.7000 -999.25 
  2.0477  1.9205  0.0180  14.630  162.67  0.5148  6.2120  5.2230  6.7000 
  1.9205  162.67  0.5148 
  3784.000 
  15.285  206.16  0.4580  0.3600  0.0360 -25.922 -999.25 -999.25 -999.25 
  6.3200  5.0740  6.4490 -999.25  44.281 -999.25 -999.25 -999.25 -999.25 
 -999.25 -999.25 -999.25 -999.25 -1.9450  6.4490  5.0740  6.3200 -999.25 
  2.0560  1.9400  0.0230  13.604  161.86  0.5155  6.4490  5.0740  6.3200 
  1.9400  161.86  0.5155 
  3784.500 
  15.379  200.08  0.4740  0.3720  0.0400 -25.808 -999.25 -999.25 -999.25 
  6.0380  4.8660  4.8840 -999.25  44.917 -999.25 -999.25 -999.25 -999.25 
 -999.25 -999.25 -999.25 -999.25 -1.8195  4.8840  4.8660  6.0380 -999.25 
  2.0362  1.9466  0.0243  13.399  169.51  0.5229  4.8840  4.8660  6.0380 
  1.9466  169.51  0.5229 
  3785.000 
  15.401  194.21  0.4870  0.3900  0.0450 -25.655 -999.25 -999.25 -999.25 
  5.8440  4.7270  4.0930 -999.25  42.607 -999.25 -999.25 -999.25 -999.25 
 -999.25 -999.25 -999.25 -999.25 -1.6550  4.0930  4.7270  5.8440 -999.25 
  2.0065  1.9482  0.0205  13.546  182.23  0.5318  4.0930  4.7270  5.8440 
  1.9482  182.23  0.5318 
  3785.500 
  15.125  187.30  0.5000  0.3990  0.0490 -25.383 -999.25 -999.25 -999.25 
  5.8910  4.7470  5.3420 -999.25  41.669 -999.25 -999.25 -999.25 -999.25 
 -999.25 -999.25 -999.25 -999.25 -1.3840  5.3420  4.7470  5.8910 -999.25 
  1.9917  1.9452  0.0137  13.267  188.37  0.5263  5.3420  4.7470  5.8910 
  1.9452  188.37  0.5263 
  3786.000 
  16.757  179.99  0.5060  0.4020  0.0510 -25.269 -999.25 -999.25 -999.25 
  6.0480  4.8110  7.7590 -999.25  41.720 -999.25 -999.25 -999.25 -999.25 
 -999.25 -999.25 -999.25 -999.25 -1.2710  7.7590  4.8110  6.0480 -999.25 
  1.9867  1.9390  0.0096  12.547  191.84  0.5024  7.7590  4.8110  6.0480 
  1.9390  191.84  0.5024 
  3786.500 
  17.035  169.09  0.5120  0.4020  0.0500 -25.196 -999.25 -999.25 -999.25 
  6.1760  4.9220  6.7600 -999.25  44.835 -999.25 -999.25 -999.25 -999.25 
 -999.25 -999.25 -999.25 -999.25 -1.1989  6.7600  4.9220  6.1760 -999.25 
  1.9867  1.9286  0.0082  11.657  201.44  0.4927  6.7600  4.9220  6.1760 
  1.9286  201.44  0.4927 
  3787.000 
  17.189  163.77  0.5150  0.4150  0.0320 -25.083 -999.25 -999.25 -999.25 
  6.2710  5.0440  5.9880 -999.25  46.985 -999.25 -999.25 -999.25 -999.25 
 -999.25 -999.25 -999.25 -999.25 -1.0869  5.9880  5.0440  6.2710 -999.25 
  1.9653  1.9159  0.0021  11.041  212.83  0.4943  5.9880  5.0440  6.2710 
  1.9159  212.83  0.4943 
  3787.500 
  17.087  160.25  0.5140  0.4340  0.0210 -25.088 -999.25 -999.25 -999.25 
  6.3440  5.1030  5.6690 -999.25  47.644 -999.25 -999.25 -999.25 -999.25 
 -999.25 -999.25 -999.25 -999.25 -1.0929  5.6690  5.1030  6.3440 -999.25 
  1.9339  1.9071 -0.0080  10.792  222.08  0.5030  5.6690  5.1030  6.3440 
  1.9071  222.08  0.5030 
  3788.000 
  15.798  164.10  0.5200  0.4450  0.0100 -25.134 -999.25 -999.25 -999.25 
  6.2200  5.0310  4.4870 -999.25  47.648 -999.25 -999.25 -999.25 -999.25 
 -999.25 -999.25 -999.25 -999.25 -1.1399  4.4870  5.0310  6.2200 -999.25 
  1.9158  1.9056 -0.0111  10.550  226.80  0.5054  4.4870  5.0310  6.2200 
  1.9056  226.80  0.5054 
  3788.500 
  15.051  178.87  0.5310  0.4470  0.0160 -25.259 -999.25 -999.25 -999.25 
  6.1100  4.9600  6.9140 -999.25  43.490 -999.25 -999.25 -999.25 -999.25 
 -999.25 -999.25 -999.25 -999.25 -1.2659  6.9140  4.9600  6.1100 -999.25 
  1.9125  1.9112 -0.0073  10.183  228.57  0.4891  6.9140  4.9600  6.1100 
  1.9112  228.57  0.4891 
  3789.000 
  13.758  188.06  0.5340  0.4320  0.0220 -25.544 -999.25 -999.25 -999.25 
  6.1810  4.8990  7.0990 -999.25  40.560 -999.25 -999.25 -999.25 -999.25 
 -999.25 -999.25 -999.25 -999.25 -1.5518  7.0990  4.8990  6.1810 -999.25 
  1.9372  1.9173 -0.0063  9.9870  226.30  0.4728  7.0990  4.8990  6.1810 
  1.9173  226.30  0.4728 
  3789.500 
  13.302  188.45  0.5060  0.4270  0.0250 -25.788 -999.25 -999.25 -999.25 
  6.1620  4.8570  6.4410 -999.25  39.336 -999.25 -999.25 -999.25 -999.25 
  2.6000  25.600  14.600  84.600 -1.7968  6.4410  4.8570  6.1620 -999.25 
  1.9455  1.9144 -0.0137  10.164  215.82  0.4650  6.4410  4.8570  6.1620 
  1.9144  215.82  0.4650 
  3790.000 
  13.580  196.64  0.4930  0.4250  0.0230 -26.033 -999.25 -999.25 -999.25 
  6.1090  4.8420  7.6790 -999.25  37.979 -999.25 -999.25 -999.25 -999.25 
 -999.25 -999.25 -999.25 -999.25 -2.0428  7.6790  4.8420  6.1090 -999.25 
  1.9488  1.9027 -0.0219  10.425  201.50  0.4627  7.6790  4.8420  6.1090 
  1.9027  201.50  0.4627 
  3790.500 
  13.487  208.18  0.4920  0.4260  0.0160 -26.437 -999.25 -999.25 -999.25 
  6.0960  4.9130  7.5510 -999.25  35.872 -999.25 -999.25 -999.25 -999.25 
  0.0100  35.200  20.900  74.500 -2.4478  7.5510  4.9130  6.0960 -999.25 
  1.9471  1.8877 -0.0245  10.666  178.33  0.4593  7.5510  4.9130  6.0960 
  1.8877  178.33  0.4593 
  3791.000 
  12.899  219.25  0.5000  0.4290  0.0100 -27.753 -999.25 -999.25 -999.25 
  6.7590  5.3470  7.3440 -999.25  35.184 -999.25 -999.25 -999.25 -999.25 
 -999.25 -999.25 -999.25 -999.25 -3.7648  7.3440  5.3470  6.7590 -999.25 
  1.9422  1.8752 -0.0199  10.756  145.98  0.4419  7.3440  5.3470  6.7590 
  1.8752  145.98  0.4419 
  3791.500 
  11.989  225.93  0.5100  0.4340  0.0090 -28.711 -999.25 -999.25 -999.25 
  8.0230  6.4650  10.718 -999.25  34.818 -999.25 -999.25 -999.25 -999.25 
  0.0100  32.300  10.400  88.700 -4.7237  10.718  6.4650  8.0230 -999.25 
  1.9339  1.8695 -0.0129  10.684  121.93  0.4036  10.718  6.4650  8.0230 
  1.8695  121.93  0.4036 
  3792.000 
  11.158  227.86  0.4950  0.4420  0.0070 -30.187 -999.25 -999.25 -999.25 
  8.8450  7.2870  16.412 -999.25  34.523 -999.25 -999.25 -999.25 -999.25 
 -999.25 -999.25 -999.25 -999.25 -6.2007  16.412  7.2870  8.8450 -999.25 
  1.9207  1.8635 -0.0116  10.870  109.75  0.3671  16.412  7.2870  8.8450 
  1.8635  109.75  0.3671 
  3792.500 
  10.874  229.80  0.4760  0.4490 -0.0050 -31.782 -999.25 -999.25 -999.25 
  9.2100  7.8440  19.589 -999.25  34.062 -999.25 -999.25 -999.25 -999.25 
  0.3900  32.300  11.200  87.500 -7.7967  19.589  7.8440  9.2100 -999.25 
  1.9092  1.8479 -0.0185  11.103  104.31  0.3559  19.589  7.8440  9.2100 
  1.8479  104.31  0.3559 
