~Version Information
VERS.                     2.0: CWLS log ASCII Standard Version 2.00
WRAP.                     YES: Multiple lines per depth step
~Well Information Block
#MNEM.UNIT                               Data Type  Information
#---------                               ---------  -----------
STRT.FT                                   850.0000:
STOP.FT                                  6800.0000:
STEP.FT                                     0.5000:
NULL.                 -999.25                     :
COMP.                                             :COMPANY            
WELL.     SANTIAGO D #26-27                       :WELL               
FLD .                                             :FIELD              
CTRY.                                             :COUNTRY            
STAT.                                             :STATE              
LOC .                                             :LOCATION           
UWI .                                             :UNIQUE WELL ID     
SRVC.                                             :Service company    
DATE.                                             :LOG DATE           
~Curve Information
#MNEM.UNIT           API CODE  Curve Description
#---------           --------  -----------------
DEPT.FT                      :   1 DEPTH
DCAL.IN                      :   2
DGR .GAPI                    :   3
NPHI.PU-S                    :   4
DPHI.PU-S                    :   5
DRHO.G/C3                    :   6
AGR .GAPI                    :   7
ACAL.IN                      :   8
DT  .US/F                    :   9
GR  .GAPI                    :  10
SP  .MV                      :  11
ILM .OHMM                    :  12
ILD .OHMM                    :  13
SFLU.OHMM                    :  14
RHOB.G/C3                    :  15
RS  .OHMM                    :  16
RM  .OHMM                    :  17
RD  .OHMM                    :  18
GRS .GAPI                    :  19
SBL .MV                      :  20
ROBS.G/C3                    :  21
DRHS.G/C3                    :  22
CALS.IN                      :  23
GRS .GAPI                    :  24
NPHS.PU-S                    :  25
CALS.IN                      :  26
GRS .GAPI                    :  27
SFLU.OHMM                    :  28
ILMC.OHMM                    :  29
ILDC.OHMM                    :  30
ROBC.G/C3                    :  31
GRC .GAPI                    :  32
NPHC.PU-S                    :  33
~A
# ...
  2126.000 
  9.7690  73.232  0.3250  0.3170  0.0280  76.751  11.601  134.60  65.512 
 -17.854  6.7200  6.6470  6.3730  2.1270  6.3730  6.7200  6.6470  65.512 
 -23.050  2.1270  0.0292  9.7672  73.646  0.3333  11.558  82.499  6.8684 
  6.7718  6.6398  2.1327  76.303  0.3281 
  2126.500 
  9.7680  73.775  0.3410  0.3270  0.0210  79.709  11.667  135.14  64.162 
 -18.291  6.8310  6.7070  6.3730  2.1105  6.3730  6.8310  6.7070  64.162 
 -23.485  2.1206  0.0253  9.7686  73.442  0.3533  11.554  79.465  6.8686 
  6.8846  6.6997  2.1263  76.096  0.3554 
  2127.000 
  9.7710  74.279  0.3640  0.3350  0.0180  81.044  11.611  135.40  60.989 
 -18.611  6.9310  6.7560  6.5250  2.0972  6.5250  6.9310  6.7560  60.989 
 -23.802  2.1054  0.0199  9.7691  73.966  0.3712  11.594  77.072  7.0309 
  6.9862  6.7486  2.1112  76.640  0.3769 
  2127.500 
  9.7690  73.676  0.3770  0.3360  0.0220  80.917  11.499  135.64  60.829 
 -18.612  7.0070  6.8300  6.8170  2.0956  6.8170  7.0070  6.8300  60.829 
 -23.801  2.0966  0.0195  9.7703  74.055  0.3719  11.657  79.281  7.3427 
  7.0635  6.8224  2.1024  76.734  0.3779 
  2128.000 
  9.7650  72.000  0.3680  0.3380  0.0260  80.987  11.498  135.88  62.095 
 -18.535  7.0450  6.9170  7.5510  2.0923  7.5510  7.0450  6.9170  62.095 
 -23.721  2.0944  0.0235  9.7675  73.065  0.3616  11.619  80.847  8.1250 
  7.1020  6.9092  2.1001  75.702  0.3654 
  2128.500 
  9.7470  71.080  0.3570  0.3450  0.0190  81.375  11.573  135.71  63.402 
 -18.101  6.9800  6.9170  8.0350  2.0807  8.0350  6.9800  6.9170  63.402 
 -23.285  2.0882  0.0235  9.7586  71.672  0.3558  11.516  80.936  8.6388 
  7.0356  6.9092  2.0939  74.236  0.3584 
  2129.000 
  9.7460  71.821  0.3550  0.3530  0.0110  81.920  11.651  134.29  64.589 
 -16.993  6.8280  6.7660  8.1820  2.0676  8.1820  6.8280  6.7660  64.589 
 -22.175  2.0761  0.0162  9.7467  71.338  0.3520  11.498  80.976  8.7927 
  6.8807  6.7585  2.0817  73.861  0.3537 
  2129.500 
  9.7490  73.356  0.3500  0.3540  0.0040  82.941  11.689  130.70  68.154 
 -14.934  6.1640  6.0850  8.0040  2.0659  8.0040  6.1640  6.0850  68.154 
 -20.113  2.0670  0.0086  9.7470  72.345  0.3400  11.561  81.314  8.6032 
  6.2069  6.0789  2.0726  74.904  0.3360 
  2130.000 
  9.7560  76.237  0.3340  0.3510  0.0060  87.876  11.681  128.99  77.704 
 -12.082  5.2770  4.9770  6.9280  2.0709  6.9280  5.2770  4.9770  77.704 
 -17.259  2.0676  0.0047  9.7513  74.316  0.3321  11.639  81.833  7.4576 
  5.3085  4.9729  2.0732  76.956  0.3266 
  2130.500 
  9.7790  81.176  0.3310  0.3440  0.0090  94.751  11.672  128.82  85.431 
 -7.7240  4.4190  4.1530  4.1910  2.0824  4.1910  4.4190  4.1530  85.431 
 -12.898  2.0746  0.0070  9.7635  77.845  0.3388  11.683  82.775  4.5363 
  4.4413  4.1502  2.0803  80.644  0.3346 
  2131.000 
  9.8140  88.136  0.3430  0.3370  0.0150  102.06  11.655  129.80  90.066 
 -4.5150  3.5360  3.6140  2.5780  2.0940  2.5780  3.5360  3.6140  90.066 
 -9.6867  2.0861  0.0109  9.7901  83.388  0.3744  11.682  87.062  2.8092 
  3.5505  3.6119  2.0920  86.463  0.3809 
  2131.500 
  9.8520  94.660  0.3900  0.3280  0.0200  107.27  11.611  134.88  91.531 
 -2.4570  3.0160  3.3410  2.0630  2.1088  2.0630  3.0160  3.3410  91.531 
 -7.6263  2.0986  0.0166  9.8258  90.159  0.4290  11.674  93.596  2.2571 
  3.0268  3.3392  2.1047  93.596  0.4468 
  2132.000 
  9.8670  100.31  0.4470  0.3180  0.0340  111.85  11.495  138.20  93.828 
 -1.6260  2.8870  3.1220  2.0210  2.1253  2.0210  2.8870  3.1220  93.828 
 -6.7928  2.1138  0.0242  9.8565  96.369  0.4561  11.658  100.81  2.2128 
  2.8971  3.1205  2.1202  100.15  0.4796 
  2132.500 
  9.8730  104.06  0.4600  0.3090  0.0420  111.77  11.483  137.21  97.274 
 -1.1920  2.8340  2.9500  2.2840  2.1402  2.2840  2.8340  2.9500  97.274 
 -6.3564  2.1297  0.0364  9.8688  101.42  0.4671  11.619  106.37  2.4962 
  2.8439  2.9486  2.1361  105.43  0.4930 
  2133.000 
  9.8760  105.52  0.4700  0.2990  0.0420  110.25  11.541  136.18  99.492 
 -1.1940  2.7470  2.8030  2.4750  2.1567  2.4750  2.7470  2.8030  99.492 
 -6.3559  2.1449  0.0420  9.8739  104.48  0.4780  11.516  111.04  2.7019 
  2.7563  2.8018  2.1514  108.64  0.5061 
  2133.500 
  9.8870  105.31  0.4810  0.2910  0.0450  107.71  11.517  136.72  99.728 
 -1.3540  2.6000  2.6730  2.5390  2.1699  2.5390  2.6000  2.6730  99.728 
 -6.5134  2.1603  0.0428  9.8791  105.46  0.4869  11.485  111.78  2.7710 
  2.6084  2.6719  2.1669  109.68  0.5169 
  2134.000 
  9.8900  105.66  0.4890  0.2890  0.0560  109.64  11.464  138.14  96.476 
 -1.5550  2.5670  2.6150  2.4890  2.1732  2.4890  2.5670  2.6150  96.476 
 -6.7120  2.1707  0.0480  9.8878  105.40  0.4958  11.530  110.53  2.7176 
  2.5752  2.6139  2.1773  109.65  0.5276 
  2134.500 
  9.8930  106.79  0.4980  0.2970  0.0560  111.41  11.491  137.65  94.333 
 -2.3500  2.6770  2.9330  2.2590  2.1600  2.2590  2.6770  2.9330  94.333 
 -7.5045  2.1697  0.0560  9.8908  105.96  0.5042  11.521  108.19  2.4700 
  2.6859  2.9317  2.1763  110.23  0.5377 
  2135.000 
  9.8880  107.50  0.5060  0.3110  0.0410  111.45  11.569  133.64  92.865 
 -2.7470  3.1100  3.2910  2.2260  2.1369  2.2260  3.1100  3.2910  92.865 
 -7.8991  2.1540  0.0522  9.8917  106.97  0.5036  11.474  109.28  2.4345 
  3.1221  3.2893  2.1607  111.30  0.5371 
  2135.500 
  9.8280  105.86  0.5030  0.3200  0.0250  105.31  11.588  127.99  93.537 
 -3.8200  3.4890  3.6120  2.8170  2.1220  2.8170  3.4890  3.6120  93.537 
 -8.9696  2.1332  0.0370  9.8731  107.09  0.4765  11.486  111.07  3.0699 
  3.5040  3.6100  2.1397  111.35  0.5043 
  2136.000 
  9.7550  102.84  0.4700  0.3130  0.0200  100.51  11.576  123.49  93.099 
 -4.3370  3.7740  3.9070  4.1730  2.1336  4.1730  3.7740  3.9070  93.099 
 -9.4842  2.1248  0.0238  9.8105  105.13  0.4169  11.554  111.44  4.5214 
  3.7908  3.9046  2.1308  109.09  0.4322 
  2136.500 
  9.6870  97.918  0.4050  0.3090  0.0250  96.745  11.571  122.70  87.469 
 -6.4000  3.9350  3.9640  5.9150  2.1402  5.9150  3.9350  3.9640  87.469 
 -11.545  2.1351  0.0212  9.7392  101.70  0.3600  11.584  106.52  6.3752 
  3.9524  3.9614  2.1406  105.26  0.3635 
  2137.000 
  9.6660  90.977  0.3510  0.3130  0.0330  96.065  11.589  123.73  83.622 
 -8.1060  3.9060  3.8430  6.4090  2.1336  6.4090  3.9060  3.8430  83.622 
 -13.248  2.1387  0.0268  9.6823  96.358  0.3434  11.578  101.47  6.8926 
  3.9224  3.8405  2.1438  99.548  0.3399 
  2137.500 
  9.7120  88.827  0.3420  0.3120  0.0380  102.03  11.604  126.75  83.977 
 -6.0870  3.7040  4.0590  5.6700  2.1352  5.6700  3.7040  4.0590  83.977 
 -11.227  2.1339  0.0341  9.6760  90.510  0.3532  11.572  97.510  6.1048 
  3.7186  4.0562  2.1390  93.487  0.3552 
  2138.000 
  9.7910  92.857  0.3550  0.3070  0.0420  110.53  11.612  132.65  88.256 
 -4.1460  3.6500  4.3340  4.3660  2.1435  4.3660  3.6500  4.3340  88.256 
 -9.2833  2.1369  0.0388  9.7285  89.670  0.3761  11.585  96.205  4.7201 
  3.6648  4.3309  2.1424  92.785  0.3828 
  2138.500 
  9.8840  95.776  0.3790  0.2970  0.0430  112.57  11.607  135.18  95.111 
 -2.8400  3.7790  4.3660  2.8570  2.1600  2.8570  3.7790  4.3660  95.111 
 -7.9749  2.1468  0.0422  9.8097  93.445  0.3942  11.601  100.78  3.1097 
  3.7958  4.3629  2.1528  96.955  0.4048 
  2139.000 
  9.9310  95.804  0.3960  0.2840  0.0390  112.52  11.594  131.79  97.368 
 -1.7320  3.9270  4.2940  3.0630  2.1814  3.0630  3.9270  4.2940  97.368 
 -6.8644  2.1641  0.0422  9.8931  95.781  0.3996  11.610  108.73  3.3357 
  3.9463  4.2912  2.1707  99.656  0.4115 
  2139.500 
  9.9540  96.112  0.4000  0.2810  0.0280  110.93  11.593  127.27  95.424 
 -0.9020  4.0060  4.1400  3.6100  2.1864  3.6100  4.0060  4.1400  95.424 
 -6.0320  2.1823  0.0369  9.9353  95.861  0.3926  11.608  112.13  3.9272 
  4.0266  4.1374  2.1893  99.879  0.4031 
  2140.000 
  9.9680  98.555  0.3920  0.2820  0.0140  104.75  11.604  123.98  93.242 
 -0.1900  3.8830  3.8690  3.9840  2.1847  3.9840  3.8830  3.8690  93.242 
 -5.3175  2.1861  0.0255  9.9565  96.548  0.3892  11.597  112.53  4.3315 
  3.9026  3.8668  2.1931  100.67  0.3990 
