~Version Information
VERS.                     2.0: CWLS log ASCII Standard Version 2.00
WRAP.                     YES: Multiple lines per depth step
~Well Information Block
#MNEM.UNIT                               Data Type  Information
#---------                               ---------  -----------
STRT.FT                                   100.0000:
STOP.FT                                  3000.0000:
STEP.FT                                     0.5000:
NULL.                 -999.25                     :
COMP.                                             :COMPANY            
WELL.     LOS LOBOS 51X-30                        :WELL               
FLD .                                             :FIELD              
CTRY.                                             :COUNTRY            
STAT.                                             :STATE              
LOC .                                             :LOCATION           
UWI .                                             :UNIQUE WELL ID     
SRVC.                                             :Service company    
DATE.                                             :LOG DATE           
~Curve Information
#MNEM.UNIT           API CODE  Curve Description
#---------           --------  -----------------
DEPT.FT                      :   1 DEPTH
GR  .GAPI                    :   2
CALI.IN                      :   3
DPHI.PU-S                    :   4
NPHI.PU-S                    :   5
DRHO.G/C3                    :   6
DT  .US/F                    :   7
ROP .                        :   8
GAS .                        :   9
CGAS.                        :  10
C1R .                        :  11
C2R .                        :  12
C3R .                        :  13
SP  .MV                      :  14
ILD .OHMM                    :  15
ILM .OHMM                    :  16
SFLU.OHMM                    :  17
GRS .GAPI                    :  18
CALS.IN                      :  19
ROBS.G/C3                    :  20
NPHS.PU-S                    :  21
DROS.G/C3                    :  22
DTS .US/F                    :  23
SBL .MV                      :  24
 RD .OHMM                    :  25
RM  .OHMM                    :  26
RS  .OHMM                    :  27
SFLU.OHMM                    :  28
ILMC.OHMM                    :  29
ILDC.OHMM                    :  30
ROBC.G/C3                    :  31
GRC .GAPI                    :  32
NPHC.PU-S                    :  33
~A
# ...
  1637.000 
  41.217  7.1300  0.4360  0.0080 -999.25 -999.25  118.17  2.8681  24.456 
  1.5282 -999.25 -999.25 -33.030  2.1230  2.0930  2.0140  39.613  7.1300 
  1.9240  0.0170 -999.25 -999.25 -13.030  2.1230  2.0930  2.0140  2.0140 
  2.0930  2.1230  1.9240  36.681 -0.0067 
  1637.500 
  40.415  7.1300  0.4420  0.0160 -999.25 -999.25  118.38  2.7869  24.408 
  1.5278 -999.25 -999.25 -33.081  2.1300  2.1030  2.0050  39.686  7.1310 
  1.9356  0.0260 -999.25 -999.25 -13.081  2.1300  2.1030  2.0050  2.0050 
  2.1030  2.1300  1.9356  36.750  0.0010 
  1638.000 
  39.613  7.1300  0.4400  0.0170 -999.25 -999.25  118.58  2.6777  24.359 
  1.5275 -999.25 -999.25 -33.610  2.0630  2.1020  2.0120  40.076  7.1310 
  1.9323  0.0440 -999.25 -999.25 -13.610  2.0630  2.1020  2.0120  2.0120 
  2.1020  2.0630  1.9323  37.112  0.0167 
  1638.500 
  39.686  7.1310  0.4330  0.0260 -999.25 -999.25  118.79  2.5323  24.269 
  1.5271 -999.25 -999.25 -33.783  2.0640  2.1320  2.0110  40.387  7.1310 
  1.9174  0.0640 -999.25 -999.25 -13.783  2.0640  2.1320  2.0110  2.0110 
  2.1320  2.0640  1.9174  37.400  0.0342 
  1639.000 
  40.076  7.1310  0.4350  0.0440 -999.25 -999.25  119.00  2.4668  24.150 
  1.5268 -999.25 -999.25 -33.516  2.0650  2.1700  1.9800  40.539  7.1310 
  1.9009  0.0680 -999.25 -999.25 -13.516  2.0650  2.1700  1.9800  1.9800 
  2.1700  2.0650  1.9009  37.540  0.0377 
  1639.500 
  40.387  7.1310  0.4440  0.0640 -999.25 -999.25  119.20  2.4076  24.032 
  1.5264 -999.25 -999.25 -33.407  2.0490  2.1020  1.9610  40.532  7.1310 
  1.8993  0.0580 -999.25 -999.25 -13.407  2.0490  2.1020  1.9610  1.9610 
  2.1020  2.0490  1.8993  37.534  0.0289 
  1640.000 
  40.539  7.1310  0.4540  0.0680 -999.25 -999.25  119.41  2.3733  23.913 
  1.5261 -999.25 -999.25 -33.379  2.0290  2.0630  1.9390  39.730  7.1310 
  1.9009  0.0450 -999.25 -999.25 -13.379  2.0290  2.0630  1.9390  1.9390 
  2.0630  2.0290  1.9009  36.791  0.0175 
  1640.500 
  40.532  7.1310  0.4550  0.0580 -999.25 -999.25  119.62  2.5146  23.775 
  1.5257 -999.25 -999.25 -33.432  2.0170  2.0320  1.9310  39.723  7.1310 
  1.8976  0.0340 -999.25 -999.25 -13.432  2.0170  2.0320  1.9310  1.9310 
  2.0320  2.0170  1.8976  36.785  0.0080 
  1641.000 
  39.730  7.1310  0.4540  0.0450 -999.25 -999.25  148.21  2.6288  23.627 
  1.5254 -999.25 -999.25 -33.565  2.0010  2.0230  1.9010  40.670  7.1310 
  1.8877  0.0230 -999.25 -999.25 -13.565  2.0010  2.0230  1.9010  1.9010 
  2.0230  2.0010  1.8877  37.662 -0.0015 
  1641.500 
  39.723  7.1310  0.4560  0.0340 -999.25 -999.25  148.24  2.7470  23.479 
  1.5250 -999.25 -999.25 -33.696  1.9750  2.0480  1.8800  41.060  7.1310 
  1.8729  0.0260 -999.25 -999.25 -13.696  1.9750  2.0480  1.8800  1.8800 
  2.0480  1.9750  1.8729  38.023  0.0010 
  1642.000 
  40.670  7.1310  0.4620  0.0230 -999.25 -999.25  148.27  2.8617  23.332 
  1.5247 -999.25 -999.25 -33.787  1.9590  2.0390  1.8620  40.655  7.1310 
  1.8547  0.0360 -999.25 -999.25 -13.787  1.9590  2.0390  1.8620  1.8620 
  2.0390  1.9590  1.8547  37.648  0.0097 
  1642.500 
  41.060  7.1310  0.4710  0.0260 -999.25 -999.25  148.30  2.9776  23.245 
  1.5243 -999.25 -999.25 -33.878  1.9510  2.0310  1.8440  39.456  7.1310 
  1.8531  0.0500 -999.25 -999.25 -13.878  1.9510  2.0310  1.8440  1.8440 
  2.0310  1.9510  1.8531  36.537  0.0219 
  1643.000 
  40.655  7.1310  0.4820  0.0360 -999.25 -999.25  148.33  3.1032  23.228 
  1.5240 -999.25 -999.25 -33.852  1.9500  2.0120  1.8390  38.256  7.1310 
  1.8597  0.0660 -999.25 -999.25 -13.852  1.9500  2.0120  1.8390  1.8390 
  2.0120  1.9500  1.8597  35.426  0.0360 
  1643.500 
  39.456  7.1310  0.4830  0.0500 -999.25 -999.25  148.36  3.2255  23.211 
  1.5236 -999.25 -999.25 -33.863  1.9700  2.0250  1.8380  38.965  7.1310 
  1.8778  0.0710 -999.25 -999.25 -13.863  1.9700  2.0250  1.8380  1.8380 
  2.0250  1.9700  1.8778  36.083  0.0404 
  1644.000 
  38.256  7.1310  0.4790  0.0660 -999.25 -999.25  148.39  3.3141  23.193 
  1.5233 -999.25 -999.25 -33.835  1.9840  2.0430  1.8410  39.116  7.1310 
  1.8943  0.0650 -999.25 -999.25 -13.835  1.9840  2.0430  1.8410  1.8410 
  2.0430  1.9840  1.8943  36.223  0.0351 
  1644.500 
  38.965  7.1310  0.4680  0.0710 -999.25 -999.25  148.42  3.3810  23.114 
  1.5229 -999.25 -999.25 -33.886  2.0010  2.0640  1.8430  39.030  7.1310 
  1.8943  0.0550 -999.25 -999.25 -13.886  2.0010  2.0640  1.8430  1.8430 
  2.0640  2.0010  1.8943  36.143  0.0263 
  1645.000 
  39.116  7.1310  0.4580  0.0650 -999.25 -999.25  148.45  3.4551  23.025 
  1.5226 -999.25 -999.25 -33.862  2.0070  2.0780  1.8590  39.182  7.1310 
  1.8795  0.0420 -999.25 -999.25 -13.862  2.0070  2.0780  1.8590  1.8590 
  2.0780  2.0070  1.8795  36.284  0.0149 
  1645.500 
  39.030  7.1310  0.4580  0.0550 -999.25 -999.25  148.48  3.5300  22.935 
  1.5222 -999.25 -999.25 -33.835  2.0060  2.0850  1.8850  39.731  7.1310 
  1.8679  0.0370 -999.25 -999.25 -13.835  2.0060  2.0850  1.8850  1.8850 
  2.0850  2.0060  1.8679  36.792  0.0106 
  1646.000 
  39.182  7.1310  0.4670  0.0420 -999.25 -999.25  148.51  3.5932  22.886 
  1.5219 -999.25 -999.25 -33.765  2.0160  2.0950  1.9220  41.394  7.1310 
  1.8646  0.0430 -999.25 -999.25 -13.765  2.0160  2.0950  1.9220  1.9220 
  2.0950  2.0160  1.8646  38.332  0.0158 
  1646.500 
  39.731  7.1310  0.4740  0.0370 -999.25 -999.25  148.54  3.6484  22.893 
  1.5215 -999.25 -999.25 -33.579  2.0370  2.1050  1.9320  41.387  7.1310 
  1.8663  0.0400 -999.25 -999.25 -13.579  2.0370  2.1050  1.9320  1.9320 
  2.1050  2.0370  1.8663  38.326  0.0132 
  1647.000 
  41.394  7.1310  0.4760  0.0430 -999.25 -999.25  148.57  3.6537  22.899 
  1.5211 -999.25 -999.25 -33.391  2.0660  2.1270  1.9100  40.823  7.1310 
  1.8745  0.0300 -999.25 -999.25 -13.391  2.0660  2.1270  1.9100  1.9100 
  2.1270  2.0660  1.8745  37.803  0.0045 
  1647.500 
  41.387  7.1310  0.4750  0.0400 -999.25 -999.25  148.60  3.6587  22.872 
  1.5208 -999.25 -999.25 -33.283  2.0910  2.1490  1.8880  41.850  7.1310 
  1.8712  0.0310 -999.25 -999.25 -13.283  2.0910  2.1490  1.8880  1.8880 
  2.1490  2.0910  1.8712  38.754  0.0054 
  1648.000 
  40.823  7.1310  0.4700  0.0300 -999.25 -999.25  148.63  3.6637  22.830 
  1.5204 -999.25 -999.25 -33.454  2.1250  2.1520  1.8900  43.910  7.1310 
  1.8613  0.0450 -999.25 -999.25 -13.454  2.1250  2.1520  1.8900  1.8900 
  2.1520  2.1250  1.8613  40.662  0.0175 
  1648.500 
  41.850  7.1310  0.4720  0.0310 -999.25 -999.25  148.66  3.6687  22.878 
  1.5201 -999.25 -999.25 -33.945  2.1510  2.1750  1.9420  44.539  7.1310 
  1.8514  0.0640 -999.25 -999.25 -13.945  2.1510  2.1750  1.9420  1.9420 
  2.1750  2.1510  1.8514  41.244  0.0342 
  1649.000 
  43.910  7.1310  0.4780  0.0450 -999.25 -999.25  148.69  3.6738  22.968 
  1.5197 -999.25 -999.25 -34.395  2.1580  2.1970  1.9980  45.406  7.1310 
  1.8448  0.0610 -999.25 -999.25 -14.395  2.1580  2.1970  1.9980  1.9980 
  2.1970  2.1580  1.8448  42.047  0.0315 
  1649.500 
  44.539  7.1310  0.4840  0.0640 -999.25 -999.25  148.72  3.6799  23.004 
  1.5194 -999.25 -999.25 -34.767  2.1490  2.2170  2.0450  44.284  7.1310 
  1.8531  0.0450 -999.25 -999.25 -14.767  2.1490  2.2170  2.0450  2.0450 
  2.2170  2.1490  1.8531  41.008  0.0175 
  1650.000 
  45.406  7.1310  0.4880  0.0610 -999.25 -999.25  148.75  3.6294  23.009 
  1.5190 -999.25 -999.25 -35.018  2.1430  2.2230  2.1010  41.809  7.1310 
  1.8795  0.0300 -999.25 -999.25 -15.018  2.1430  2.2230  2.1010  2.1010 
  2.2230  2.1430  1.8795  38.716  0.0045 
  1650.500 
  44.284  7.1310  0.4830  0.0450 -999.25 -999.25  148.77  3.5646  23.039 
  1.5187 -999.25 -999.25 -35.223  2.1470  2.2110  2.1240  41.959  7.1310 
  1.9042  0.0200 -999.25 -999.25 -15.223  2.1470  2.2110  2.1240  2.1240 
  2.2110  2.1470  1.9042  38.855 -0.0041 
  1651.000 
  41.809  7.1310  0.4670  0.0300 -999.25 -999.25  148.80  3.5075  23.101 
  1.5183 -999.25 -999.25 -35.268  2.1270  2.1740  2.1350  41.950  7.1310 
  1.9207  0.0290 -999.25 -999.25 -15.268  2.1270  2.1740  2.1350  2.1350 
  2.1740  2.1270  1.9207  38.847  0.0036 
