~Version Information
VERS.                     2.0: CWLS log ASCII Standard Version 2.00
WRAP.                      NO: One line per depth step
~Well Information Block
#MNEM.UNIT                               Data Type  Information
#---------                               ---------  -----------
STRT.FT                                    90.0000:
STOP.FT                                  2000.0000:
STEP.FT                                     0.5000:
NULL.                 -999.25                     :
COMP.                                             :COMPANY            
WELL.     LL 76-30 OR MUDDY CREEK 76-30           :WELL               
FLD .                                             :FIELD              
CTRY.                                             :COUNTRY            
STAT.                                             :STATE              
LOC .                                             :LOCATION           
UWI .                                             :UNIQUE WELL ID     
SRVC.                                             :Service company    
DATE.                                             :LOG DATE           
~Curve Information
#MNEM.UNIT           API CODE  Curve Description
#---------           --------  -----------------
DEPT.FT                      :   1 DEPTH
GR  .GAPI                    :   2
CALI.IN                      :   3
DPHI.PU-S                    :   4
NPHI.PU-S                    :   5
DRHO.G/C3                    :   6
SP  .MV                      :   7
ILD .OHMM                    :   8
ILM .OHMM                    :   9
SFLU.OHMM                    :  10
DT  .US/F                    :  11
RHOB.G/C3                    :  12
ROBS.G/C3                    :  13
CALS.IN                      :  14
DRHS.G/C3                    :  15
GRS .GAPI                    :  16
NPHS.PU-S                    :  17
DTS .US/F                    :  18
SBL .MV                      :  19
RD  .OHMM                    :  20
RM  .OHMM                    :  21
RS  .OHMM                    :  22
SFLU.OHMM                    :  23
ILMC.OHMM                    :  24
ILDC.OHMM                    :  25
ROBC.G/C3                    :  26
GRC .GAPI                    :  27
NPHC.PU-S                    :  28
~A
# ...
  1656.000  108.88  6.9530  0.4710  0.5250  0.0090 -999.25  1.6260  1.4700 -999.25  144.08  1.8729  1.8801  6.9330  0.0080  105.87  0.5453  137.53 -999.25  1.6260  1.4700 -999.25 -999.25  1.4700  1.6260  1.8801  96.254  0.5189 
  1656.500  131.07  6.9930  0.4840  0.5450  0.0050 -999.25  1.6110  1.4970 -999.25  147.57  1.8514  1.8620  6.9731  0.0070  120.06  0.5610  145.90 -999.25  1.6110  1.4970 -999.25 -999.25  1.4970  1.6110  1.8620  109.33  0.5359 
  1657.000  144.61  7.0130  0.4900  0.5600  0.0040 -999.25  1.5670  1.5100 -999.25  148.26  1.8415  1.8465  7.0029  0.0045  137.77  0.5864  147.94 -999.25  1.5670  1.5100 -999.25 -999.25  1.5100  1.5670  1.8465  125.60  0.5633 
  1657.500  151.98  7.0140  0.4920  0.5850  0.0020 -999.25  1.4830  1.4690 -999.25  149.16  1.8382  1.8399  7.0135  0.0030  148.19  0.6089  148.75 -999.25  1.4830  1.4690 -999.25 -999.25  1.4690  1.4830  1.8399  135.16  0.5876 
  1658.000  163.53  6.9750  0.5000  0.6080  0.0030 -999.25  1.4030  1.4550 -999.25  149.25  1.8250  1.8319  6.9954  0.0025  157.48  0.6181  149.21 -999.25  1.4030  1.4550 -999.25 -999.25  1.4550  1.4030  1.8319  143.53  0.5974 
  1658.500  152.29  6.9360  0.5170  0.6190  0.0020 -999.25  1.3160  1.4290 -999.25  148.45  1.7970  1.8119  6.9568  0.0025  158.28  0.6072  148.80 -999.25  1.3160  1.4290 -999.25 -999.25  1.4290  1.3160  1.8119  144.04  0.5856 
  1659.000  141.05  6.8960  0.5250  0.6100 -0.0010 -999.25  1.2680  1.3280 -999.25  147.55  1.7838  1.7909  6.9177  0.0006  147.15  0.5799  147.94 -999.25  1.2680  1.3280 -999.25 -999.25  1.3280  1.2680  1.7909  133.70  0.5562 
  1659.500  129.82  6.8570  0.5380  0.5870  0.0000 -999.25  1.2340  1.2340 -999.25  146.95  1.7623  1.7741  6.8785 -0.0006  136.01  0.5373  147.20 -999.25  1.2340  1.2340 -999.25 -999.25  1.2340  1.2340  1.7741  123.39  0.5103 
  1660.000  104.15  6.8180  0.5400  0.5380  0.0000 -999.25  1.2110  1.1780 -999.25  147.05  1.7590  1.7609  6.8399  0.0000  118.54  0.5320  147.01 -999.25  1.2110  1.1780 -999.25 -999.25  1.1780  1.2110  1.7609  107.37  0.5045 
  1660.500  101.57  6.7990  0.5520  0.5340 -0.0020 -999.25  1.1890  1.1460 -999.25  148.74  1.7392  1.7505  6.8098 -0.0009  103.04  0.5218  148.07 -999.25  1.1890  1.1460 -999.25 -999.25  1.1460  1.1890  1.7505  93.219  0.4935 
  1661.000  103.57  6.7990  0.5530  0.5230 -0.0060 -999.25  1.1780  1.1460 -999.25  150.73  1.7376  1.7385  6.7990 -0.0037  102.41  0.5156  149.96 -999.25  1.1780  1.1460 -999.25 -999.25  1.1460  1.1780  1.7385  92.608  0.4869 
  1661.500  107.15  6.8000  0.5490  0.5170 -0.0080 -999.25  1.1770  1.1560 -999.25  151.93  1.7442  1.7403  6.7994 -0.0068  105.04  0.5147  151.47 -999.25  1.1770  1.1560 -999.25 -999.25  1.1560  1.1770  1.7403  94.990  0.4859 
  1662.000  110.74  6.8010  0.5450  0.5110 -0.0090 -999.25  1.1880  1.1670 -999.25  153.02  1.7508  1.7468  6.8004 -0.0084  108.60  0.5241  152.61 -999.25  1.1880  1.1670 -999.25 -999.25  1.1670  1.1880  1.7468  98.209  0.4960 
  1662.500  112.94  6.8010  0.5430  0.5260 -0.0090 -999.25  1.2210  1.1770 -999.25  154.11  1.7541  1.7520  6.8010 -0.0090  111.60  0.5153  153.72 -999.25  1.2210  1.1770 -999.25 -999.25  1.1770  1.2210  1.7520  100.93  0.4865 
  1663.000  116.52  6.8220  0.5420  0.5190 -0.0070 -999.25  1.2550  1.2210 -999.25  154.11  1.7557  1.7547  6.8091 -0.0082  114.31  0.5026  154.11 -999.25  1.2550  1.2210 -999.25 -999.25  1.2210  1.2550  1.7547  103.42  0.4729 
  1663.500  133.74  6.8420  0.5430  0.5060 -0.0030 -999.25  1.2890  1.2890 -999.25  153.61  1.7541  1.7551  6.8295 -0.0055  122.98  0.5025  153.78 -999.25  1.2890  1.2890 -999.25 -999.25  1.2890  1.2890  1.7551  111.35  0.4728 
  1664.000  144.30  6.8630  0.5440  0.4950  0.0010 -999.25  1.3010  1.3250 -999.25  153.31  1.7524  1.7534  6.8497 -0.0015  137.60  0.5257  153.41 -999.25  1.3010  1.3250 -999.25 -999.25  1.3250  1.3010  1.7534  124.69  0.4977 
  1664.500  150.07  6.9230  0.5450  0.5180  0.0020 -999.25  1.3010  1.3370 -999.25  153.00  1.7508  1.7518  6.8844  0.0014  146.36  0.5496  153.10 -999.25  1.3010  1.3370 -999.25 -999.25  1.3370  1.3010  1.7518  132.81  0.5235 
  1665.000  147.49  7.2420  0.5460  0.5400  0.0000 -999.25  1.3130  1.3370 -999.25  152.30  1.7491  1.7502  7.0338  0.0013  149.18  0.5711  152.52 -999.25  1.3130  1.3370 -999.25 -999.25  1.3370  1.3130  1.7502  136.17  0.5467 
  1665.500  141.13  7.6600  0.5490  0.5660 -0.0010 -999.25  1.3370  1.3240 -999.25  149.91  1.7442  1.7474  7.3834 -0.0003  145.34  0.5720  150.62 -999.25  1.3370  1.3240 -999.25 -999.25  1.3240  1.3370  1.7474  134.50  0.5478 
  1666.000  129.69  7.8600  0.5530  0.5790 -0.0010 -999.25  1.3610  1.2650 -999.25  149.40  1.7376  1.7420  7.7258 -0.0010  137.37  0.5620  149.55 -999.25  1.3610  1.2650 -999.25 -999.25  1.2650  1.3610  1.7420  128.78  0.5370 
  1666.500  121.54  7.8610  0.5630  0.5620 -0.0030 -999.25  1.3860  1.2650 -999.25  146.61  1.7211  1.7323  7.8603 -0.0016  127.09  0.5665  147.39 -999.25  1.3860  1.2650 -999.25 -999.25  1.2650  1.3860  1.7323  119.74  0.5419 
  1667.000  117.17  7.8010  0.5650  0.5620 -0.0060 -999.25  1.4110  1.2760 -999.25  145.41  1.7178  1.7200  7.8424 -0.0039  120.18  0.5663  145.73 -999.25  1.4110  1.2760 -999.25 -999.25  1.2760  1.4110  1.7200  113.16  0.5417 
  1667.500  117.57  7.6830  0.5590  0.5720 -0.0080 -999.25  1.4110  1.3110 -999.25  144.71  1.7277  1.7207  7.7654 -0.0066  117.29  0.5413  144.89 -999.25  1.4110  1.3110 -999.25 -999.25  1.3110  1.4110  1.7207  110.12  0.5147 
  1668.000  120.17  7.3850  0.5370  0.5600 -0.0080 -999.25  1.4370  1.3600 -999.25  144.81  1.7640  1.7383  7.5959 -0.0080  118.33  0.5133  144.78 -999.25  1.4370  1.3600 -999.25 -999.25  1.3600  1.4370  1.7383  110.39  0.4845 
  1668.500  122.76  7.0070  0.5220  0.5220 -0.0070 -999.25  1.4630  1.3980 -999.25  145.10  1.7887  1.7710  7.2780 -0.0077  120.90  0.5109  145.03 -999.25  1.4630  1.3980 -999.25 -999.25  1.3980  1.4630  1.7710  111.42  0.4818 
  1669.000  129.33  6.9080  0.5020  0.5050 -0.0040 -999.25  1.4900  1.4230 -999.25  145.90  1.8217  1.7977  6.9799 -0.0062  124.56  0.5226  145.71 -999.25  1.4900  1.4230 -999.25 -999.25  1.4230  1.4900  1.7977  113.46  0.4944 
  1669.500  131.23  6.8890  0.4920  0.5160  0.0000 -999.25  1.5030  1.4360 -999.25  147.29  1.8382  1.8261  6.9030 -0.0029  129.83  0.5354  146.98 -999.25  1.5030  1.4360 -999.25 -999.25  1.4360  1.5030  1.8261  117.90  0.5082 
  1670.000  131.24  6.9290  0.4920  0.5280  0.0050 -999.25  1.5170  1.4100 -999.25  148.58  1.8382  1.8382  6.8992  0.0013  131.23  0.5647  148.31 -999.25  1.5170  1.4100 -999.25 -999.25  1.4100  1.5170  1.8382  119.15  0.5398 
  1670.500  129.95  7.0100  0.4980  0.5410  0.0080 -999.25  1.5030  1.3840 -999.25  150.57  1.8283  1.8358  6.9489  0.0057  130.92  0.5939  150.17 -999.25  1.5030  1.3840 -999.25 -999.25  1.3840  1.5030  1.8358  119.10  0.5713 
  1671.000  128.56  7.1100  0.5100  0.5810  0.0080 -999.25  1.5030  1.3340 -999.25  151.27  1.8085  1.8236  7.0337  0.0080  129.62  0.6121  151.14 -999.25  1.5030  1.3340 -999.25 -999.25  1.3340  1.5030  1.8236  118.32  0.5911 
  1671.500  125.58  7.1900  0.5240  0.6020  0.0040 -999.25  1.4750  1.3090 -999.25  151.57  1.7854  1.8032  7.1282  0.0071  127.88  0.6082  151.51 -999.25  1.4750  1.3090 -999.25 -999.25  1.3090  1.4750  1.8032  117.17  0.5868 
  1672.000  121.21  7.2500  0.5320  0.6180  0.0010 -999.25  1.4480  1.2620 -999.25  151.46  1.7722  1.7825  7.2031  0.0033  124.62  0.5794  151.48 -999.25  1.4480  1.2620 -999.25 -999.25  1.2620  1.4480  1.7825  114.52  0.5557 
  1672.500  115.05  7.3310  0.5400  0.6030 -0.0030 -999.25  1.3960  1.2390 -999.25  150.06  1.7590  1.7694  7.2670  0.0002  119.92  0.5353  150.29 -999.25  1.3960  1.2390 -999.25 -999.25  1.2390  1.3960  1.7694  110.47  0.5081 
  1673.000  106.69  7.4110  0.5520  0.5680 -0.0070 -999.25  1.3700  1.2050 -999.25  150.01  1.7392  1.7550  7.3470 -0.0038  113.37  0.5224  150.02 -999.25  1.3700  1.2050 -999.25 -999.25  1.2050  1.3700  1.7550  104.77  0.4943 
  1673.500  93.764  7.3120  0.5600  0.5210 -0.0090 -999.25  1.3700  1.1510 -999.25  149.96  1.7260  1.7367  7.3921 -0.0074  104.22  0.5289  149.97 -999.25  1.3700  1.1510 -999.25 -999.25  1.1510  1.3700  1.7367  96.478  0.5012 
