~Version Information
VERS.                     2.0: CWLS log ASCII Standard Version 2.00
WRAP.                      NO: One line per depth step
~Well Information Block
#MNEM.UNIT                               Data Type  Information
#---------                               ---------  -----------
STRT.FT                                    90.0000:
STOP.FT                                  2000.0000:
STEP.FT                                     0.5000:
NULL.                 -999.25                     :
COMP.                                             :COMPANY            
WELL.     LL 76-30 OR MUDDY CREEK 76-30           :WELL               
FLD .                                             :FIELD              
CTRY.                                             :COUNTRY            
STAT.                                             :STATE              
LOC .                                             :LOCATION           
UWI .                                             :UNIQUE WELL ID     
SRVC.                                             :Service company    
DATE.                                             :LOG DATE           
~Curve Information
#MNEM.UNIT           API CODE  Curve Description
#---------           --------  -----------------
DEPT.FT                      :   1 DEPTH
GR  .GAPI                    :   2
CALI.IN                      :   3
DPHI.PU-S                    :   4
NPHI.PU-S                    :   5
DRHO.G/C3                    :   6
SP  .MV                      :   7
ILD .OHMM                    :   8
ILM .OHMM                    :   9
SFLU.OHMM                    :  10
DT  .US/F                    :  11
RHOB.G/C3                    :  12
ROBS.G/C3                    :  13
CALS.IN                      :  14
DRHS.G/C3                    :  15
GRS .GAPI                    :  16
NPHS.PU-S                    :  17
DTS .US/F                    :  18
SBL .MV                      :  19
RD  .OHMM                    :  20
RM  .OHMM                    :  21
RS  .OHMM                    :  22
SFLU.OHMM                    :  23
ILMC.OHMM                    :  24
ILDC.OHMM                    :  25
ROBC.G/C3                    :  26
GRC .GAPI                    :  27
NPHC.PU-S                    :  28
~A
# ...
  1206.000  130.49  6.7440  0.5530  0.4760 -0.0030 -999.25  1.7550  1.6760 -999.25  136.52  1.7376  1.7590  6.7450 -0.0090  137.70  0.5600  136.52 -999.25  1.7550  1.6760 -999.25 -999.25  1.6760  1.7550  1.7590  124.25  0.5347 
  1206.500  137.30  6.7450  0.5460  0.5100 -0.0050 -999.25  1.7700  1.6910 -999.25  135.62  1.7491  1.7904  6.7470 -0.0090  130.07  0.5810  135.62 -999.25  1.7700  1.6910 -999.25 -999.25  1.6910  1.7700  1.7904  117.37  0.5574 
  1207.000  137.70  6.7450  0.5400  0.5600 -0.0090 -999.25  1.7860  1.7210 -999.25  135.82  1.7590  1.8135  6.7480 -0.0070  128.46  0.5450  135.82 -999.25  1.7860  1.7210 -999.25 -999.25  1.7210  1.7860  1.8135  115.93  0.5185 
  1207.500  130.07  6.7470  0.5210  0.5810 -0.0090 -999.25  1.8020  1.7530 -999.25  137.92  1.7904  1.8184  6.7490 -0.0020  118.71  0.5310  137.92 -999.25  1.8020  1.7530 -999.25 -999.25  1.7530  1.8020  1.8184  107.13  0.5034 
  1208.000  128.46  6.7480  0.5070  0.5450 -0.0070 -999.25  1.8340  1.7520 -999.25  139.12  1.8135  1.7937  6.7500  0.0120  114.13  0.4900  139.12 -999.25  1.8340  1.7520 -999.25 -999.25  1.7520  1.8340  1.7937  103.00  0.4593 
  1208.500  118.71  6.7490  0.5040  0.5310 -0.0020 -999.25  1.8000  1.7350 -999.25  138.02  1.8184  1.7524  6.7510  0.0110  113.74  0.4690  138.02 -999.25  1.8000  1.7350 -999.25 -999.25  1.7350  1.8000  1.7524  102.65  0.4367 
  1209.000  114.13  6.7500  0.5190  0.4900  0.0120 -999.25  1.7500  1.7030 -999.25  133.52  1.7937  1.7458  6.7520  0.0070  115.54  0.5210  133.52 -999.25  1.7500  1.7030 -999.25 -999.25  1.7030  1.7500  1.7458  104.29  0.4927 
  1209.500  113.74  6.7510  0.5440  0.4690  0.0110 -999.25  1.7180  1.6400 -999.25  130.93  1.7524  1.7277  6.7520  0.0030  117.95  0.5730  130.93 -999.25  1.7180  1.6400 -999.25 -999.25  1.6400  1.7180  1.7277  106.45  0.5487 
  1210.000  115.54  6.7520  0.5480  0.5210  0.0070 -999.25  1.6850  1.6100 -999.25  130.83  1.7458  1.7211  6.7340  0.0040  119.35  0.5800  130.83 -999.25  1.6850  1.6100 -999.25 -999.25  1.6100  1.6850  1.7211  107.65  0.5563 
  1210.500  117.95  6.7520  0.5590  0.5730  0.0030 -999.25  1.6560  1.5520 -999.25  132.82  1.7277  1.7145  6.7350  0.0020  120.96  0.5390  132.82 -999.25  1.6560  1.5520 -999.25 -999.25  1.5520  1.6560  1.7145  109.10  0.5120 
  1211.000  119.35  6.7340  0.5630  0.5800  0.0040 -999.25  1.6560  1.5390 -999.25  138.20  1.7211  1.7046  6.7360 -0.0030  122.16  0.5270  138.20 -999.25  1.6560  1.5390 -999.25 -999.25  1.5390  1.6560  1.7046  110.19  0.4991 
  1211.500  120.96  6.7350  0.5670  0.5390  0.0020 -999.25  1.6420  1.5120 -999.25  142.38  1.7145  1.7095  6.7570 -0.0090  123.57  0.5150  142.38 -999.25  1.6420  1.5120 -999.25 -999.25  1.5120  1.6420  1.7095  111.55  0.4862 
  1212.000  122.16  6.7360  0.5730  0.5270 -0.0030 -999.25  1.5980  1.4980 -999.25  143.67  1.7046  1.7211  6.7580 -0.0110  123.78  0.5170  143.67 -999.25  1.5980  1.4980 -999.25 -999.25  1.4980  1.5980  1.7211  111.75  0.4883 
  1212.500  123.57  6.7570  0.5700  0.5150 -0.0090 -999.25  1.5990  1.4990 -999.25  143.56  1.7095  1.7326  6.7580 -0.0080  123.59  0.5120  143.56 -999.25  1.5990  1.4990 -999.25 -999.25  1.4990  1.5990  1.7326  111.58  0.4830 
  1213.000  123.78  6.7580  0.5630  0.5170 -0.0110 -999.25  1.5990  1.5140 -999.25  143.15  1.7211  1.7590  6.7600 -0.0010  122.20  0.5080  143.15 -999.25  1.5990  1.5140 -999.25 -999.25  1.5140  1.5990  1.7590  110.33  0.4787 
  1213.500  123.59  6.7580  0.5560  0.5120 -0.0080 -999.25  1.6000  1.5280 -999.25  143.24  1.7326  1.7689  6.7610  0.0050  119.62  0.5050  143.24 -999.25  1.6000  1.5280 -999.25 -999.25  1.5280  1.6000  1.7689  108.01  0.4754 
  1214.000  122.20  6.7600  0.5400  0.5080 -0.0010 -999.25  1.6160  1.5570 -999.25  143.93  1.7590  1.7739  6.7620  0.0050  115.05  0.4980  143.93 -999.25  1.6160  1.5570 -999.25 -999.25  1.5570  1.6160  1.7739  103.88  0.4679 
  1214.500  119.62  6.7610  0.5340  0.5050  0.0050 -999.25  1.6460  1.5870 -999.25  143.72  1.7689  1.7623  6.7630  0.0030  108.28  0.4960  143.72 -999.25  1.6460  1.5870 -999.25 -999.25  1.5870  1.6460  1.7623  97.770  0.4657 
  1215.000  115.05  6.7620  0.5310  0.4980  0.0050 -999.25  1.6620  1.6170 -999.25  141.51  1.7739  1.7508  6.7630 -0.0010  104.30  0.5150  141.51 -999.25  1.6620  1.6170 -999.25 -999.25  1.6170  1.6620  1.7508  94.178  0.4862 
  1215.500  108.28  6.7630  0.5380  0.4960  0.0030 -999.25  1.6780  1.6330 -999.25  138.21  1.7623  1.7442  6.7450  0.0000  100.12  0.5190  138.21 -999.25  1.6780  1.6330 -999.25 -999.25  1.6330  1.6780  1.7442  90.340  0.4905 
  1216.000  104.30  6.7630  0.5450  0.5150 -0.0010 -999.25  1.6790  1.6340 -999.25  132.21  1.7508  1.7343  6.7260  0.0050  96.939  0.5100  132.21 -999.25  1.6790  1.6340 -999.25 -999.25  1.6340  1.6790  1.7343  87.401  0.4808 
  1216.500  100.12  6.7450  0.5490  0.5190  0.0000 -999.25  1.6650  1.6490 -999.25  131.20  1.7442  1.7211  6.7270  0.0040  92.363  0.4990  131.20 -999.25  1.6650  1.6490 -999.25 -999.25  1.6490  1.6650  1.7211  83.279  0.4690 
  1217.000  96.939  6.7260  0.5550  0.5100  0.0050 -999.25  1.6650  1.6350 -999.25  132.49  1.7343  1.7079  6.7280 -0.0010  89.980  0.4970  132.49 -999.25  1.6650  1.6350 -999.25 -999.25  1.6350  1.6650  1.7079  81.134  0.4668 
  1217.500  92.363  6.7270  0.5630  0.4990  0.0040 -999.25  1.6210  1.6210 -999.25  136.27  1.7211  1.7013  6.7290 -0.0040  90.788  0.5000  136.27 -999.25  1.6210  1.6210 -999.25 -999.25  1.6210  1.6210  1.7013  81.866  0.4700 
  1218.000  89.980  6.7280  0.5710  0.4970 -0.0010 -999.25  1.6070  1.5780 -999.25  137.16  1.7079  1.7062  6.7300 -0.0030  96.382  0.5070  137.16 -999.25  1.6070  1.5780 -999.25 -999.25  1.5780  1.6070  1.7062  86.913  0.4776 
  1218.500  90.788  6.7290  0.5750  0.5000 -0.0040 -999.25  1.5780  1.5500 -999.25  135.85  1.7013  1.7161  6.7310  0.0010  99.582  0.5160  135.85 -999.25  1.5780  1.5500 -999.25 -999.25  1.5500  1.5780  1.7161  89.803  0.4873 
  1219.000  96.382  6.7300  0.5720  0.5070 -0.0030 -999.25  1.5790  1.5360 -999.25  134.84  1.7062  1.7277  6.7520  0.0020  100.39  0.5300  134.84 -999.25  1.5790  1.5360 -999.25 -999.25  1.5360  1.5790  1.7277  90.609  0.5024 
  1219.500  99.582  6.7310  0.5660  0.5160  0.0010 -999.25  1.5650  1.5230 -999.25  135.83  1.7161  1.7277  6.7930  0.0020  101.60  0.5350  135.83 -999.25  1.5650  1.5230 -999.25 -999.25  1.5230  1.5650  1.7277  91.850  0.5077 
  1220.000  100.39  6.7520  0.5590  0.5300  0.0020 -999.25  1.5660  1.4960 -999.25  137.32  1.7277  1.7293  6.7940 -0.0030  103.80  0.5330  137.32 -999.25  1.5660  1.4960 -999.25 -999.25  1.4960  1.5660  1.7293  93.845  0.5056 
  1220.500  101.60  6.7930  0.5590  0.5350  0.0020 -999.25  1.5660  1.4960 -999.25  139.13  1.7277  1.7392  6.8150 -0.0050  108.20  0.5230  139.13 -999.25  1.5660  1.4960 -999.25 -999.25  1.4960  1.5660  1.7392  97.904  0.4948 
  1221.000  103.80  6.7940  0.5580  0.5330 -0.0030 -999.25  1.5800  1.4820 -999.25  142.53  1.7293  1.7475  6.8360 -0.0050  111.40  0.5110  142.53 -999.25  1.5800  1.4820 -999.25 -999.25  1.4820  1.5800  1.7475  100.88  0.4819 
  1221.500  108.20  6.8150  0.5520  0.5230 -0.0050 -999.25  1.5520  1.4820 -999.25  143.84  1.7392  1.7475  6.8560 -0.0060  111.81  0.5070  143.84 -999.25  1.5520  1.4820 -999.25 -999.25  1.4820  1.5520  1.7475  101.34  0.4776 
  1222.000  111.40  6.8360  0.5470  0.5110 -0.0050 -999.25  1.5520  1.4820 -999.25  143.45  1.7475  1.7425  6.8570 -0.0060  109.02  0.5150  143.45 -999.25  1.5520  1.4820 -999.25 -999.25  1.4820  1.5520  1.7425  98.819  0.4862 
  1222.500  111.81  6.8560  0.5470  0.5070 -0.0060 -999.25  1.5380  1.4960 -999.25  143.76  1.7475  1.7326  6.8580 -0.0050  100.26  0.5150  143.76 -999.25  1.5380  1.4960 -999.25 -999.25  1.4960  1.5380  1.7326  90.880  0.4862 
  1223.000  109.02  6.8570  0.5500  0.5150 -0.0060 -999.25  1.5520  1.4960 -999.25  144.07  1.7425  1.7277  6.8490 -0.0060  98.874  0.5020  144.07 -999.25  1.5520  1.4960 -999.25 -999.25  1.4960  1.5520  1.7277  89.591  0.4722 
  1223.500  100.26  6.8580  0.5560  0.5150 -0.0050 -999.25  1.5800  1.5380 -999.25  143.38  1.7326  1.7326  6.8400 -0.0100  102.67  0.4740  143.38 -999.25  1.5800  1.5380 -999.25 -999.25  1.5380  1.5800  1.7326  92.999  0.4421 
