~Version Information
VERS.                     2.0: CWLS log ASCII Standard Version 2.00
WRAP.                      NO: One line per depth step
~Well Information Block
#MNEM.UNIT                               Data Type  Information
#---------                               ---------  -----------
STRT.FT                                    90.0000:
STOP.FT                                  2000.0000:
STEP.FT                                     0.5000:
NULL.                 -999.25                     :
COMP.                                             :COMPANY            
WELL.     LL 76-30 OR MUDDY CREEK 76-30           :WELL               
FLD .                                             :FIELD              
CTRY.                                             :COUNTRY            
STAT.                                             :STATE              
LOC .                                             :LOCATION           
UWI .                                             :UNIQUE WELL ID     
SRVC.                                             :Service company    
DATE.                                             :LOG DATE           
~Curve Information
#MNEM.UNIT           API CODE  Curve Description
#---------           --------  -----------------
DEPT.FT                      :   1 DEPTH
GR  .GAPI                    :   2
CALI.IN                      :   3
DPHI.PU-S                    :   4
NPHI.PU-S                    :   5
DRHO.G/C3                    :   6
SP  .MV                      :   7
ILD .OHMM                    :   8
ILM .OHMM                    :   9
SFLU.OHMM                    :  10
DT  .US/F                    :  11
RHOB.G/C3                    :  12
ROBS.G/C3                    :  13
CALS.IN                      :  14
DRHS.G/C3                    :  15
GRS .GAPI                    :  16
NPHS.PU-S                    :  17
DTS .US/F                    :  18
SBL .MV                      :  19
RD  .OHMM                    :  20
RM  .OHMM                    :  21
RS  .OHMM                    :  22
SFLU.OHMM                    :  23
ILMC.OHMM                    :  24
ILDC.OHMM                    :  25
ROBC.G/C3                    :  26
GRC .GAPI                    :  27
NPHC.PU-S                    :  28
~A
# ...
  1314.000  75.289  6.7940  0.5750  0.5000 -0.0050 -999.25  1.4660  1.3490 -999.25  144.08  1.7013  1.7015  6.7915 -0.0051  74.900  0.5058  144.15 -999.25  1.4660  1.3490 -999.25 -999.25  1.3490  1.4660  1.7015  67.711  0.4763 
  1314.500  72.306  6.7750  0.5740  0.5190 -0.0060 -999.25  1.4790  1.3870 -999.25  142.28  1.7029  1.7031  6.7729 -0.0062  71.745  0.5238  144.09 -999.25  1.4790  1.3870 -999.25 -999.25  1.3870  1.4790  1.7031  64.809  0.4956 
  1315.000  67.329  6.7560  0.5730  0.5360 -0.0080 -999.25  1.5060  1.4390 -999.25  139.68  1.7046  1.7049  6.7542 -0.0080  66.951  0.5325  142.52 -999.25  1.5060  1.4390 -999.25 -999.25  1.4390  1.5060  1.7049  60.433  0.5050 
  1315.500  63.349  6.7370  0.5710  0.5220 -0.0080 -999.25  1.5490  1.5490 -999.25  137.29  1.7079  1.7090  6.7355 -0.0081  63.165  0.5157  140.09 -999.25  1.5490  1.5490 -999.25 -999.25  1.5490  1.5490  1.7090  56.972  0.4869 
  1316.000  60.964  6.7170  0.5620  0.4940 -0.0090 -999.25  1.5630  1.5630 -999.25  131.40  1.7227  1.7233  6.7159 -0.0091  60.905  0.4928  137.71 -999.25  1.5630  1.5630 -999.25 -999.25  1.5630  1.5630  1.7233  54.890  0.4623 
  1316.500  59.975  6.6980  0.5560  0.4880 -0.0100 -999.25  1.6060  1.5490 -999.25  131.19  1.7326  1.7325  6.6980 -0.0098  59.984  0.4890  132.57 -999.25  1.6060  1.5490 -999.25 -999.25  1.5490  1.6060  1.7325  54.020  0.4582 
  1317.000  60.183  6.6990  0.5570  0.4940 -0.0060 -999.25  1.6820  1.5490 -999.25  130.40  1.7310  1.7308  6.6990 -0.0059  60.198  0.4971  131.24 -999.25  1.6820  1.5490 -999.25 -999.25  1.5490  1.6820  1.7308  54.215  0.4670 
  1317.500  60.789  6.7000  0.5610  0.5160  0.0000 -999.25  1.7050  1.5490 -999.25  126.90  1.7244  1.7243  6.7000  0.0000  60.785  0.5170  130.59 -999.25  1.7050  1.5490 -999.25 -999.25  1.5490  1.7050  1.7243  54.747  0.4884 
  1318.000  60.198  6.7010  0.5640  0.5250  0.0020 -999.25  1.7290  1.5770 -999.25  124.40  1.7194  1.7195  6.7010  0.0020  60.205  0.5245  127.83 -999.25  1.7290  1.5770 -999.25 -999.25  1.5770  1.7290  1.7195  54.226  0.4964 
  1318.500  57.215  6.7220  0.5590  0.5190  0.0010 -999.25  1.7770  1.6510 -999.25  120.81  1.7277  1.7274  6.7214  0.0010  57.302  0.5183  125.12 -999.25  1.7770  1.6510 -999.25 -999.25  1.6510  1.7770  1.7274  51.655  0.4897 
  1319.000  57.221  6.7420  0.5420  0.5070 -0.0030 -999.25  1.8610  1.7130 -999.25  117.31  1.7557  1.7544  6.7411 -0.0028  57.221  0.5063  121.92 -999.25  1.8610  1.7130 -999.25 -999.25  1.7130  1.8610  1.7544  51.623  0.4768 
  1319.500  57.227  6.7430  0.5350  0.4850 -0.0040 -999.25  1.9120  1.7930 -999.25  117.61  1.7673  1.7665  6.7429 -0.0039  57.227  0.4848  118.47 -999.25  1.9120  1.7930 -999.25 -999.25  1.7930  1.9120  1.7665  51.632  0.4537 
  1320.000  56.244  6.7430  0.5290  0.4600 -0.0020 -999.25  2.0580  1.8780 -999.25  119.11  1.7772  1.7763  6.7430 -0.0022  56.325  0.4605  117.50 -999.25  2.0580  1.8780 -999.25 -999.25  1.8780  2.0580  1.7763  50.819  0.4276 
  1320.500  52.262  6.7250  0.5150  0.4490  0.0020 -999.25  2.1750  1.9660 -999.25  116.71  1.8003  1.7979  6.7268  0.0016  52.661  0.4495  118.54 -999.25  2.1750  1.9660 -999.25 -999.25  1.9660  2.1750  1.7979  47.482  0.4158 
  1321.000  52.071  6.7060  0.5170  0.4650  0.0030 -999.25  2.3620  2.0390 -999.25  113.21  1.7970  1.7973  6.7082  0.0029  52.094  0.4638  117.66 -999.25  2.3620  2.0390 -999.25 -999.25  2.0390  2.3620  1.7973  46.934  0.4311 
  1321.500  53.674  6.7060  0.5210  0.5110  0.0030 -999.25  2.5420  2.2150 -999.25  108.42  1.7904  1.7912  6.7060  0.0030  53.456  0.5063  114.68 -999.25  2.5420  2.2150 -999.25 -999.25  2.2150  2.5420  1.7912  48.158  0.4768 
  1322.000  56.672  6.7270  0.5080  0.4890 -0.0010 -999.25  2.5190  2.4060 -999.25  100.83  1.8118  1.8085  6.7238 -0.0004  56.212  0.4919  110.54 -999.25  2.5190  2.4060 -999.25 -999.25  2.4060  2.5190  1.8085  50.677  0.4613 
  1322.500  58.874  6.7480  0.4890  0.4680 -0.0060 -999.25  2.3840  2.3840 -999.25  103.82  1.8432  1.8378  6.7444 -0.0051  58.497  0.4713  104.36 -999.25  2.3840  2.3840 -999.25 -999.25  2.3840  2.3840  1.8378  52.781  0.4392 
  1323.000  60.078  6.7690  0.4660  0.4450  0.0020 -999.25  2.2560  2.2560 -999.25  106.12  1.8811  1.8739  6.7650  0.0005  59.850  0.4492  102.36 -999.25  2.2560  2.2560 -999.25 -999.25  2.2560  2.2560  1.8739  54.048  0.4155 
  1323.500  61.284  6.7700  0.4770  0.4510  0.0180 -999.25  2.3190  2.0960 -999.25  125.69  1.8630  1.8667  6.7698  0.0147  61.035  0.4497  104.95 -999.25  2.3190  2.0960 -999.25 -999.25  2.0960  2.3190  1.8667  55.128  0.4160 
  1324.000  60.893  6.7900  0.5050  0.4530  0.0240 -999.25  2.3840  2.0390 -999.25  128.78  1.8168  1.8271  6.7855  0.0226  60.981  0.4525  115.28 -999.25  2.3840  2.0390 -999.25 -999.25  2.0390  2.3840  1.8271  55.114  0.4190 
  1324.500  59.306  6.8110  0.5440  0.4410  0.0020 -999.25  2.4060  2.1550 -999.25  127.78  1.7524  1.7680  6.8059  0.0073  59.690  0.4442  127.07 -999.25  2.4060  2.1550 -999.25 -999.25  2.1550  2.4060  1.7680  53.992  0.4100 
  1325.000  54.925  6.9110  0.5460  0.4310 -0.0020 -999.25  2.4060  2.2350 -999.25  125.69  1.7491  1.7500  6.8850 -0.0010  56.064  0.4339  128.36 -999.25  2.4060  2.2350 -999.25 -999.25  2.2350  2.4060  1.7500  50.874  0.3990 
  1325.500  53.338  6.9120  0.5390  0.4180 -0.0020 -999.25  2.4060  2.2980 -999.25  124.09  1.7607  1.7574  6.9117 -0.0020  53.779  0.4222  126.94 -999.25  2.4060  2.2980 -999.25 -999.25  2.2980  2.4060  1.7574  48.853  0.3864 
  1326.000  53.547  6.9530  0.5370  0.4130 -0.0050 -999.25  2.4060  2.3400 -999.25  124.09  1.7640  1.7630  6.9409 -0.0041  53.485  0.4147  125.08 -999.25  2.4060  2.3400 -999.25 -999.25  2.3400  2.4060  1.7630  48.643  0.3784 
  1326.500  54.352  6.9540  0.5400  0.4160 -0.0070 -999.25  2.4060  2.3190 -999.25  124.88  1.7590  1.7606  6.9537 -0.0064  54.100  0.4149  124.09 -999.25  2.4060  2.3190 -999.25 -999.25  2.3190  2.4060  1.7606  49.227  0.3786 
  1327.000  55.357  6.9140  0.5430  0.4240 -0.0090 -999.25  2.4730  2.2770 -999.25  126.48  1.7541  1.7557  6.9272 -0.0083  55.024  0.4208  124.35 -999.25  2.4730  2.2770 -999.25 -999.25  2.2770  2.4730  1.7557  50.015  0.3849 
  1327.500  56.561  6.8160  0.5440  0.4330 -0.0090 -999.25  2.4960  2.2560 -999.25  126.18  1.7524  1.7530  6.8502 -0.0090  56.141  0.4291  125.38 -999.25  2.4960  2.2560 -999.25 -999.25  2.2560  2.4960  1.7530  50.873  0.3939 
  1328.000  57.766  6.7770  0.5430  0.4410 -0.0080 -999.25  2.6130  2.2980 -999.25  124.78  1.7541  1.7534  6.7913 -0.0084  57.324  0.4373  126.39 -999.25  2.6130  2.2980 -999.25 -999.25  2.2980  2.6130  1.7534  51.822  0.4027 
  1328.500  58.372  6.7370  0.5300  0.4330 -0.0080 -999.25  2.7610  2.5420 -999.25  122.88  1.7755  1.7673  6.7524 -0.0080  58.139  0.4369  125.80 -999.25  2.7610  2.5420 -999.25 -999.25  2.5420  2.7610  1.7673  52.475  0.4022 
  1329.000  57.582  6.6790  0.5190  0.4210 -0.0060 -999.25  2.8380  2.8640 -999.25  117.39  1.7937  1.7864  6.7023 -0.0068  57.900  0.4271  124.31 -999.25  2.8380  2.8640 -999.25 -999.25  2.8640  2.8380  1.7864  52.153  0.3917 
  1329.500  53.004  6.6390  0.5100  0.3900 -0.0020 -999.25  3.0820  2.9990 -999.25  113.79  1.8085  1.8023  6.6558 -0.0037  54.925  0.4067  121.65 -999.25  3.0820  2.9990 -999.25 -999.25  2.9990  3.0820  1.8023  49.380  0.3698 
  1330.000  52.016  6.6600  0.5040  0.3800  0.0030 -999.25  3.3790  3.2870 -999.25  111.60  1.8184  1.8141  6.6508  0.0008  52.448  0.3857  116.67 -999.25  3.3790  3.2870 -999.25 -999.25  3.2870  3.3790  1.8141  47.143  0.3472 
  1330.500  52.421  6.7010  0.5010  0.3770  0.0060 -999.25  3.8070  3.8770 -999.25  110.90  1.8234  1.8211  6.6823  0.0046  52.237  0.3788  113.40 -999.25  3.8070  3.8770 -999.25 -999.25  3.8770  3.8070  1.8211  47.013  0.3398 
  1331.000  53.426  6.7610  0.4940  0.3730  0.0080 -999.25  4.3290  4.1730 -999.25  110.50  1.8349  1.8294  6.7326  0.0071  52.951  0.3755  111.49 -999.25  4.3290  4.1730 -999.25 -999.25  4.1730  4.3290  1.8294  47.754  0.3363 
  1331.500  53.236  6.8220  0.4900  0.3630  0.0150 -999.25  4.6590  4.4910 -999.25  110.30  1.8415  1.8383  6.7921  0.0116  53.329  0.3695  110.84 -999.25  4.6590  4.4910 -999.25 -999.25  4.4910  4.6590  1.8383  48.211  0.3299 
