~Version Information
VERS.                     2.0: CWLS log ASCII Standard Version 2.00
WRAP.                     YES: Multiple lines per depth step
~Well Information Block
#MNEM.UNIT                               Data Type  Information
#---------                               ---------  -----------
STRT.FT                                   805.0000:
STOP.FT                                  5010.0000:
STEP.FT                                     0.5000:
NULL.                 -999.25                     :
COMP.                                             :COMPANY            
WELL.     SANTIAGO C 55-28                        :WELL               
FLD .                                             :FIELD              
CTRY.                                             :COUNTRY            
STAT.                                             :STATE              
LOC .                                             :LOCATION           
UWI .                                             :UNIQUE WELL ID     
SRVC.                                             :Service company    
DATE.                                             :LOG DATE           
~Curve Information
#MNEM.UNIT           API CODE  Curve Description
#---------           --------  -----------------
DEPT.FT                      :   1 DEPTH
CALI.IN                      :   2
GR  .GAPI                    :   3
NPHI.PU-S                    :   4
DPHI.PU-S                    :   5
DRHO.G/C3                    :   6
SP  .MV                      :   7
ILD .OHMM                    :   8
ILM .OHMM                    :   9
SFLU.OHMM                    :  10
LLD .OHMM                    :  11
LLS .OHMM                    :  12
MSFL.OHMM                    :  13
DT  .US/F                    :  14
SPHI.                        :  15
KSCI.                        :  16
PSCI.                        :  17
OSCI.                        :  18
WSCI.                        :  19
KWCI.                        :  20
PWCI.                        :  21
OWCI.                        :  22
WWCI.                        :  23
SBL .MV                      :  24
RS  .OHMM                    :  25
RM  .OHMM                    :  26
RD  .OHMM                    :  27
DTS .US/F                    :  28
RHOB.G/C3                    :  29
ROBS.G/C3                    :  30
DROS.G/C3                    :  31
CALS.IN                      :  32
GRS .GAPI                    :  33
NPHS.PU-S                    :  34
SFLU.OHMM                    :  35
ILMC.OHMM                    :  36
ILDC.OHMM                    :  37
ROBC.G/C3                    :  38
GRC .GAPI                    :  39
NPHC.PU-S                    :  40
~A
# ...
  4765.000 
  10.046  141.82  0.4120  0.4490 -0.0270 -38.569 -999.25 -999.25 -999.25 
  3.5660  2.8700  4.9620 -999.25  40.015 -999.25 -999.25 -999.25 -999.25 
 -999.25 -999.25 -999.25 -999.25 -16.491  4.9620  2.8700  3.5660 -999.25 
  1.9092  1.8917 -0.0426  10.026  151.40  0.4110  4.9620  2.8700  3.5660 
  1.8917  151.40  0.4110 
  4765.500 
  10.039  144.38  0.3930  0.4470 -0.0210 -38.332 -999.25 -999.25 -999.25 
  3.5210  2.9070  5.5910 -999.25  39.849 -999.25 -999.25 -999.25 -999.25 
 -999.25 -999.25 -999.25 -999.25 -16.255  5.5910  2.9070  3.5210 -999.25 
  1.9125  1.8976 -0.0384  10.026  150.29  0.4110  5.5910  2.9070  3.5210 
  1.8976  150.29  0.4110 
  4766.000 
  9.9870  146.75  0.3860  0.4500 -0.0200 -38.095 -999.25 -999.25 -999.25 
  3.4950  2.9240  5.5280 -999.25  40.870 -999.25 -999.25 -999.25 -999.25 
 -999.25 -999.25 -999.25 -999.25 -16.019  5.5280  2.9240  3.4950 -999.25 
  1.9075  1.8974 -0.0337  10.020  146.56  0.4010  5.5280  2.9240  3.4950 
  1.8974  146.56  0.4010 
  4766.500 
  9.9550  149.07  0.3960  0.4540 -0.0280 -37.739 -999.25 -999.25 -999.25 
  3.5660  2.9400  5.1990 -999.25  41.524 -999.25 -999.25 -999.25 -999.25 
 -999.25 -999.25 -999.25 -999.25 -15.664  5.1990  2.9400  3.5660 -999.25 
  1.9009  1.8979 -0.0325  10.008  144.13  0.3980  5.1990  2.9400  3.5660 
  1.8979  144.13  0.3980 
  4767.000 
  9.9710  148.91  0.4090  0.4600 -0.0360 -37.383 -999.25 -999.25 -999.25 
  3.6390  2.9610  5.4410 -999.25  41.535 -999.25 -999.25 -999.25 -999.25 
 -999.25 -999.25 -999.25 -999.25 -15.308  5.4410  2.9610  3.6390 -999.25 
  1.8910  1.9100 -0.0352  9.9973  143.23  0.4070  5.4410  2.9610  3.6390 
  1.9100  143.23  0.4070 
  4767.500 
  10.019  146.19  0.4320  0.4640 -0.0450 -37.146 -999.25 -999.25 -999.25 
  3.6730  2.9720  5.0430 -999.25  41.226 -999.25 -999.25 -999.25 -999.25 
 -999.25 -999.25 -999.25 -999.25 -15.072  5.0430  2.9720  3.6730 -999.25 
  1.8844  1.9221 -0.0358  10.010  142.31  0.4100  5.0430  2.9720  3.6730 
  1.9221  142.31  0.4100 
  4768.000 
  10.080  144.68  0.4450  0.4630 -0.0480 -36.988 -999.25 -999.25 -999.25 
  3.6390  2.9610  4.7430 -999.25  41.285 -999.25 -999.25 -999.25 -999.25 
 -999.25 -999.25 -999.25 -999.25 -14.915  4.7430  2.9610  3.6390 -999.25 
  1.8861  1.9230 -0.0357  10.015  138.68  0.4070  4.7430  2.9610  3.6390 
  1.9230  138.68  0.4070 
  4768.500 
  10.120  143.52  0.4470  0.4550 -0.0330 -37.587 -999.25 -999.25 -999.25 
  3.4690  2.9400  4.9920 -999.25  41.748 -999.25 -999.25 -999.25 -999.25 
 -999.25 -999.25 -999.25 -999.25 -15.515  4.9920  2.9400  3.4690 -999.25 
  1.8993  1.9040 -0.0398  10.007  134.82  0.4030  4.9920  2.9400  3.4690 
  1.9040  134.82  0.4030 
  4769.000 
  10.124  143.60  0.4510  0.4490 -0.0240 -38.385 -999.25 -999.25 -999.25 
  3.3810  2.8750  5.0540 -999.25  42.068 -999.25 -999.25 -999.25 -999.25 
 -999.25 -999.25 -999.25 -999.25 -16.314  5.0540  2.8750  3.3810 -999.25 
  1.9092  1.8875 -0.0441  10.026  135.40  0.4120  5.0540  2.8750  3.3810 
  1.8875  135.40  0.4120 
  4769.500 
  10.044  141.88  0.4560  0.4500 -0.0160 -39.183 -999.25 -999.25 -999.25 
  3.3870  2.8490  5.0800 -999.25  41.949 -999.25 -999.25 -999.25 -999.25 
 -999.25 -999.25 -999.25 -999.25 -17.113  5.0800  2.8490  3.3870 -999.25 
  1.9075  1.8848 -0.0405  10.038  141.79  0.4450  5.0800  2.8490  3.3870 
  1.8848  141.79  0.4450 
  4770.000 
  10.028  136.72  0.4420  0.4580 -0.0150 -39.703 -999.25 -999.25 -999.25 
  3.4180  2.8340  5.2680 -999.25  41.235 -999.25 -999.25 -999.25 -999.25 
 -999.25 -999.25 -999.25 -999.25 -17.634  5.2680  2.8340  3.4180 -999.25 
  1.8943  1.8910 -0.0347  10.041  146.08  0.4470  5.2680  2.8340  3.4180 
  1.8910  146.08  0.4470 
  4770.500 
  10.013  126.94  0.4260  0.4600 -0.0210 -39.108 -999.25 -999.25 -999.25 
  3.4560  2.8540  4.7600 -999.25  40.926 -999.25 -999.25 -999.25 -999.25 
 -999.25 -999.25 -999.25 -999.25 -17.040  4.7600  2.8540  3.4560 -999.25 
  1.8910  1.8920 -0.0286  10.073  147.82  0.4220  4.7600  2.8540  3.4560 
  1.8920  147.82  0.4220 
  4771.000 
  10.037  124.66  0.4160  0.4620 -0.0230 -38.952 -999.25 -999.25 -999.25 
  3.5140  2.9020  5.4530 -999.25  41.840 -999.25 -999.25 -999.25 -999.25 
 -999.25 -999.25 -999.25 -999.25 -16.885  5.4530  2.9020  3.5140 -999.25 
  1.8877  1.8865 -0.0264  10.113  148.51  0.4120  5.4530  2.9020  3.5140 
  1.8865  148.51  0.4120 
  4771.500 
  10.045  123.58  0.4290  0.4680 -0.0220 -39.195 -999.25 -999.25 -999.25 
  3.5860  2.9610  5.4510 -999.25  42.660 -999.25 -999.25 -999.25 -999.25 
 -999.25 -999.25 -999.25 -999.25 -17.129  5.4510  2.9610  3.5860 -999.25 
  1.8778  1.8837 -0.0290  10.157  148.88  0.4110  5.4510  2.9610  3.5860 
  1.8837  148.88  0.4110 
  4772.000 
  10.045  124.79  0.4390  0.4780 -0.0260 -39.000 -999.25 -999.25 -999.25 
  3.6790  3.0670  6.3500 -999.25  42.707 -999.25 -999.25 -999.25 -999.25 
 -999.25 -999.25 -999.25 -999.25 -16.935  6.3500  3.0670  3.6790 -999.25 
  1.8613  1.8821 -0.0329  10.191  148.42  0.4120  6.3500  3.0670  3.6790 
  1.8821  148.42  0.4120 
  4772.500 
  10.037  126.67  0.4350  0.4880 -0.0340 -38.845 -999.25 -999.25 -999.25 
  3.6930  3.1700  6.5740 -999.25  42.505 -999.25 -999.25 -999.25 -999.25 
 -999.25 -999.25 -999.25 -999.25 -16.781  6.5740  3.1700  3.6930 -999.25 
  1.8448  1.8818 -0.0322  10.216  145.81  0.4140  6.5740  3.1700  3.6930 
  1.8818  145.81  0.4140 
  4773.000 
  10.054  129.35  0.4240  0.4950 -0.0400 -38.809 -999.25 -999.25 -999.25 
  3.7620  3.2710  5.6930 -999.25  42.445 -999.25 -999.25 -999.25 -999.25 
 -999.25 -999.25 -999.25 -999.25 -16.746  5.6930  3.2710  3.7620 -999.25 
  1.8333  1.8913 -0.0248  10.231  140.13  0.4190  5.6930  3.2710  3.7620 
  1.8913  140.13  0.4190 
  4773.500 
  10.026  132.37  0.4160  0.5000 -0.0430 -39.052 -999.25 -999.25 -999.25 
  3.8880  3.4180  6.6200 -999.25  42.313 -999.25 -999.25 -999.25 -999.25 
 -999.25 -999.25 -999.25 -999.25 -16.990  6.6200  3.4180  3.8880 -999.25 
  1.8250  1.9025 -0.0146  10.190  133.56  0.4260  6.6200  3.4180  3.8880 
  1.9025  133.56  0.4260 
  4774.000 
  10.030  134.26  0.4100  0.5000 -0.0440 -39.535 -999.25 -999.25 -999.25 
  4.0270  3.5990  5.9140 -999.25  42.123 -999.25 -999.25 -999.25 -999.25 
 -999.25 -999.25 -999.25 -999.25 -17.474  5.9140  3.5990  4.0270 -999.25 
  1.8250  1.8983 -0.0069  10.136  128.63  0.4330  5.9140  3.5990  4.0270 
  1.8983  128.63  0.4330 
  4774.500 
  10.022  135.14  0.4040  0.4880 -0.0380 -40.056 -999.25 -999.25 -999.25 
  4.2160  3.7480  5.2070 -999.25  41.647 -999.25 -999.25 -999.25 -999.25 
 -999.25 -999.25 -999.25 -999.25 -17.996  5.2070  3.7480  4.2160 -999.25 
  1.8448  1.8820 -0.0088  10.064  123.62  0.4400  5.2070  3.7480  4.2160 
  1.8820  123.62  0.4400 
  4775.000 
  10.022  131.54  0.4010  0.4820 -0.0330 -40.657 -999.25 -999.25 -999.25 
  4.3500  3.7750  11.263 -999.25  40.743 -999.25 -999.25 -999.25 -999.25 
 -999.25 -999.25 -999.25 -999.25 -18.598  11.263  3.7750  4.3500 -999.25 
  1.8547  1.8682 -0.0169  10.030  117.74  0.4380  11.263  3.7750  4.3500 
  1.8682  117.74  0.4380 
  4775.500 
  10.023  127.16  0.3960  0.4770 -0.0300 -41.217 -999.25 -999.25 -999.25 
  4.2470  3.7750  16.365 -999.25  39.661 -999.25 -999.25 -999.25 -999.25 
 -999.25 -999.25 -999.25 -999.25 -19.159  16.365  3.7750  4.2470 -999.25 
  1.8630  1.8685 -0.0200  10.046  111.65  0.4380  16.365  3.7750  4.2470 
  1.8685  111.65  0.4380 
  4776.000 
  10.027  124.56  0.4040  0.4750 -0.0320 -42.178 -999.25 -999.25 -999.25 
  4.1320  3.7480  14.949 -999.25  38.864 -999.25 -999.25 -999.25 -999.25 
 -999.25 -999.25 -999.25 -999.25 -20.121  14.949  3.7480  4.1320 -999.25 
  1.8663  1.8722 -0.0218  10.051  105.94  0.4410  14.949  3.7480  4.1320 
  1.8722  105.94  0.4410 
  4776.500 
  10.031  120.32  0.4050  0.4750 -0.0370 -43.057 -999.25 -999.25 -999.25 
  4.4390  3.8100  6.8060 -999.25  38.614 -999.25 -999.25 -999.25 -999.25 
 -999.25 -999.25 -999.25 -999.25 -21.001  6.8060  3.8100  4.4390 -999.25 
  1.8663  1.8729 -0.0249  10.047  104.14  0.4430  6.8060  3.8100  4.4390 
  1.8729  104.14  0.4430 
