~Version Information
VERS.                     2.0: CWLS log ASCII Standard Version 2.00
WRAP.                     YES: Multiple lines per depth step
~Well Information Block
#MNEM.UNIT                               Data Type  Information
#---------                               ---------  -----------
STRT.FT                                   120.0000:
STOP.FT                                  3000.0000:
STEP.FT                                     0.5000:
NULL.                 -999.25                     :
COMP.                                             :COMPANY            
WELL.     LOS LOBOS 62X-30                        :WELL               
FLD .                                             :FIELD              
CTRY.                                             :COUNTRY            
STAT.                                             :STATE              
LOC .                                             :LOCATION           
UWI .                                             :UNIQUE WELL ID     
SRVC.                                             :Service company    
DATE.                                             :LOG DATE           
~Curve Information
#MNEM.UNIT           API CODE  Curve Description
#---------           --------  -----------------
DEPT.FT                      :   1 DEPTH
CALI.IN                      :   2
GR  .GAPI                    :   3
NPHI.PU-S                    :   4
DPHI.PU-S                    :   5
DRHO.G/C3                    :   6
SP  .MV                      :   7
ILD .OHMM                    :   8
ILM .OHMM                    :   9
LL8U.OHMM                    :  10
DT  .US/F                    :  11
ROP .                        :  12
GASR.                        :  13
C1R .                        :  14
C2R .                        :  15
C3R .                        :  16
C4R .                        :  17
KSCI.                        :  18
PSCI.                        :  19
OSCI.                        :  20
WSCI.                        :  21
KWCI.                        :  22
PWCI.                        :  23
OWCI.                        :  24
WWCI.                        :  25
ROBS.G/C3                    :  26
NPHS.PU-S                    :  27
PWCL.                        :  28
OWCL.                        :  29
WWCL.                        :  30
KWCL.                        :  31
VCLD.                        :  32
VCLW.                        :  33
VSHL.                        :  34
PHIE.                        :  35
PHIT.                        :  36
SWE .                        :  37
SWT .                        :  38
SWTU.                        :  39
RMAT.                        :  40
BVWE.                        :  41
RHOB.G/C3                    :  42
CALS.IN                      :  43
DTS .US/F                    :  44
SBL .MV                      :  45
RD  .OHMM                    :  46
RM  .OHMM                    :  47
RS  .OHMM                    :  48
DPHI.                        :  49
GRC .GAPI                    :  50
NPHC.PU-S                    :  51
LL8C.OHMM                    :  52
ILDC.OHMM                    :  53
ILMC.OHMM                    :  54
ROBC.G/C3                    :  55
~A
# ...
  1137.000 
  11.675  44.040  0.5200  0.3690  0.1330 -39.670  2.7570  2.6730  2.5220 
  116.21  59.328  0.7870  4.7550 -999.25 -999.25 -999.25 -999.25 -999.25 
 -999.25 -999.25 -999.25 -999.25 -999.25 -999.25  1.9609  0.5610 -999.25 
 -999.25 -999.25 -999.25 -999.25 -999.25 -999.25 -999.25 -999.25 -999.25 
 -999.25 -999.25 -999.25 -999.25  2.0412  10.880  126.41 -7.6700  2.7570 
  2.6730  2.5220  0.3690  58.216  0.5476  2.5220  2.7558  2.7026  1.9742 
  1137.500 
  11.830  42.456  0.4560  0.3630  0.1400 -39.664  2.7970  2.7370  2.5960 
  112.82  59.342  0.7920  4.7560 -999.25 -999.25 -999.25 -999.25 -999.25 
 -999.25 -999.25 -999.25 -999.25 -999.25 -999.25  2.0061  0.5424 -999.25 
 -999.25 -999.25 -999.25 -999.25 -999.25 -999.25 -999.25 -999.25 -999.25 
 -999.25 -999.25 -999.25 -999.25  2.0511  11.211  116.21 -7.6640  2.7970 
  2.7370  2.5960  0.3630  59.086  0.5274  2.5960  2.7961  2.7722  2.0214 
  1138.000 
  11.865  41.980  0.4400  0.3550  0.1410 -39.655  2.8690  2.7920  2.7020 
  111.28  59.360  0.8040  4.7570 -999.25 -999.25 -999.25 -999.25 -999.25 
 -999.25 -999.25 -999.25 -999.25 -999.25 -999.25  2.0235  0.5307 -999.25 
 -999.25 -999.25 -999.25 -999.25 -999.25 -999.25 -999.25 -999.25 -999.25 
 -999.25 -999.25 -999.25 -999.25  2.0643  11.544  112.82 -7.6550  2.8690 
  2.7920  2.7020  0.3550  55.786  0.5147  2.7020  2.8685  2.8330  2.0409 
  1138.500 
  11.889  42.931  0.4490  0.3560  0.1330 -39.647  2.9370  2.8220  2.7810 
  113.25  59.616  0.8040  4.7590 -999.25 -999.25 -999.25 -999.25 -999.25 
 -999.25 -999.25 -999.25 -999.25 -999.25 -999.25  2.0455  0.4919 -999.25 
 -999.25 -999.25 -999.25 -999.25 -999.25 -999.25 -999.25 -999.25 -999.25 
 -999.25 -999.25 -999.25 -999.25  2.0626  11.743  111.28 -7.6470  2.9370 
  2.8220  2.7810  0.3560  50.811  0.4721  2.7810  2.9367  2.8666  2.0641 
  1139.000 
  11.893  44.753  0.4730  0.3770  0.0960 -39.639  2.9800  2.8680  2.7500 
  114.30  59.397  0.8040  4.7600 -999.25 -999.25 -999.25 -999.25 -999.25 
 -999.25 -999.25 -999.25 -999.25 -999.25 -999.25  2.0569  0.4489 -999.25 
 -999.25 -999.25 -999.25 -999.25 -999.25 -999.25 -999.25 -999.25 -999.25 
 -999.25 -999.25 -999.25 -999.25  2.0280  11.845  113.25 -7.6390  2.9800 
  2.8680  2.7500  0.3770  49.182  0.4250  2.7500  2.9798  2.9155  2.0761 
  1139.500 
  11.949  46.892  0.4990  0.4040  0.0560 -39.632  2.9960  2.8940  2.6950 
  115.71  59.410  0.8280  4.7610 -999.25 -999.25 -999.25 -999.25 -999.25 
 -999.25 -999.25 -999.25 -999.25 -999.25 -999.25  2.0635  0.4440 -999.25 
 -999.25 -999.25 -999.25 -999.25 -999.25 -999.25 -999.25 -999.25 -999.25 
 -999.25 -999.25 -999.25 -999.25  1.9834  11.876  114.30 -7.6320  2.9960 
  2.8940  2.6950  0.4040  48.725  0.4196  2.6950  2.9958  2.9428  2.0829 
  1140.000 
  12.111  49.190  0.5330  0.4190  0.0400 -39.623  2.9950  2.9090  2.9410 
  118.54  58.712  0.8510  4.7630 -999.25 -999.25 -999.25 -999.25 -999.25 
 -999.25 -999.25 -999.25 -999.25 -999.25 -999.25  2.0470  0.4598 -999.25 
 -999.25 -999.25 -999.25 -999.25 -999.25 -999.25 -999.25 -999.25 -999.25 
 -999.25 -999.25 -999.25 -999.25  1.9587  11.891  115.71 -7.6230  2.9950 
  2.9090  2.9410  0.4190  49.864  0.4369  2.9410  2.9949  2.9585  2.0665 
  1140.500 
  12.186  50.297  0.5560  0.4290  0.0370 -39.619  2.9560  2.8870  2.9990 
  128.78  56.089  0.8450  4.7640 -999.25 -999.25 -999.25 -999.25 -999.25 
 -999.25 -999.25 -999.25 -999.25 -999.25 -999.25  2.0078  0.4848 -999.25 
 -999.25 -999.25 -999.25 -999.25 -999.25 -999.25 -999.25 -999.25 -999.25 
 -999.25 -999.25 -999.25 -999.25  1.9422  11.918  118.54 -7.6190  2.9560 
  2.8870  2.9990  0.4290  52.009  0.4644  2.9990  2.9559  2.9362  2.0274 
  1141.000 
  12.341  50.377  0.5500  0.4140  0.0390 -39.616  2.9120  2.8440  2.7420 
  132.51  54.195  0.8330  4.7650 -999.25 -999.25 -999.25 -999.25 -999.25 
 -999.25 -999.25 -999.25 -999.25 -999.25 -999.25  1.9721  0.5145 -999.25 
 -999.25 -999.25 -999.25 -999.25 -999.25 -999.25 -999.25 -999.25 -999.25 
 -999.25 -999.25 -999.25 -999.25  1.9669  12.023  128.78 -7.6160  2.9120 
  2.8440  2.7420  0.4140  54.635  0.4970  2.7420  2.9122  2.8932  1.9923 
  1141.500 
  12.574  48.951  0.5450  0.3810  0.0490 -39.533  2.8790  2.8010  2.5810 
  137.40  54.213  0.8150  4.7670 -999.25 -999.25 -999.25 -999.25 -999.25 
 -999.25 -999.25 -999.25 -999.25 -999.25 -999.25  1.9511  0.5435 -999.25 
 -999.25 -999.25 -999.25 -999.25 -999.25 -999.25 -999.25 -999.25 -999.25 
 -999.25 -999.25 -999.25 -999.25  2.0214  12.145  132.51 -7.5330  2.8790 
  2.8010  2.5810  0.3810  57.483  0.5290  2.5810  2.8803  2.8503  1.9720 
  1142.000 
  12.768  47.922  0.5390  0.3590  0.0840 -39.491  2.8360  2.7390  2.4870 
  135.60  54.228  0.7850  4.7680 -999.25 -999.25 -999.25 -999.25 -999.25 
 -999.25 -999.25 -999.25 -999.25 -999.25 -999.25  1.9536  0.5532 -999.25 
 -999.25 -999.25 -999.25 -999.25 -999.25 -999.25 -999.25 -999.25 -999.25 
 -999.25 -999.25 -999.25 -999.25  2.0577  12.258  137.40 -7.4910  2.8360 
  2.7390  2.4870  0.3590  58.946  0.5396  2.4870  2.8383  2.7876  1.9751 
  1142.500 
  12.451  48.080  0.5160  0.3500  0.1050 -39.487  2.7880  2.7030  2.5090 
  133.02  54.241  0.7790  4.7700 -999.25 -999.25 -999.25 -999.25 -999.25 
 -999.25 -999.25 -999.25 -999.25 -999.25 -999.25  1.9922  0.5477 -999.25 
 -999.25 -999.25 -999.25 -999.25 -999.25 -999.25 -999.25 -999.25 -999.25 
 -999.25 -999.25 -999.25 -999.25  2.0725  12.449  135.60 -7.4870  2.7880 
  2.7030  2.5090  0.3500  59.349  0.5336  2.5090  2.7918  2.7527  2.0148 
  1143.000 
  12.036  49.426  0.4980  0.3560  0.1140 -39.482  2.7520  2.6680  2.5540 
  131.60  54.262  0.7730  4.7710 -999.25 -999.25 -999.25 -999.25 -999.25 
 -999.25 -999.25 -999.25 -999.25 -999.25 -999.25  2.0383  0.5422 -999.25 
 -999.25 -999.25 -999.25 -999.25 -999.25 -999.25 -999.25 -999.25 -999.25 
 -999.25 -999.25 -999.25 -999.25  2.0626  12.665  133.02 -7.4820  2.7520 
  2.6680  2.5540  0.3560  57.973  0.5277  2.5540  2.7575  2.7190  2.0620 
  1143.500 
  11.960  50.139  0.4810  0.3670  0.0990 -39.400  2.7060  2.6520  2.5670 
  132.70  54.278  0.7670  4.7720 -999.25 -999.25 -999.25 -999.25 -999.25 
 -999.25 -999.25 -999.25 -999.25 -999.25 -999.25  2.0646  0.5282 -999.25 
 -999.25 -999.25 -999.25 -999.25 -999.25 -999.25 -999.25 -999.25 -999.25 
 -999.25 -999.25 -999.25 -999.25  2.0445  12.619  131.60 -7.4000  2.7060 
  2.6520  2.5670  0.3670  56.717  0.5122  2.5670  2.7109  2.7018  2.0881 
  1144.000 
  12.063  50.218  0.4650  0.3860  0.0650 -39.316  2.6950  2.6410  2.5610 
  138.46  54.059  0.7490  4.7740 -999.25 -999.25 -999.25 -999.25 -999.25 
 -999.25 -999.25 -999.25 -999.25 -999.25 -999.25  2.0678  0.5075 -999.25 
 -999.25 -999.25 -999.25 -999.25 -999.25 -999.25 -999.25 -999.25 -999.25 
 -999.25 -999.25 -999.25 -999.25  2.0131  12.254  132.70 -7.3160  2.6950 
  2.6410  2.5610  0.3860  56.440  0.4894  2.5610  2.6970  2.6861  2.0893 
  1144.500 
  12.131  49.743  0.4590  0.3890  0.0590 -39.313  2.6930  2.6360  2.5360 
  142.56  54.069  0.7640  4.7750 -999.25 -999.25 -999.25 -999.25 -999.25 
 -999.25 -999.25 -999.25 -999.25 -999.25 -999.25  2.0539  0.4899 -999.25 
 -999.25 -999.25 -999.25 -999.25 -999.25 -999.25 -999.25 -999.25 -999.25 
 -999.25 -999.25 -999.25 -999.25  2.0082  12.000  138.46 -7.3130  2.6930 
  2.6360  2.5360  0.3890  57.590  0.4700  2.5360  2.6930  2.6779  2.0740 
  1145.000 
  12.107  49.822  0.4800  0.3820  0.0630 -39.230  2.6920  2.6290  2.5220 
  143.16  54.089  0.7790  4.7760 -999.25 -999.25 -999.25 -999.25 -999.25 
 -999.25 -999.25 -999.25 -999.25 -999.25 -999.25  2.0294  0.4733 -999.25 
 -999.25 -999.25 -999.25 -999.25 -999.25 -999.25 -999.25 -999.25 -999.25 
 -999.25 -999.25 -999.25 -999.25  2.0197  12.010  142.56 -7.2300  2.6920 
  2.6290  2.5220  0.3820  58.381  0.4518  2.5220  2.6921  2.6708  2.0495 
  1145.500 
  11.929  51.169  0.5040  0.3800  0.0660 -39.226  2.7010  2.6140  2.5070 
  142.14  53.865  0.8020  4.7780 -999.25 -999.25 -999.25 -999.25 -999.25 
 -999.25 -999.25 -999.25 -999.25 -999.25 -999.25  2.0107  0.4621 -999.25 
 -999.25 -999.25 -999.25 -999.25 -999.25 -999.25 -999.25 -999.25 -999.25 
 -999.25 -999.25 -999.25 -999.25  2.0230  12.096  143.16 -7.2260  2.7010 
  2.6140  2.5070  0.3800  58.539  0.4395  2.5070  2.7018  2.6563  2.0313 
