~Version Information
VERS.                     2.0: CWLS log ASCII Standard Version 2.00
WRAP.                     YES: Multiple lines per depth step
~Well Information Block
#MNEM.UNIT                               Data Type  Information
#---------                               ---------  -----------
STRT.FT                                   800.0000:
STOP.FT                                  5530.0000:
STEP.FT                                     0.5000:
NULL.                 -999.25                     :
COMP.                                             :COMPANY            
WELL.     SANTIAGO B 73-29                        :WELL               
FLD .                                             :FIELD              
CTRY.                                             :COUNTRY            
STAT.                                             :STATE              
LOC .                                             :LOCATION           
UWI .                                             :UNIQUE WELL ID     
SRVC.                                             :Service company    
DATE.                                             :LOG DATE           
~Curve Information
#MNEM.UNIT           API CODE  Curve Description
#---------           --------  -----------------
DEPT.FT                      :   1 DEPTH
SP  .MV                      :   2
GR  .GAPI                    :   3
ILD .OHMM                    :   4
ILM .OHMM                    :   5
SFL .OHMM                    :   6
DT  .US/F                    :   7
CALI.IN                      :   8
KSCI.                        :   9
PSCI.                        :  10
OSCI.                        :  11
WSCI.                        :  12
GR  .GAPI                    :  13
RHOB.G/C3                    :  14
NPHI.PU-S                    :  15
DRHO.G/C3                    :  16
SBL .MV                      :  17
GRS .GAPI                    :  18
RD  .OHMM                    :  19
RM  .OHMM                    :  20
RS  .OHMM                    :  21
R0BS.G/C3                    :  22
DRHS.G/C3                    :  23
GRS .GAPI                    :  24
NPHS.PU-S                    :  25
DTS .US/F                    :  26
CALS.IN                      :  27
SFLC.OHMM                    :  28
ILMC.OHMM                    :  29
ILDC.OHMM                    :  30
R0BC.G/C3                    :  31
GRC .GAPI                    :  32
NPHC.PU-S                    :  33
~A
# ...
  4874.500 
 -37.348  124.14  2.9410  2.9680  3.0510  84.540  9.9490 -999.25 -999.25 
 -999.25 -999.25  125.16  1.8070  0.3650 -0.0310 -15.116  124.14  2.9410 
  2.9680  3.0510  1.8496 -0.0206  135.80  0.3689  84.056  9.9537  3.3187 
  2.9822  2.9394  1.8567  142.51  0.3451 
  4875.000 
 -37.327  124.16  3.5050  3.3180  3.5700  85.225  9.9510 -999.25 -999.25 
 -999.25 -999.25  130.00  1.7970  0.3510 -0.0280 -15.096  124.16  3.5050 
  3.3180  3.5700  1.8552 -0.0179  136.70  0.3645  82.187  9.9745  3.8790 
  3.3360  3.5027  1.8624  143.56  0.3402 
  4875.500 
 -37.503  122.60  3.9910  3.8470  4.0270  84.116  9.9530 -999.25 -999.25 
 -999.25 -999.25  135.93  1.8190  0.3350 -0.0230 -15.273  122.60  3.9910 
  3.8470  4.0270  1.8672 -0.0169  133.18  0.3505  81.385  9.9574  4.3692 
  3.8709  3.9880  1.8743  139.78  0.3244 
  4876.000 
 -38.075  119.05  4.4200  4.3390  4.3380  82.213  9.9750 -999.25 -999.25 
 -999.25 -999.25  136.71  1.8300  0.3210 -0.0230 -15.845  119.05  4.4200 
  4.3390  4.3380  1.8826 -0.0157  112.54  0.3345  80.868  9.9394  4.7016 
  4.3691  4.4163  1.8896  118.05  0.3036 
  4876.500 
 -38.643  111.55  4.7610  4.9400  4.6310  81.402  9.9580 -999.25 -999.25 
 -999.25 -999.25  133.14  1.8370  0.3160 -0.0230 -16.414  111.55  4.7610 
  4.9400  4.6310  1.8953 -0.0088  103.74  0.3208  80.123  9.9221  5.0143 
  4.9786  4.7567  1.9021  108.76  0.2886 
  4877.000 
 -39.021  105.04  5.3210  5.4710  5.1300  80.892  9.9400 -999.25 -999.25 
 -999.25 -999.25  112.46  1.8420  0.3190 -0.0250 -16.793  105.04  5.3210 
  5.4710  5.1300  1.9070 -0.0010  100.20  0.3161  78.438  9.9241  5.5500 
  5.5185  5.3157  1.9138  105.05  0.2835 
  4877.500 
 -39.396  104.67  5.7860  5.9470  5.7330  80.183  9.9220 -999.25 -999.25 
 -999.25 -999.25  103.75  1.8440  0.3280 -0.0250 -17.168  104.67  5.7860 
  5.9470  5.7330  1.9177  0.0048  102.97  0.3193  77.373  9.9270  6.1970 
  6.0033  5.7797  1.9246  107.97  0.2870 
  4878.000 
 -37.193  105.08  6.1760  6.0660  6.4070  78.478  9.9240 -999.25 -999.25 
 -999.25 -999.25  100.18  1.8490  0.3190 -0.0210 -14.966  105.08  6.1760 
  6.0660  6.4070  1.9360  0.0107  105.19  0.3277  77.471  9.9281  6.9196 
  6.1246  6.1688  1.9429  110.29  0.2961 
  4878.500 
 -35.983  108.07  6.1280  5.9610  7.4310  77.370  9.9270 -999.25 -999.25 
 -999.25 -999.25  102.94  1.8540  0.3200 -0.0180 -13.757  108.07  6.1280 
  5.9610  7.4310  1.9674  0.0064  109.20  0.3190  77.873  9.9311  8.0170 
  6.0177  6.1210  1.9743  114.52  0.2867 
  4879.000 
 -34.774  116.41  6.0220  5.6470  7.1040  77.456  9.9280 -999.25 -999.25 
 -999.25 -999.25  105.11  1.8660  0.3280 -0.0170 -12.549  116.41  6.0220 
  5.6470  7.1040  1.9736 -0.0003  115.18  0.3203  78.736  9.9331  7.6672 
  5.6979  6.0152  1.9805  120.80  0.2881 
  4879.500 
 -32.971  124.75  5.5530  5.4730  6.1400  77.842  9.9310 -999.25 -999.25 
 -999.25 -999.25  109.06  1.8820  0.3400 -0.0160 -10.746  124.75  5.5530 
  5.4730  6.1400  1.9601 -0.0106  127.71  0.3285  81.392  9.9369  6.6350 
  5.5209  5.5472  1.9670  133.95  0.2970 
  4880.000 
 -30.570  126.49  5.4560  5.3050  4.2980  78.629  9.9330 -999.25 -999.25 
 -999.25 -999.25  114.79  1.8950  0.3590 -0.0090 -8.3460  126.49  5.4560 
  5.3050  4.2980  1.8998 -0.0171  142.19  0.3408  83.388  9.9567  4.6605 
  5.3506  5.4505  1.9069  149.23  0.3105 
  4880.500 
 -29.163  128.23  5.1230  4.8480  3.8890  81.307  9.9360 -999.25 -999.25 
 -999.25 -999.25  127.44  1.9070  0.3650 -0.0010 -6.9397  128.23  5.1230 
  4.8480  3.8890  1.8685 -0.0221  152.63  0.3593  83.312  9.9487  4.2200 
  4.8859  5.1181  1.8756  160.16  0.3343 
  4881.000 
 -28.745  129.97  4.8090  4.6360  4.1130  83.389  9.9570 -999.25 -999.25 
 -999.25 -999.25  141.77  1.9180  0.3650  0.0050 -6.5224  129.97  4.8090 
  4.6360  4.1130  1.8561 -0.0238  151.78  0.3650  81.783  9.9411  4.4600 
  4.6704  4.8047  1.8631  159.22  0.3407 
  4881.500 
 -31.103  128.60  4.5990  4.4320  5.0410  83.377  9.9490 -999.25 -999.25 
 -999.25 -999.25  152.65  1.9370  0.3580  0.0110 -8.8811  128.60  4.5990 
  4.4320  5.0410  1.8494 -0.0240  142.30  0.3647  79.892  9.9432  5.4570 
  4.4635  4.5951  1.8564  149.28  0.3404 
  4882.000 
 -36.624  113.18  4.3970  4.1620  6.0610  81.867  9.9410 -999.25 -999.25 
 -999.25 -999.25  152.44  1.9700  0.3360  0.0060 -14.403  113.18  4.3970 
  4.1620  6.0610  1.8406 -0.0247  125.53  0.3570  78.358  9.9234  6.5480 
  4.1894  4.3934  1.8474  131.61  0.3317 
  4882.500 
 -39.175  100.53  4.0910  4.0160  5.8490  79.964  9.9440 -999.25 -999.25 
 -999.25 -999.25  143.73  1.9740  0.3230 -0.0010 -16.955  100.53  4.0910 
  4.0160  5.8490  1.8316 -0.0250  101.25  0.3354  78.449  9.8663  6.3117 
  4.0406  4.0878  1.8380  105.95  0.3045 
  4883.000 
 -41.731  95.399  3.9110  3.9280  4.9640  78.359  9.9260 -999.25 -999.25 
 -999.25 -999.25  128.59  1.9580  0.3280 -0.0120 -19.511  95.399  3.9110 
  3.9280  4.9640  1.8297 -0.0250  98.260  0.3232  80.664  9.8064  5.3567 
  3.9505  3.9080  1.8357  102.61  0.2912 
  4883.500 
 -41.899  92.258  3.7730  3.8420  4.0980  78.347  9.8690 -999.25 -999.25 
 -999.25 -999.25  101.67  1.8890  0.3400 -0.0180 -19.680  92.258  3.7730 
  3.8420  4.0980  1.8320 -0.0257  96.539  0.3286  83.346  9.7122  4.4212 
  3.8621  3.7700  1.8373  100.49  0.2970 
  4884.000 
 -42.479  90.494  3.6080  3.5440  3.8840  80.526  9.8110 -999.25 -999.25 
 -999.25 -999.25  98.500  1.8640  0.3540 -0.0230 -20.261  90.494  3.6080 
  3.5440  3.8840  1.8317 -0.0266  94.613  0.3407  82.131  9.6503  4.1872 
  3.5603  3.6052  1.8366  98.275  0.3103 
  4884.500 
 -43.249  89.130  3.4820  3.3890  3.9960  83.405  9.7150 -999.25 -999.25 
 -999.25 -999.25  96.911  1.8540  0.3530 -0.0240 -21.031  89.130  3.4820 
  3.3890  3.9960  1.8267 -0.0276  94.618  0.3539  80.861  9.5181  4.2938 
  3.4023  3.4793  1.8306  97.830  0.3281 
  4885.000 
 -44.015  88.958  3.3300  3.2700  3.6830  82.196  9.6570 -999.25 -999.25 
 -999.25 -999.25  94.727  1.8480  0.3450 -0.0240 -21.798  88.958  3.3300 
  3.2700  3.6830  1.8217 -0.0280  97.298  0.3526  80.275  9.4410  3.9551 
  3.2815  3.3274  1.8250  100.33  0.3266 
  4885.500 
 -43.404  89.371  3.2730  3.2130  3.3640  80.887  9.5220 -999.25 -999.25 
 -999.25 -999.25  94.126  1.8380  0.3450 -0.0250 -21.188  89.371  3.2730 
  3.2130  3.3640  1.8211 -0.0291  100.72  0.3450  78.183  9.3598  3.6111 
  3.2233  3.2704  1.8239  103.56  0.3180 
  4886.000 
 -42.388  91.178  3.1580  3.1300  3.5910  80.379  9.4450 -999.25 -999.25 
 -999.25 -999.25  96.492  1.8290  0.3500 -0.0250 -20.172  91.178  3.1580 
  3.1300  3.5910  1.8204 -0.0311  103.64  0.3453  74.490  9.2284  3.8402 
  3.1384  3.1555  1.8222  106.07  0.3183 
  4886.500 
 -42.367  93.571  3.0610  3.0610  3.7980  78.373  9.3670 -999.25 -999.25 
 -999.25 -999.25  100.04  1.8300  0.3540 -0.0250 -20.152  93.571  3.0610 
  3.0610  3.7980  1.8144 -0.0320  106.97  0.3502  69.656  9.1804  4.0537 
  3.0686  3.0586  1.8158  109.28  0.3238 
  4887.000 
 -42.147  97.556  2.9670  2.9940  3.4700  74.775  9.2310 -999.25 -999.25 
 -999.25 -999.25  102.81  1.8330  0.3600 -0.0260 -19.933  97.556  2.9670 
  2.9940  3.4700  1.8071 -0.0310  110.41  0.3543  72.967  9.1297  3.7051 
  3.0008  2.9647  1.8081  112.59  0.3284 
  4887.500 
 -41.730  102.92  2.8130  2.8380  3.6030  69.482  9.1830 -999.25 -999.25 
 -999.25 -999.25  105.96  1.8310  0.3620 -0.0270 -19.517  102.92  2.8130 
  2.8380  3.6030  1.8040 -0.0282  113.43  0.3601  78.299  9.0367  3.8370 
  2.8433  2.8109  1.8043  115.28  0.3348 
  4888.000 
 -40.916  108.69  2.7510  2.7760  3.6740  72.657  9.1350 -999.25 -999.25 
 -999.25 -999.25  109.52  1.8240  0.3650 -0.0280 -18.703  108.69  2.7510 
  2.7760  3.6740  1.8075 -0.0264  116.44  0.3622  79.681  8.9810  3.9065 
  2.7806  2.7489  1.8075  118.10  0.3371 
  4888.500 
 -40.895  111.48  2.6910  2.7150  3.5130  78.226  9.0400 -999.25 -999.25 
 -999.25 -999.25  112.48  1.8200  0.3680 -0.0280 -18.683  111.48  2.6910 
  2.7150  3.5130  1.8173 -0.0274  119.81  0.3652  82.235  8.9629  3.7369 
  2.7193  2.6890  1.8173  121.44  0.3404 
