~Version Information
VERS.                     2.0: CWLS log ASCII Standard Version 2.00
WRAP.                     YES: Multiple lines per depth step
~Well Information Block
#MNEM.UNIT                               Data Type  Information
#---------                               ---------  -----------
STRT.FT                                   805.0000:
STOP.FT                                  5010.0000:
STEP.FT                                     0.5000:
NULL.                 -999.25                     :
COMP.                                             :COMPANY            
WELL.     SANTIAGO C 55-28                        :WELL               
FLD .                                             :FIELD              
CTRY.                                             :COUNTRY            
STAT.                                             :STATE              
LOC .                                             :LOCATION           
UWI .                                             :UNIQUE WELL ID     
SRVC.                                             :Service company    
DATE.                                             :LOG DATE           
~Curve Information
#MNEM.UNIT           API CODE  Curve Description
#---------           --------  -----------------
DEPT.FT                      :   1 DEPTH
CALI.IN                      :   2
GR  .GAPI                    :   3
NPHI.PU-S                    :   4
DPHI.PU-S                    :   5
DRHO.G/C3                    :   6
SP  .MV                      :   7
ILD .OHMM                    :   8
ILM .OHMM                    :   9
SFLU.OHMM                    :  10
LLD .OHMM                    :  11
LLS .OHMM                    :  12
MSFL.OHMM                    :  13
DT  .US/F                    :  14
SPHI.                        :  15
KSCI.                        :  16
PSCI.                        :  17
OSCI.                        :  18
WSCI.                        :  19
KWCI.                        :  20
PWCI.                        :  21
OWCI.                        :  22
WWCI.                        :  23
SBL .MV                      :  24
RS  .OHMM                    :  25
RM  .OHMM                    :  26
RD  .OHMM                    :  27
DTS .US/F                    :  28
RHOB.G/C3                    :  29
ROBS.G/C3                    :  30
DROS.G/C3                    :  31
CALS.IN                      :  32
GRS .GAPI                    :  33
NPHS.PU-S                    :  34
SFLU.OHMM                    :  35
ILMC.OHMM                    :  36
ILDC.OHMM                    :  37
ROBC.G/C3                    :  38
GRC .GAPI                    :  39
NPHC.PU-S                    :  40
~A
# ...
  3973.000 
  9.9170  58.809  0.3430  0.4650 -0.0370 -41.556 -999.25 -999.25 -999.25 
  4.7060  3.8440  9.2130 -999.25  27.816 -999.25 -999.25 -999.25 -999.25 
 -999.25 -999.25 -999.25 -999.25 -17.925  9.2130  3.8440  4.7060 -999.25 
  1.8828  1.8697 -0.0412  10.061  60.652  0.3632  9.2130  3.8440  4.7060 
  1.8697  60.652  0.3632 
  3973.500 
  9.7720  60.914  0.3630  0.4630 -0.0240 -41.241 -999.25 -999.25 -999.25 
  4.5750  3.6950  11.126 -999.25  30.431 -999.25 -999.25 -999.25 -999.25 
 -999.25 -999.25 -999.25 -999.25 -17.611  11.126  3.6950  4.5750 -999.25 
  1.8861  1.8657 -0.0358  10.081  64.750  0.3710  11.126  3.6950  4.5750 
  1.8657  64.750  0.3710 
  3974.000 
  9.8510  62.896  0.3750  0.4480 -0.0120 -40.689 -999.25 -999.25 -999.25 
  4.5210  3.5200  10.253 -999.25  32.640 -999.25 -999.25 -999.25 -999.25 
 -999.25 -999.25 -999.25 -999.25 -17.060  10.253  3.5200  4.5210 -999.25 
  1.9108  1.8667 -0.0323  10.053  67.703  0.3699  10.253  3.5200  4.5210 
  1.8667  67.703  0.3699 
  3974.500 
  9.9090  60.613  0.3370  0.4350 -0.0080 -40.135 -999.25 -999.25 -999.25 
  4.6860  3.5490  6.8840 -999.25  33.442 -999.25 -999.25 -999.25 -999.25 
 -999.25 -999.25 -999.25 -999.25 -16.507  6.8840  3.5490  4.6860 -999.25 
  1.9323  1.8757 -0.0310  10.012  69.714  0.3671  6.8840  3.5490  4.6860 
  1.8757  69.714  0.3671 
  3975.000 
  9.9360  57.811  0.3230  0.4290 -0.0110 -39.382 -999.25 -999.25 -999.25 
  4.8580  3.6120  5.9480 -999.25  33.219 -999.25 -999.25 -999.25 -999.25 
 -999.25 -999.25 -999.25 -999.25 -15.755  5.9480  3.6120  4.8580 -999.25 
  1.9422  1.8879 -0.0310  9.9989  72.077  0.3689  5.9480  3.6120  4.8580 
  1.8879  72.077  0.3689 
  3975.500 
  9.9230  55.130  0.3130  0.4260 -0.0210 -37.795 -999.25 -999.25 -999.25 
  4.9990  3.7100  6.5520 -999.25  32.913 -999.25 -999.25 -999.25 -999.25 
 -999.25 -999.25 -999.25 -999.25 -14.169  6.5520  3.7100  4.9990 -999.25 
  1.9471  1.8955 -0.0317  10.021  75.683  0.3675  6.5520  3.7100  4.9990 
  1.8955  75.683  0.3675 
  3976.000 
  9.9220  52.926  0.3200  0.4430 -0.0290 -36.445 -999.25 -999.25 -999.25 
  5.0410  3.7970  5.6610 -999.25  32.571 -999.25 -999.25 -999.25 -999.25 
 -999.25 -999.25 -999.25 -999.25 -12.820  5.6610  3.7970  5.0410 -999.25 
  1.9191  1.8976 -0.0334  10.078  79.239  0.3617  5.6610  3.7970  5.0410 
  1.8976  79.239  0.3617 
  3976.500 
  9.9250  51.162  0.3340  0.4540 -0.0320 -36.051 -999.25 -999.25 -999.25 
  4.9810  3.7660  5.4410 -999.25  33.434 -999.25 -999.25 -999.25 -999.25 
 -999.25 -999.25 -999.25 -999.25 -12.426  5.4410  3.7660  4.9810 -999.25 
  1.9009  1.8957 -0.0344  10.155  81.117  0.3597  5.4410  3.7660  4.9810 
  1.8957  81.117  0.3597 
  3977.000 
  9.9160  51.509  0.3480  0.4610 -0.0320 -35.936 -999.25 -999.25 -999.25 
  4.8780  3.6470  7.7550 -999.25  34.271 -999.25 -999.25 -999.25 -999.25 
 -999.25 -999.25 -999.25 -999.25 -12.312  7.7550  3.6470  4.8780 -999.25 
  1.8894  1.8900 -0.0358  10.205  81.229  0.3689  7.7550  3.6470  4.8780 
  1.8900  81.229  0.3689 
  3977.500 
  9.9540  53.370  0.3530  0.4570 -0.0250 -35.979 -999.25 -999.25 -999.25 
  4.6800  3.5060  7.7060 -999.25  35.443 -999.25 -999.25 -999.25 -999.25 
 -999.25 -999.25 -999.25 -999.25 -12.356  7.7060  3.5060  4.6800 -999.25 
  1.8960  1.8854 -0.0378  10.209  81.032  0.3945  7.7060  3.5060  4.6800 
  1.8854  81.032  0.3945 
  3978.000 
  9.9730  55.033  0.3550  0.4470 -0.0140 -35.426 -999.25 -999.25 -999.25 
  4.6330  3.4080  6.2770 -999.25  36.782 -999.25 -999.25 -999.25 -999.25 
 -999.25 -999.25 -999.25 -999.25 -11.804  6.2770  3.4080  4.6330 -999.25 
  1.9125  1.8901 -0.0394  10.192  82.389  0.4136  6.2770  3.4080  4.6330 
  1.8901  82.389  0.4136 
  3978.500 
  9.9840  55.820  0.3460  0.4420 -0.0110 -34.634 -999.25 -999.25 -999.25 
  4.6550  3.3610  6.6650 -999.25  37.883 -999.25 -999.25 -999.25 -999.25 
 -999.25 -999.25 -999.25 -999.25 -11.013  6.6650  3.3610  4.6550 -999.25 
  1.9207  1.9057 -0.0391  10.180  85.412  0.4253  6.6650  3.3610  4.6550 
  1.9057  85.412  0.4253 
  3979.000 
  9.9510  57.124  0.3390  0.4460 -0.0190 -34.041 -999.25 -999.25 -999.25 
  4.7030  3.3640  5.9410 -999.25  39.150 -999.25 -999.25 -999.25 -999.25 
 -999.25 -999.25 -999.25 -999.25 -10.421  5.9410  3.3640  4.7030 -999.25 
  1.9141  1.9218 -0.0348  10.180  89.049  0.4335  5.9410  3.3640  4.7030 
  1.9218  89.049  0.4335 
  3979.500 
  10.002  61.817  0.3350  0.4580 -0.0350 -33.686 -999.25 -999.25 -999.25 
  4.7860  3.3740  6.0020 -999.25  39.035 -999.25 -999.25 -999.25 -999.25 
 -999.25 -999.25 -999.25 -999.25 -10.067  6.0020  3.3740  4.7860 -999.25 
  1.8943  1.9313 -0.0277  10.195  92.188  0.4360  6.0020  3.3740  4.7860 
  1.9313  92.188  0.4360 
  3980.000 
  10.028  65.791  0.3480  0.4670 -0.0440 -33.293 -999.25 -999.25 -999.25 
  4.8530  3.3960  6.0190 -999.25  38.227 -999.25 -999.25 -999.25 -999.25 
 -999.25 -999.25 -999.25 -999.25 -9.6754  6.0190  3.3960  4.8530 -999.25 
  1.8795  1.9355 -0.0221  10.231  93.867  0.4342  6.0190  3.3960  4.8530 
  1.9355  93.867  0.4342 
  3980.500 
  10.051  68.369  0.3630  0.4720 -0.0430 -33.297 -999.25 -999.25 -999.25 
  4.8710  3.4280  6.3730 -999.25  36.192 -999.25 -999.25 -999.25 -999.25 
 -999.25 -999.25 -999.25 -999.25 -9.6803  6.3730  3.4280  4.8710 -999.25 
  1.8712  1.9372 -0.0235  10.264  93.368  0.4241  6.3730  3.4280  4.8710 
  1.9372  93.368  0.4241 
  3981.000 
  10.086  69.873  0.3710  0.4750 -0.0370 -33.274 -999.25 -999.25 -999.25 
  4.8980  3.4660  6.3610 -999.25  35.504 -999.25 -999.25 -999.25 -999.25 
 -999.25 -999.25 -999.25 -999.25 -9.6583  6.3610  3.4660  4.8980 -999.25 
  1.8663  1.9313 -0.0306  10.288  92.278  0.4144  6.3610  3.4660  4.8980 
  1.9313  92.278  0.4144 
  3981.500 
  10.069  72.053  0.3700  0.4760 -0.0330 -33.372 -999.25 -999.25 -999.25 
  4.9250  3.4780  6.6730 -999.25  36.104 -999.25 -999.25 -999.25 -999.25 
 -999.25 -999.25 -999.25 -999.25 -9.7573  6.6730  3.4780  4.9250 -999.25 
  1.8646  1.9222 -0.0366  10.331  93.448  0.4074  6.6730  3.4780  4.9250 
  1.9222  93.448  0.4074 
  3982.000 
  10.020  76.466  0.3670  0.4720 -0.0310 -33.270 -999.25 -999.25 -999.25 
  4.9530  3.5110  6.9230 -999.25  37.085 -999.25 -999.25 -999.25 -999.25 
 -999.25 -999.25 -999.25 -999.25 -9.6563  6.9230  3.5110  4.9530 -999.25 
  1.8712  1.9191 -0.0385  10.380  96.547  0.4066  6.9230  3.5110  4.9530 
  1.9191  96.547  0.4066 
  3982.500 
  9.9950  80.081  0.3690  0.4640 -0.0310 -32.771 -999.25 -999.25 -999.25 
  4.9430  3.4850  7.1560 -999.25  37.709 -999.25 -999.25 -999.25 -999.25 
 -999.25 -999.25 -999.25 -999.25 -9.1583  7.1560  3.4850  4.9430 -999.25 
  1.8844  1.9227 -0.0375  10.430  98.533  0.4139  7.1560  3.4850  4.9430 
  1.9227  98.533  0.4139 
  3983.000 
  10.006  81.664  0.3680  0.4580 -0.0310 -32.072 -999.25 -999.25 -999.25 
  4.8270  3.4590  7.3020 -999.25  37.784 -999.25 -999.25 -999.25 -999.25 
 -999.25 -999.25 -999.25 -999.25 -8.4602  7.3020  3.4590  4.8270 -999.25 
  1.8943  1.9350 -0.0347  10.476  99.126  0.4215  7.3020  3.4590  4.8270 
  1.9350  99.126  0.4215 
  3983.500 
  10.048  81.334  0.3620  0.4560 -0.0330 -31.374 -999.25 -999.25 -999.25 
  4.7390  3.4090  7.0000 -999.25  37.740 -999.25 -999.25 -999.25 -999.25 
 -999.25 -999.25 -999.25 -999.25 -7.7632  7.0000  3.4090  4.7390 -999.25 
  1.8976  1.9517 -0.0290  10.516  103.30  0.4270  7.0000  3.4090  4.7390 
  1.9517  103.30  0.4270 
  3984.000 
  10.127  80.326  0.3590  0.4560 -0.0340 -30.555 -999.25 -999.25 -999.25 
  4.5840  3.3530  5.9860 -999.25  37.445 -999.25 -999.25 -999.25 -999.25 
 -999.25 -999.25 -999.25 -999.25 -6.9452  5.9860  3.3530  4.5840 -999.25 
  1.8976  1.9674 -0.0213  10.548  113.02  0.4311  5.9860  3.3530  4.5840 
  1.9674  113.02  0.4311 
  3984.500 
  10.198  82.307  0.3660  0.4590 -0.0350 -29.619 -999.25 -999.25 -999.25 
  4.5840  3.3160  4.8710 -999.25  37.151 -999.25 -999.25 -999.25 -999.25 
 -999.25 -999.25 -999.25 -999.25 -6.0102  4.8710  3.3160  4.5840 -999.25 
  1.8927  1.9835 -0.0156  10.476  123.14  0.4349  4.8710  3.3160  4.5840 
  1.9835  123.14  0.4349 
