~Version Information
VERS.                     2.0: CWLS log ASCII Standard Version 2.00
WRAP.                     YES: Multiple lines per depth step
~Well Information Block
#MNEM.UNIT                               Data Type  Information
#---------                               ---------  -----------
STRT.FT                                   800.0000:
STOP.FT                                  5530.0000:
STEP.FT                                     0.5000:
NULL.                 -999.25                     :
COMP.                                             :COMPANY            
WELL.     SANTIAGO B 73-29                        :WELL               
FLD .                                             :FIELD              
CTRY.                                             :COUNTRY            
STAT.                                             :STATE              
LOC .                                             :LOCATION           
UWI .                                             :UNIQUE WELL ID     
SRVC.                                             :Service company    
DATE.                                             :LOG DATE           
~Curve Information
#MNEM.UNIT           API CODE  Curve Description
#---------           --------  -----------------
DEPT.FT                      :   1 DEPTH
SP  .MV                      :   2
GR  .GAPI                    :   3
ILD .OHMM                    :   4
ILM .OHMM                    :   5
SFL .OHMM                    :   6
DT  .US/F                    :   7
CALI.IN                      :   8
KSCI.                        :   9
PSCI.                        :  10
OSCI.                        :  11
WSCI.                        :  12
GR  .GAPI                    :  13
RHOB.G/C3                    :  14
NPHI.PU-S                    :  15
DRHO.G/C3                    :  16
SBL .MV                      :  17
GRS .GAPI                    :  18
RD  .OHMM                    :  19
RM  .OHMM                    :  20
RS  .OHMM                    :  21
R0BS.G/C3                    :  22
DRHS.G/C3                    :  23
GRS .GAPI                    :  24
NPHS.PU-S                    :  25
DTS .US/F                    :  26
CALS.IN                      :  27
SFLC.OHMM                    :  28
ILMC.OHMM                    :  29
ILDC.OHMM                    :  30
R0BC.G/C3                    :  31
GRC .GAPI                    :  32
NPHC.PU-S                    :  33
~A
# ...
  2090.500 
 -43.737  78.143  9.9200  10.103  8.3320  84.494  9.7050 -999.25 -999.25 
 -999.25 -999.25 -999.25 -999.25 -999.25 -999.25 -19.737  78.143  9.9200 
  10.103  8.3320 -999.25 -999.25 -999.25 -999.25  84.150  9.7011  8.9239 
  10.242  9.8995 -999.25 -999.25 -999.25 
  2091.000 
 -43.550  77.539  9.9170  10.191  7.9550  83.602  9.6950 -999.25 -999.25 
 -999.25 -999.25 -999.25 -999.25 -999.25 -999.25 -19.550  77.539  9.9170 
  10.191  7.9550 -999.25 -999.25 -999.25 -999.25  83.068  9.6908  8.5213 
  10.331  9.8964 -999.25 -999.25 -999.25 
  2091.500 
 -43.165  76.934  10.002  10.188  7.7360  82.212  9.6840 -999.25 -999.25 
 -999.25 -999.25 -999.25 -999.25 -999.25 -999.25 -19.165  76.934  10.002 
  10.188  7.7360 -999.25 -999.25 -999.25 -999.25  81.451  9.6836  8.2872 
  10.327  9.9810 -999.25 -999.25 -999.25 
  2092.000 
 -41.197  77.121  10.090  10.183  7.5220  80.223  9.6830 -999.25 -999.25 
 -999.25 -999.25 -999.25 -999.25 -999.25 -999.25 -17.197  77.121  10.090 
  10.183  7.5220 -999.25 -999.25 -999.25 -999.25  78.591  9.6826  8.0598 
  10.322  10.069 -999.25 -999.25 -999.25 
  2092.500 
 -39.626  77.899  10.179  10.133  7.4510  75.942  9.6820 -999.25 -999.25 
 -999.25 -999.25 -999.25 -999.25 -999.25 -999.25 -15.626  77.899  10.179 
  10.133  7.4510 -999.25 -999.25 -999.25 -999.25  76.474  9.6961  7.9874 
  10.272  10.157 -999.25 -999.25 -999.25 
  2093.000 
 -39.241  78.285  10.176  10.084  7.6560  77.342  9.7190 -999.25 -999.25 
 -999.25 -999.25 -999.25 -999.25 -999.25 -999.25 -15.241  78.285  10.176 
  10.084  7.6560 -999.25 -999.25 -999.25 -999.25  77.909  9.7224  8.2110 
  10.225  10.155 -999.25 -999.25 -999.25 
  2093.500 
 -40.440  77.481  10.173  10.078  7.8660  78.841  9.7280 -999.25 -999.25 
 -999.25 -999.25 -999.25 -999.25 -999.25 -999.25 -16.440  77.481  10.173 
  10.078  7.8660 -999.25 -999.25 -999.25 -999.25  76.965  9.7314  8.4362 
  10.220  10.152 -999.25 -999.25 -999.25 
  2094.000 
 -40.452  76.872  10.260  10.074  8.1570  73.863  9.7370 -999.25 -999.25 
 -999.25 -999.25 -999.25 -999.25 -999.25 -999.25 -16.452  76.872  10.260 
  10.074  8.1570 -999.25 -999.25 -999.25 -999.25  72.630  9.7441  8.7486 
  10.217  10.238 -999.25 -999.25 -999.25 
  2094.500 
 -39.476  77.060  10.303  10.069  8.3810  70.579  9.7560 -999.25 -999.25 
 -999.25 -999.25 -999.25 -999.25 -999.25 -999.25 -15.476  77.060  10.303 
  10.069  8.3810 -999.25 -999.25 -999.25 -999.25  71.326  9.7478  8.9877 
  10.212  10.281 -999.25 -999.25 -999.25 
  2095.000 
 -39.882  77.640  10.347  10.158  8.3780  72.576  9.7340 -999.25 -999.25 
 -999.25 -999.25 -999.25 -999.25 -999.25 -999.25 -15.882  77.640  10.347 
  10.158  8.3780 -999.25 -999.25 -999.25 -999.25  76.475  9.7266  8.9791 
  10.301  10.325 -999.25 -999.25 -999.25 
  2095.500 
 -40.686  78.223  10.342  10.155  8.1470  83.044  9.7140 -999.25 -999.25 
 -999.25 -999.25 -999.25 -999.25 -999.25 -999.25 -16.686  78.223  10.342 
  10.155  8.1470 -999.25 -999.25 -999.25 -999.25  84.118  9.7281  8.7341 
  10.298  10.320 -999.25 -999.25 -999.25 
  2096.000 
 -39.905  78.211  10.338  10.153  7.6370  85.938  9.7520 -999.25 -999.25 
 -999.25 -999.25 -999.25 -999.25 -999.25 -999.25 -15.905  78.211  10.338 
  10.153  7.6370 -999.25 -999.25 -999.25 -999.25  85.940  9.7808  8.2039 
  10.302  10.317 -999.25 -999.25 -999.25 
  2096.500 
 -39.325  78.399  10.334  10.242  7.4950  85.943  9.8300 -999.25 -999.25 
 -999.25 -999.25 -999.25 -999.25 -999.25 -999.25 -15.325  78.399  10.334 
  10.242  7.4950 -999.25 -999.25 -999.25 -999.25  85.908  9.8440  8.0665 
  10.401  10.313 -999.25 -999.25 -999.25 
  2097.000 
 -39.137  78.385  10.378  10.332  7.7010  85.848  9.8680 -999.25 -999.25 
 -999.25 -999.25 -999.25 -999.25 -999.25 -999.25 -15.137  78.385  10.378 
  10.332  7.7010 -999.25 -999.25 -999.25 -999.25  85.814  9.8603  8.2900 
  10.495  10.357 -999.25 -999.25 -999.25 
  2097.500 
 -39.545  78.771  10.422  10.231  8.2090  85.754  9.8470 -999.25 -999.25 
 -999.25 -999.25 -999.25 -999.25 -999.25 -999.25 -15.545  78.771  10.422 
  10.231  8.2090 -999.25 -999.25 -999.25 -999.25  85.610  9.8324  8.8256 
  10.388  10.401 -999.25 -999.25 -999.25 
  2098.000 
 -40.349  79.748  10.416  10.134  8.7500  85.359  9.8070 -999.25 -999.25 
 -999.25 -999.25 -999.25 -999.25 -999.25 -999.25 -16.349  79.748  10.416 
  10.134  8.7500 -999.25 -999.25 -999.25 -999.25  84.599  9.8066  9.3955 
  10.285  10.394 -999.25 -999.25 -999.25 
  2098.500 
 -42.143  80.330  10.412  9.9450  8.6660  83.270  9.8060 -999.25 -999.25 
 -999.25 -999.25 -999.25 -999.25 -999.25 -999.25 -18.143  80.330  10.412 
  9.9450  8.6660 -999.25 -999.25 -999.25 -999.25  77.099  9.8089  9.3067 
  10.091  10.390 -999.25 -999.25 -999.25 
  2099.000 
 -42.552  80.716  10.361  9.5830  8.5840  66.235  9.8140 -999.25 -999.25 
 -999.25 -999.25 -999.25 -999.25 -999.25 -999.25 -18.552  80.716  10.361 
  9.5830  8.5840 -999.25 -999.25 -999.25 -999.25  67.243  9.8172  9.2215 
  9.7193  10.340 -999.25 -999.25 -999.25 
  2099.500 
 -40.782  81.298  10.310  9.2340  7.9720  69.029  9.8230 -999.25 -999.25 
 -999.25 -999.25 -999.25 -999.25 -999.25 -999.25 -16.782  81.298  10.310 
  9.2340  7.9720 -999.25 -999.25 -999.25 -999.25  74.420  9.8230  8.5706 
  9.3610  10.289 -999.25 -999.25 -999.25 
  2100.000 
 -40.197  81.884  10.131  8.7150  7.9480  84.031 -999.25 -999.25 -999.25 
 -999.25 -999.25 -999.25 -999.25 -999.25 -999.25 -16.197  81.884  10.131 
  8.7150  7.9480 -999.25 -999.25 -999.25 -999.25  84.745 -999.25  7.9480 
  8.7150  10.131 -999.25 -999.25 -999.25 
  2100.500 
 -39.394  83.280  9.9510  8.0990  7.6640  86.027  9.7630 -999.25 -999.25 
 -999.25 -999.25 -999.25 -999.25 -999.25 -999.25 -15.394  83.280  9.9510 
  8.0990  7.6640 -999.25 -999.25 -999.25 -999.25  85.705  9.7780  8.2320 
  8.1934  9.9311 -999.25 -999.25 -999.25 
  2101.000 
 -38.986  84.878  9.3360  7.5270  7.3890  85.123  9.8050 -999.25 -999.25 
 -999.25 -999.25 -999.25 -999.25 -999.25 -999.25 -14.986  84.878  9.3360 
  7.5270  7.3890 -999.25 -999.25 -999.25 -999.25  84.306  9.8125  7.9465 
  7.6105  9.3187 -999.25 -999.25 -999.25 
  2101.500 
 -38.380  86.078  8.9200  7.0600  6.9950  82.821  9.8260 -999.25 -999.25 
 -999.25 -999.25 -999.25 -999.25 -999.25 -999.25 -14.380  86.078  8.9200 
  7.0600  6.9950 -999.25 -999.25 -999.25 -999.25  82.113  9.8193  7.5277 
  7.1338  8.9043 -999.25 -999.25 -999.25 
  2102.000 
 -36.388  86.682  8.2150  6.6830  6.5010  80.817  9.8070 -999.25 -999.25 
 -999.25 -999.25 -999.25 -999.25 -999.25 -999.25 -12.388  86.682  8.2150 
  6.6830  6.5010 -999.25 -999.25 -999.25 -999.25  81.027  9.8003  6.9970 
  6.7482  8.2016 -999.25 -999.25 -999.25 
  2102.500 
 -33.010  87.882  7.7070  6.3260  5.8770  81.413  9.7880 -999.25 -999.25 
 -999.25 -999.25 -999.25 -999.25 -999.25 -999.25 -9.0100  87.882  7.7070 
  6.3260  5.8770 -999.25 -999.25 -999.25 -999.25  81.797  9.7747  6.3270 
  6.3833  7.6950 -999.25 -999.25 -999.25 
  2103.000 
 -29.034  88.884  7.2300  6.3290  5.2650  82.508  9.7500 -999.25 -999.25 
 -999.25 -999.25 -999.25 -999.25 -999.25 -999.25 -5.0340  88.884  7.2300 
  6.3290  5.2650 -999.25 -999.25 -999.25 -999.25  83.588  9.7503  5.6706 
  6.3853  7.2193 -999.25 -999.25 -999.25 
  2103.500 
 -29.420  89.491  7.1670  6.4490  5.0300  85.602  9.7510 -999.25 -999.25 
 -999.25 -999.25 -999.25 -999.25 -999.25 -999.25 -5.4200  89.491  7.1670 
  6.4490  5.0300 -999.25 -999.25 -999.25 -999.25  87.025  9.7447  5.4192 
  6.5073  7.1565 -999.25 -999.25 -999.25 
  2104.000 
 -29.606  89.502  7.3030  6.6940  4.9400  89.695  9.7330 -999.25 -999.25 
 -999.25 -999.25 -999.25 -999.25 -999.25 -999.25 -5.6060  89.502  7.3030 
  6.6940  4.9400 -999.25 -999.25 -999.25 -999.25  89.659  9.7333  5.3218 
  6.7563  7.2920 -999.25 -999.25 -999.25 
  2104.500 
 -29.793  89.117  7.7930  6.9470  5.0100  89.590  9.7340 -999.25 -999.25 
 -999.25 -999.25 -999.25 -999.25 -999.25 -999.25 -5.7930  89.117  7.7930 
  6.9470  5.0100 -999.25 -999.25 -999.25 -999.25  89.520  9.7275  5.3956 
  7.0138  7.7805 -999.25 -999.25 -999.25 
