~Version Information
VERS.                     2.0: CWLS log ASCII Standard Version 2.00
WRAP.                     YES: Multiple lines per depth step
~Well Information Block
#MNEM.UNIT                               Data Type  Information
#---------                               ---------  -----------
STRT.FT                                   100.0000:
STOP.FT                                  3000.0000:
STEP.FT                                     0.5000:
NULL.                 -999.25                     :
COMP.                                             :COMPANY            
WELL.     LOS LOBOS 51X-30                        :WELL               
FLD .                                             :FIELD              
CTRY.                                             :COUNTRY            
STAT.                                             :STATE              
LOC .                                             :LOCATION           
UWI .                                             :UNIQUE WELL ID     
SRVC.                                             :Service company    
DATE.                                             :LOG DATE           
~Curve Information
#MNEM.UNIT           API CODE  Curve Description
#---------           --------  -----------------
DEPT.FT                      :   1 DEPTH
GR  .GAPI                    :   2
CALI.IN                      :   3
DPHI.PU-S                    :   4
NPHI.PU-S                    :   5
DRHO.G/C3                    :   6
DT  .US/F                    :   7
ROP .                        :   8
GAS .                        :   9
CGAS.                        :  10
C1R .                        :  11
C2R .                        :  12
C3R .                        :  13
SP  .MV                      :  14
ILD .OHMM                    :  15
ILM .OHMM                    :  16
SFLU.OHMM                    :  17
GRS .GAPI                    :  18
CALS.IN                      :  19
ROBS.G/C3                    :  20
NPHS.PU-S                    :  21
DROS.G/C3                    :  22
DTS .US/F                    :  23
SBL .MV                      :  24
 RD .OHMM                    :  25
RM  .OHMM                    :  26
RS  .OHMM                    :  27
SFLU.OHMM                    :  28
ILMC.OHMM                    :  29
ILDC.OHMM                    :  30
ROBC.G/C3                    :  31
GRC .GAPI                    :  32
NPHC.PU-S                    :  33
~A
# ...
  2333.000 
  144.89  7.0070  0.5390 -999.25 -0.0060  133.27  66.604  47.354  13.760 
  4.7110 -999.25 -999.25 -999.25  1.2330  1.2300 -999.25  145.61  7.0030 
  1.7582 -999.25 -0.0095  135.38 -999.25  1.2330  1.2300 -999.25 -999.25 
  1.2300  1.2330  1.7582  135.65 -999.25 
  2333.500 
  145.45  7.0030  0.5400 -999.25 -0.0090  135.38  66.421  47.579  13.412 
  4.7114 -999.25 -999.25 -999.25  1.2180  1.2170 -999.25  145.35  7.0072 
  1.7547 -999.25 -0.0105  137.99 -999.25  1.2180  1.2170 -999.25 -999.25 
  1.2170  1.2180  1.7547  135.43 -999.25 
  2334.000 
  145.77  7.0030  0.5410 -999.25 -0.0100  137.99  66.238  46.652  12.906 
  4.7118 -999.25 -999.25 -999.25  1.1900  1.2080 -999.25  144.01  7.0132 
  1.7487 -999.25 -0.0110  138.99 -999.25  1.1900  1.2080 -999.25 -999.25 
  1.2080  1.1900  1.7487  134.22 -999.25 
  2334.500 
  144.98  7.0110  0.5440 -999.25 -0.0110  138.99  33.729  41.934  12.401 
  4.7122 -999.25 -999.25 -999.25  1.1800  1.1930 -999.25  141.76  7.0150 
  1.7391 -999.25 -0.0093  140.55 -999.25  1.1800  1.1930 -999.25 -999.25 
  1.1930  1.1800  1.7391  132.13 -999.25 
  2335.000 
  143.23  7.0150  0.5480 -999.25 -0.0110  140.55  33.565  38.473  11.814 
  6.0461 -999.25 -999.25 -999.25  1.1700  1.1810 -999.25  138.20  7.0150 
  1.7243 -999.25 -0.0062  141.74 -999.25  1.1700  1.1810 -999.25 -999.25 
  1.1810  1.1700  1.7243  128.81 -999.25 
  2335.500 
  140.69  7.0150  0.5550 -999.25 -0.0080  141.74  33.323  36.899  11.193 
  6.0420 -999.25 -999.25 -999.25  1.1690  1.1730 -999.25  133.26  6.9980 
  1.7136 -999.25 -0.0069  141.72 -999.25  1.1690  1.1730 -999.25 -999.25 
  1.1730  1.1690  1.7136  124.12 -999.25 
  2336.000 
  136.56  7.0150  0.5650 -999.25 -0.0050  141.72  50.633  35.313  10.372 
  6.0338 -999.25 -999.25 -999.25  1.1700  1.1830 -999.25  130.33  6.9254 
  1.7155 -999.25 -0.0106  140.69 -999.25  1.1700  1.1830 -999.25 -999.25 
  1.1830  1.1700  1.7155  121.00 -999.25 
  2336.500 
  131.31  6.9880  0.5690 -999.25 -0.0080  140.69  51.994  33.854  9.6982 
  6.0255 -999.25 -999.25 -999.25  1.1820  1.2140 -999.25  131.69  6.8223 
  1.7289 -999.25 -0.0127  138.94 -999.25  1.1820  1.2140 -999.25 -999.25 
  1.2140  1.1820  1.7289  121.70 -999.25 
  2337.000 
  129.80  6.8920  0.5650 -999.25 -0.0120  138.94  52.015  32.617  9.0584 
  6.0173 -999.25 -999.25 -999.25  1.2090  1.2450 -999.25  135.83  6.7673 
  1.7493 -999.25 -0.0123  137.35 -999.25  1.2090  1.2450 -999.25 -999.25 
  1.2450  1.2090  1.7493  125.22 -999.25 
  2337.500 
  132.59  6.7890  0.5550 -999.25 -0.0130  137.35  52.035  31.486  8.4556 
  6.0091 -999.25 -999.25 -999.25  1.2430  1.2820 -999.25  138.94  6.7464 
  1.7605 -999.25 -0.0091  136.51 -999.25  1.2430  1.2820 -999.25 -999.25 
  1.2820  1.2430  1.7605  127.97 -999.25 
  2338.000 
  137.20  6.7580  0.5420 -999.25 -0.0120  136.51  52.056  30.534  7.7743 
  6.0009 -999.25 -999.25 -999.25  1.3050  1.3510 -999.25  135.89  6.7330 
  1.7673 -999.25 -0.0072  134.43 -999.25  1.3050  1.3510 -999.25 -999.25 
  1.3510  1.3050  1.7673  125.09 -999.25 
  2338.500 
  139.59  6.7420  0.5380 -999.25 -0.0080  134.43  52.077  29.483  7.2439 
  5.9927 -999.25 -999.25 -999.25  1.3820  1.4540 -999.25  126.53  6.7331 
  1.7727 -999.25 -0.0070  130.64 -999.25  1.3820  1.4540 -999.25 -999.25 
  1.4540  1.3820  1.7727  116.47 -999.25 
  2339.000 
  134.66  6.7300  0.5340 -999.25 -0.0070  130.64  39.791  28.657  6.6223 
  5.9845 -999.25 -999.25 -999.25  1.4770  1.5490 -999.25  116.99  6.7340 
  1.7765 -999.25 -0.0062  127.97 -999.25  1.4770  1.5490 -999.25 -999.25 
  1.5490  1.4770  1.7765  107.69 -999.25 
  2339.500 
  124.17  6.7340  0.5310 -999.25 -0.0070  127.97  39.987  28.154  6.4066 
  5.9762 -999.25 -999.25 -999.25  1.5760  1.6850 -999.25  110.61  6.7373 
  1.7758 -999.25 -0.0044  124.80 -999.25  1.5760  1.6850 -999.25 -999.25 
  1.6850  1.5760  1.7758  101.83 -999.25 
  2340.000 
  115.19  6.7340  0.5290 -999.25 -0.0060  124.80  40.198  27.872  6.9964 
  3.9438 -999.25 -999.25 -999.25  1.6840  1.7590 -999.25  107.81  6.7516 
  1.7741 -999.25  0.0011  124.06 -999.25  1.6840  1.7590 -999.25 -999.25 
  1.7590  1.6840  1.7741  99.319 -999.25 
  2340.500 
  109.63  6.7380  0.5300 -999.25 -0.0040  124.06  40.409  27.619  7.5155 
  3.9477 -999.25 -999.25 -999.25  1.7610  1.8500 -999.25  108.25  6.7715 
  1.7710 -999.25  0.0020  124.44 -999.25  1.7610  1.8500 -999.25 -999.25 
  1.8500  1.7610  1.7710  99.814 -999.25 
  2341.000 
  107.48  6.7540  0.5310 -999.25  0.0020  124.44  28.464  27.495  7.9917 
  3.9498 -999.25 -999.25 -999.25  1.8310  1.8890 -999.25  110.29  6.7919 
  1.7617 -999.25  0.0002  125.21 -999.25  1.8310  1.8890 -999.25 -999.25 
  1.8890  1.8310  1.7617  101.79 -999.25 
  2341.500 
  108.36  6.7740  0.5330 -999.25  0.0020  125.21  28.681  27.642  8.4310 
  3.9519 -999.25 -999.25 -999.25  1.8530  1.8730 -999.25  112.71  6.8235 
  1.7591 -999.25 -0.0018  125.19 -999.25  1.8530  1.8730 -999.25 -999.25 
  1.8730  1.8530  1.7591  104.17 -999.25 
  2342.000 
  110.51  6.7940  0.5390 -999.25  0.0000  125.19  28.833  28.876  9.0498 
  3.9540 -999.25 -999.25 -999.25  1.8340  1.8200 -999.25  112.45  6.8449 
  1.7543 -999.25 -0.0029  125.19 -999.25  1.8340  1.8200 -999.25 -999.25 
  1.8200  1.8340  1.7543  104.03 -999.25 
  2342.500 
  112.89  6.8260  0.5400 -999.25 -0.0020  125.19  28.985  33.163  9.6786 
  3.9561 -999.25 -999.25 -999.25  1.8190  1.7690 -999.25  111.03  6.8693 
  1.7524 -999.25 -0.0079  124.37 -999.25  1.8190  1.7690 -999.25 -999.25 
  1.7690  1.8190  1.7524  102.83 -999.25 
  2343.000 
  112.42  6.8460  0.5430 -999.25 -0.0030  124.37  29.136  35.260  10.113 
  3.9581 -999.25 -999.25 -999.25  1.7770  1.7170 -999.25  111.63  6.9019 
  1.7540 -999.25 -0.0120  124.53 -999.25  1.7770  1.7170 -999.25 -999.25 
  1.7170  1.7770  1.7540  103.53 -999.25 
  2343.500 
  110.99  6.8700  0.5440 -999.25 -0.0080  124.53  29.288  36.295  10.371 
  3.9602 -999.25 -999.25 -999.25  1.7300  1.6440 -999.25  116.11  6.9182 
  1.7540 -999.25 -0.0100  128.44 -999.25  1.7300  1.6440 -999.25 -999.25 
  1.6440  1.7300  1.7540  107.77 -999.25 
  2344.000 
  111.63  6.9020  0.5430 -999.25 -0.0120  128.44  46.270  36.581  10.643 
  3.9623 -999.25 -999.25 -999.25  1.6270  1.5750 -999.25  121.65  6.9300 
  1.7521 -999.25 -0.0080  138.78 -999.25  1.6270  1.5750 -999.25 -999.25 
  1.5750  1.6270  1.7521  112.96 -999.25 
  2344.500 
  116.01  6.9180  0.5430 -999.25 -0.0100  138.78  98.487  36.379  10.814 
  3.9644 -999.25 -999.25 -999.25  1.5250  1.4750 -999.25  126.89  6.9290 
  1.7457 -999.25 -0.0070  140.11 -999.25  1.5250  1.4750 -999.25 -999.25 
  1.4750  1.5250  1.7457  117.82 -999.25 
  2345.000 
  121.42  6.9300  0.5440 -999.25 -0.0080  140.11  98.469  35.928  10.669 
  5.4742 -999.25 -999.25 -999.25  1.3730  1.3980 -999.25  130.27  6.9098 
  1.7443 -999.25 -0.0070  142.05 -999.25  1.3730  1.3980 -999.25 -999.25 
  1.3980  1.3730  1.7443  120.86 -999.25 
  2345.500 
  126.67  6.9300  0.5480 -999.25 -0.0070  142.05  98.455  34.642  10.363 
  5.4726 -999.25 -999.25 -999.25  1.3050  1.3340 -999.25  133.74  6.8524 
  1.7464 -999.25 -0.0071  140.82 -999.25  1.3050  1.3340 -999.25 -999.25 
  1.3340  1.3050  1.7464  123.76 -999.25 
  2346.000 
  129.93  6.9150  0.5490 -999.25 -0.0070  140.82  98.441  31.225  10.008 
  5.4713 -999.25 -999.25 -999.25  1.3160  1.3420 -999.25  134.73  6.7974 
  1.7519 -999.25 -0.0081  138.08 -999.25  1.3160  1.3420 -999.25 -999.25 
  1.3420  1.3160  1.7519  124.37 -999.25 
  2346.500 
  133.59  6.8590  0.5480 -999.25 -0.0070  138.08  98.427  28.840  9.6050 
  5.4701 -999.25 -999.25 -999.25  1.3480  1.3780 -999.25  133.05  6.7566 
  1.7618 -999.25 -0.0090  134.39 -999.25  1.3480  1.3780 -999.25 -999.25 
  1.3780  1.3480  1.7618  122.60 -999.25 
  2347.000 
  134.86  6.8030  0.5450 -999.25 -0.0080  134.39  98.413  28.920  9.2003 
  5.4688 -999.25 -999.25 -999.25  1.3970  1.4570 -999.25  127.02  6.7164 
  1.7764 -999.25 -0.0088  131.47 -999.25  1.3970  1.4570 -999.25 -999.25 
  1.4570  1.3970  1.7764  116.84 -999.25 
