~Version Information
VERS.                     2.0: CWLS log ASCII Standard Version 2.00
WRAP.                     YES: Multiple lines per depth step
~Well Information Block
#MNEM.UNIT                               Data Type  Information
#---------                               ---------  -----------
STRT.FT                                   120.0000:
STOP.FT                                  3000.0000:
STEP.FT                                     0.5000:
NULL.                 -999.25                     :
COMP.                                             :COMPANY            
WELL.     LOS LOBOS 62X-30                        :WELL               
FLD .                                             :FIELD              
CTRY.                                             :COUNTRY            
STAT.                                             :STATE              
LOC .                                             :LOCATION           
UWI .                                             :UNIQUE WELL ID     
SRVC.                                             :Service company    
DATE.                                             :LOG DATE           
~Curve Information
#MNEM.UNIT           API CODE  Curve Description
#---------           --------  -----------------
DEPT.FT                      :   1 DEPTH
CALI.IN                      :   2
GR  .GAPI                    :   3
NPHI.PU-S                    :   4
DPHI.PU-S                    :   5
DRHO.G/C3                    :   6
SP  .MV                      :   7
ILD .OHMM                    :   8
ILM .OHMM                    :   9
LL8U.OHMM                    :  10
DT  .US/F                    :  11
ROP .                        :  12
GASR.                        :  13
C1R .                        :  14
C2R .                        :  15
C3R .                        :  16
C4R .                        :  17
KSCI.                        :  18
PSCI.                        :  19
OSCI.                        :  20
WSCI.                        :  21
KWCI.                        :  22
PWCI.                        :  23
OWCI.                        :  24
WWCI.                        :  25
ROBS.G/C3                    :  26
NPHS.PU-S                    :  27
PWCL.                        :  28
OWCL.                        :  29
WWCL.                        :  30
KWCL.                        :  31
VCLD.                        :  32
VCLW.                        :  33
VSHL.                        :  34
PHIE.                        :  35
PHIT.                        :  36
SWE .                        :  37
SWT .                        :  38
SWTU.                        :  39
RMAT.                        :  40
BVWE.                        :  41
RHOB.G/C3                    :  42
CALS.IN                      :  43
DTS .US/F                    :  44
SBL .MV                      :  45
RD  .OHMM                    :  46
RM  .OHMM                    :  47
RS  .OHMM                    :  48
DPHI.                        :  49
GRC .GAPI                    :  50
NPHC.PU-S                    :  51
LL8C.OHMM                    :  52
ILDC.OHMM                    :  53
ILMC.OHMM                    :  54
ROBC.G/C3                    :  55
~A
# ...
  2316.000 
  10.027  129.64  0.5580  0.5610 -0.0070 -45.656  1.8760  1.9100  2.1350 
  150.87  4.7230  1.1200  5.2860 -999.25 -999.25 -999.25 -999.25 -999.25 
 -999.25 -999.25 -999.25 -999.25 -999.25 -999.25  1.7443  0.5333  44.200 
  7.0000  89.700  0.0700  0.1906  0.3404  0.6421  0.3094  0.4592  0.9607 
  0.9735  0.9735  2.3426  0.2972  1.7244  10.009  149.02 -13.656  1.8760 
  1.9100  2.1350  0.5610  141.26  0.5170  2.1350  1.8750  1.9197  1.7518 
  2316.500 
  10.058  123.64  0.5880  0.5610 -0.0080 -46.756  1.9880  2.0660  2.2500 
  156.18  7.8230  1.1170  5.2860 -999.25 -999.25 -999.25 -999.25 -999.25 
 -999.25 -999.25  0.0700  44.200  7.0000  89.700  1.7311  0.5416  46.300 
  11.550  79.850  0.0900  0.2209  0.3944  0.5710  0.2851  0.4585  0.9314 
  0.9573  0.9573  2.3355  0.2655  1.7244  10.011  152.46 -14.756  1.9880 
  2.0660  2.2500  0.5610  137.63  0.5261  2.2500  1.9869  2.0774  1.7386 
  2317.000 
  10.113  115.83  0.5930  0.5580 -0.0040 -47.581  2.1030  2.2250  2.5830 
  157.97  11.399  1.1140  5.2850 -999.25 -999.25 -999.25 -999.25 -999.25 
 -999.25 -999.25 -999.25 -999.25 -999.25 -999.25  1.7244  0.5675  48.400 
  16.100  70.000  0.1100  0.2475  0.4414  0.7257  0.2743  0.4682  0.8360 
  0.9039  0.9039  2.3203  0.2293  1.7293  10.037  156.70 -15.581  2.1030 
  2.2250  2.5830  0.5580  129.87  0.5544  2.5830  2.1017  2.2385  1.7320 
  2317.500 
  10.132  108.73  0.5800  0.5550 -0.0050 -48.209  2.3030  2.4060  2.8970 
  155.95  13.787  1.1370  5.2840 -999.25 -999.25 -999.25 -999.25 -999.25 
 -999.25 -999.25  0.1100  48.400  16.100  70.000  1.7259  0.5896  48.125 
  18.375  70.500  0.0900  0.2655  0.4731  0.7267  0.2733  0.4809  0.7520 
  0.8590  0.8590  2.3057  0.2055  1.7343  10.075  157.38 -16.209  2.3030 
  2.4060  2.8970  0.5550  122.02  0.5787  2.8970  2.3015  2.4221  1.7338 
  2318.000 
  10.065  97.607  0.5450  0.5490 -0.0110 -48.561  2.4060  2.6350  3.4000 
  150.72  13.549  1.2690  5.2930 -999.25 -999.25 -999.25 -999.25 -999.25 
 -999.25 -999.25 -999.25 -999.25 -999.25 -999.25  1.7308  0.5890  47.850 
  20.650  71.000  0.0700  0.2789  0.4967  0.7289  0.2711  0.4889  0.6523 
  0.8072  0.8072  2.3014  0.1768  1.7442  10.119  154.45 -16.561  2.4060 
  2.6350  3.4000  0.5490  111.50  0.5781  3.4000  2.4044  2.6548  1.7390 
  2318.500 
  9.9890  91.688  0.5270  0.5460 -0.0140 -48.913  2.6400  2.8600  3.8050 
  145.16  13.551  1.4670  5.2930 -999.25 -999.25 -999.25 -999.25 -999.25 
 -999.25 -999.25 -999.25 -999.25 -999.25 -999.25  1.7373  0.5693  47.575 
  22.925  71.500  0.0500  0.2667  0.4750  0.7199  0.2801  0.4885  0.6196 
  0.7819  0.7819  2.3033  0.1735  1.7491  10.112  149.16 -16.913  2.6400 
  2.8600  3.8050  0.5460  103.05  0.5565  3.8050  2.6381  2.8833  1.7454 
  2319.000 
  9.9570  88.133  0.5130  0.5440 -0.0160 -49.148  2.8910  3.0810  4.1900 
  143.43  13.315  1.6230  5.2970 -999.25 -999.25 -999.25 -999.25 -999.25 
 -999.25 -999.25 -999.25 -999.25 -999.25 -999.25  1.7456  0.5396  47.300 
  25.200  72.000  0.0300  0.2208  0.3936  0.6900  0.3100  0.4828  0.6783 
  0.7934  0.7934  2.3117  0.2103  1.7524  10.042  144.68 -17.148  2.8910 
  3.0810  4.1900  0.5440  98.032  0.5238  4.1900  2.8886  3.1069  1.7533 
  2319.500 
  9.9610  86.549  0.5040  0.5460 -0.0170 -49.264  3.1200  3.2590  4.4410 
  142.70  13.195  1.7060  5.4560 -999.25 -999.25 -999.25 -999.25 -999.25 
 -999.25 -999.25  0.0300  47.300  25.200  72.000  1.7501  0.5228  48.400 
  23.825  70.450  0.0250  0.1456  0.2596  0.6470  0.3530  0.4671  0.7621 
  0.8202  0.8202  2.3250  0.2690  1.7491  9.9795  143.23 -17.264  3.1200 
  3.2590  4.4410  0.5460  95.346  0.5055  4.4410  3.1171  3.2869  1.7573 
  2320.000 
  10.047  89.851  0.5030  0.5530 -0.0170 -49.577  3.2830  3.3430  4.4240 
  148.71  13.074  1.7540  5.4600 -999.25 -999.25 -999.25 -999.25 -999.25 
 -999.25 -999.25 -999.25 -999.25 -999.25 -999.25  1.7514  0.5103  49.500 
  22.450  68.900  0.0200  0.1035  0.1848  0.6242  0.3758  0.4571  0.8010 
  0.8364  0.8364  2.3363  0.3010  1.7376  9.9582  144.30 -17.577  3.2830 
  3.3430  4.4240  0.5530  96.980  0.4918  4.4240  3.2798  3.3720  1.7585 
  2320.500 
  10.137  94.717  0.5120  0.5590 -0.0160 -49.773  3.3490  3.3620  4.2430 
  149.67  13.802  1.8020  5.4600  0.0250 -999.25 -999.25 -999.25 -999.25 
 -999.25 -999.25 -999.25 -999.25 -999.25 -999.25  1.7457  0.5037  50.600 
  21.075  67.350  0.0150  0.0775  0.1384  0.4767  0.3900  0.4508  0.8306 
  0.8535  0.8535  2.3357  0.3239  1.7277  9.9861  148.96 -17.773  3.3490 
  3.3620  4.2430  0.5590  101.76  0.4845  4.2430  3.3457  3.3918  1.7530 
  2321.000 
  10.085  97.694  0.5490  0.5570 -0.0150 -49.734  3.3990  3.3250  3.9100 
  150.63  14.040  1.8850  5.4590  0.1510 -999.25 -999.25  0.9000  50.900 
  19.500  58.800 -999.25 -999.25 -999.25 -999.25  1.7347  0.5056  51.700 
  19.700  65.800  0.0100  0.0646  0.1152  0.3363  0.3984  0.4490  0.8375 
  0.8558  0.8558  2.3243  0.3337  1.7310  10.073  149.91 -17.734  3.3990 
  3.3250  3.9100  0.5570  106.06  0.4866  3.9100  3.3958  3.3558  1.7426 
  2321.500 
  10.009  101.06  0.5590  0.5510 -0.0130 -49.262  3.4240  3.2660  3.5320 
  154.51  13.804  1.9150  5.7830  0.1310 -999.25 -999.25 -999.25 -999.25 
 -999.25 -999.25  0.0100  51.700  19.700  65.800  1.7286  0.5225  51.250 
  18.125  70.175  0.0175  0.0677  0.1207  0.3523  0.3994  0.4523  0.8160 
  0.8376  0.8376  2.3122  0.3259  1.7409  10.122  151.60 -17.262  3.4240 
  3.2660  3.5320  0.5510  109.77  0.5052  3.5320  3.4208  3.2966  1.7368 
  2322.000 
  9.9760  103.72  0.5500  0.5500 -0.0100 -48.750  3.4490  3.2660  3.2600 
  155.03  10.949  1.9450  5.7830  0.1300 -999.25 -999.25 -999.25 -999.25 
 -999.25 -999.25 -999.25 -999.25 -999.25 -999.25  1.7337  0.5518  50.800 
  16.550  74.550  0.0250  0.0819  0.1459  0.4680  0.3946  0.4586  0.7872 
  0.8169  0.8169  2.3052  0.3106  1.7425  10.064  154.64 -16.750  3.4490 
  3.2660  3.2600  0.5500  112.75  0.5373  3.2600  3.4457  3.2955  1.7416 
  2322.500 
  9.9750  105.12  0.5440  0.5520 -0.0100 -48.711  3.4560  3.3020  3.2490 
  151.04  8.8060  1.9570  5.7820  0.1300 -999.25 -999.25 -999.25 -999.25 
 -999.25 -999.25 -999.25 -999.25 -999.25 -999.25  1.7413  0.5565  50.350 
  14.975  78.925  0.0325  0.1016  0.1811  0.6130  0.3870  0.4664  0.7461 
  0.7894  0.7894  2.3042  0.2887  1.7392  9.9998  154.06 -16.711  3.4560 
  3.3020  3.2490  0.5520  114.56  0.5424  3.2490  3.4525  3.3310  1.7487 
  2323.000 
  9.9940  106.05  0.5460  0.5530 -0.0110 -48.711  3.5070  3.3330  3.2430 
  144.85  9.0500  1.9860  5.9220  0.1365 -999.25 -999.25 -999.25 -999.25 
 -999.25 -999.25 -999.25 -999.25 -999.25 -999.25  1.7416  0.5484  49.900 
  13.400  83.300  0.0400  0.1219  0.2172  0.6247  0.3753  0.4706  0.7044 
  0.7643  0.7643  2.3110  0.2644  1.7376  9.9757  149.58 -16.711  3.5070 
  3.3330  3.2430  0.5530  115.67  0.5334  3.2430  3.5034  3.3621  1.7488 
  2323.500 
  10.032  105.87  0.5440  0.5510 -0.0120 -48.868  3.6040  3.4070  3.1960 
  141.47  8.9270  1.9980  5.9360  0.1430 -999.25 -999.25 -999.25 -999.25 
 -999.25 -999.25  0.0400  49.900  13.400  83.300  1.7388  0.5445  48.250 
  16.150  81.400  0.0250  0.1367  0.2438  0.6378  0.3622  0.4693  0.6777 
  0.7512  0.7512  2.3217  0.2455  1.7409  9.9802  144.07 -16.868  3.6040 
  3.4070  3.1960  0.5510  115.96  0.5293  3.1960  3.6002  3.4375  1.7460 
  2324.000 
  10.047  105.93  0.5390  0.5450 -0.0100 -48.632  3.6910  3.4440  3.1560 
  137.96  8.8040  2.0160  5.9310  0.1420 -999.25 -999.25 -999.25 -999.25 
 -999.25 -999.25 -999.25 -999.25 -999.25 -999.25  1.7384  0.5455  46.600 
  18.900  79.500  0.0100  0.1433  0.2557  0.6476  0.3524  0.4648  0.6683 
  0.7485  0.7485  2.3319  0.2355  1.7508  10.004  140.67 -16.632  3.6910 
  3.4440  3.1560  0.5450  116.02  0.5303  3.1560  3.6871  3.4757  1.7459 
  2324.500 
  10.058  106.38  0.5430  0.5420 -0.0070 -47.569  3.7730  3.4760  3.1280 
  134.22  8.4520  2.0280  5.9300  0.1485 -999.25 -999.25 -999.25 -999.25 
 -999.25 -999.25  0.0100  46.600  18.900  79.500  1.7435  0.5427  44.500 
  18.500  77.050  0.0450  0.1473  0.2630  0.6528  0.3472  0.4629  0.6581 
  0.7435  0.7435  2.3343  0.2285  1.7557  10.036  137.13 -15.569  3.7730 
  3.4760  3.1280  0.5420  116.46  0.5272  3.1280  3.7689  3.5089  1.7511 
