~Version Information
VERS.                     2.0: CWLS log ASCII Standard Version 2.00
WRAP.                     YES: Multiple lines per depth step
~Well Information Block
#MNEM.UNIT                               Data Type  Information
#---------                               ---------  -----------
STRT.FT                                   850.0000:
STOP.FT                                  6800.0000:
STEP.FT                                     0.5000:
NULL.                 -999.25                     :
COMP.                                             :COMPANY            
WELL.     SANTIAGO D #26-27                       :WELL               
FLD .                                             :FIELD              
CTRY.                                             :COUNTRY            
STAT.                                             :STATE              
LOC .                                             :LOCATION           
UWI .                                             :UNIQUE WELL ID     
SRVC.                                             :Service company    
DATE.                                             :LOG DATE           
~Curve Information
#MNEM.UNIT           API CODE  Curve Description
#---------           --------  -----------------
DEPT.FT                      :   1 DEPTH
DCAL.IN                      :   2
DGR .GAPI                    :   3
NPHI.PU-S                    :   4
DPHI.PU-S                    :   5
DRHO.G/C3                    :   6
AGR .GAPI                    :   7
ACAL.IN                      :   8
DT  .US/F                    :   9
GR  .GAPI                    :  10
SP  .MV                      :  11
ILM .OHMM                    :  12
ILD .OHMM                    :  13
SFLU.OHMM                    :  14
RHOB.G/C3                    :  15
RS  .OHMM                    :  16
RM  .OHMM                    :  17
RD  .OHMM                    :  18
GRS .GAPI                    :  19
SBL .MV                      :  20
ROBS.G/C3                    :  21
DRHS.G/C3                    :  22
CALS.IN                      :  23
GRS .GAPI                    :  24
NPHS.PU-S                    :  25
CALS.IN                      :  26
GRS .GAPI                    :  27
SFLU.OHMM                    :  28
ILMC.OHMM                    :  29
ILDC.OHMM                    :  30
ROBC.G/C3                    :  31
GRC .GAPI                    :  32
NPHC.PU-S                    :  33
~A
# ...
   980.500 
 -999.25  64.509  0.4872  0.4989 -999.25  75.709 -999.25 -999.25  86.574 
 -999.25 -999.25 -999.25 -999.25  1.8268 -999.25 -999.25 -999.25  86.574 
 -999.25 -999.25 -999.25 -999.25  77.312  0.4932 -999.25  88.489 -999.25 
 -999.25 -999.25 -999.25  77.312  0.5215 
   981.000 
 -999.25  71.420  0.5577  0.3622 -999.25  88.489 -999.25 -999.25  93.434 
 -999.25 -999.25 -999.25 -999.25  2.0524 -999.25 -999.25 -999.25  93.434 
 -999.25 -999.25  0.1822 -999.25  87.591  0.4872 -999.25  97.860 -999.25 
 -999.25 -999.25 -999.25  87.591  0.5143 
   981.500 
 -999.25  77.312  0.5920  0.3176 -999.25  97.860 -999.25 -999.25  95.467 
 -999.25 -999.25 -999.25 -999.25  2.1260 -999.25 -999.25 -999.25  95.467 
 -999.25  2.0687  0.1772  12.066  93.279  0.5577 -999.25  109.33 -999.25 
 -999.25 -999.25  2.0892  103.63  0.6061 
   982.000 
 -999.25  87.591  0.5374  0.3133  0.1822  109.33 -999.25 -999.25  96.512 
 -999.25 -999.25 -999.25 -999.25  2.1330 -999.25 -999.25 -999.25  96.512 
 -999.25  2.0096  0.1718  11.990  95.148  0.5920  15.972  110.93 -999.25 
 -999.25 -999.25  2.0296  105.49  0.6476 
   982.500 
  12.066  93.279  0.5425  0.3523  0.1772  110.93  15.972  125.82  97.832 
  1.7610  4.0320  2.6690  5.3730  2.0687  5.3730  4.0320  2.6690  97.832 
 -4.2390  1.9447  0.1614  11.921  95.577  0.5374  16.065  111.51  6.0861 
  4.0802  2.6690  1.9643  105.76  0.5812 
   983.000 
  11.990  95.148  0.5267  0.3881  0.1718  111.51  16.065  115.80  99.033 
  0.4690  3.4420  3.5440  4.9690  2.0096  4.9690  3.4420  3.5440  99.033 
 -5.5310  1.9525  0.1386  12.118  92.775  0.5425  16.015  111.92  5.6487 
  3.4791  3.5448  1.9733  103.22  0.5878 
   983.500 
  11.921  95.577  0.4688  0.4275  0.1614  111.92  16.015  124.95  100.71 
 -1.8890  4.7930  5.3290  5.1950  1.9447  5.1950  4.7930  5.3290  100.71 
 -7.8890  1.9968  0.1225  12.275  91.329  0.5267  15.719  111.81  5.9279 
  4.8682  5.3333  2.0184  102.04  0.5689 
   984.000 
  12.118  92.775  0.4546  0.4227  0.1386  111.81  15.719  132.15  101.52 
 -4.4470  4.5980  85.183  5.4800  1.9525  5.4800  4.5980  85.183  101.52 
 -10.447  2.0136  0.1258  12.040  95.767  0.4688  15.368  111.12  6.2244 
  4.6629  85.342  2.0339  106.32  0.4982 
   984.500 
  12.275  91.329  0.4505  0.3959  0.1225  111.12  15.368  137.77  101.89 
 -6.8080  5.0400  962.31  5.5330  1.9968  5.5330  5.0400  962.31  101.89 
 -12.808  2.0193  0.1321  11.971  99.446  0.4546  15.326  109.55  6.2756 
  5.1166  960.33  2.0392  110.19  0.4809 
   985.000 
  12.040  95.767  0.4578  0.3857  0.1258  109.55  15.326  139.65  100.99 
 -10.196  7.9190  864.41  4.7390  2.0136  4.7390  7.9190  864.41  100.99 
 -16.196  1.9620  0.1264  11.934  101.97  0.4505  15.399  108.29  5.3644 
  8.1079  860.83  1.9817  112.88  0.4759 
   985.500 
  11.971  99.446  0.4740  0.3823  0.1321  108.29  15.399  148.96  100.02 
 -14.297  10.176  118.95  4.0820  2.0193  4.0820  10.176  118.95  100.02 
 -20.297  1.9175  0.0761  11.998  101.26  0.4578  15.290  113.46  4.6209 
  10.496  118.95  1.9376  112.28  0.4848 
   986.000 
  11.934  101.97  0.4932  0.4170  0.1264  113.46  15.290  153.93  101.50 
 -14.994  8.5430  16.103  4.1370  1.9620  4.1370  8.5430  16.103  101.50 
 -20.994  1.9378  0.0280  12.075  100.53  0.4740  14.546  116.29  4.6908 
  8.7722  16.114  1.9583  111.71  0.5046 
   986.500 
  11.998  101.26  0.4925  0.4439  0.0761  116.29  14.546  152.74  102.14 
 -8.4510  5.0140  4.3800  4.4530  1.9175  4.4530  5.0140  4.3800  102.14 
 -14.451  2.0142  0.0359  11.892  102.70  0.4932  14.012  116.78  5.0339 
  5.0881  4.3798  2.0336  113.55  0.5276 
   987.000 
  12.075  100.53  0.4863  0.4316  0.0280  116.78  14.012  150.96  101.68 
 -5.8240  4.0880  3.9340  4.1940  1.9378  4.1940  4.0880  3.9340  101.68 
 -11.824  2.0682  0.0631  11.594  106.72  0.4925  13.784  116.08  4.7110 
  4.1329  3.9335  2.0859  117.01  0.5264 
   987.500 
  11.892  102.70  0.4717  0.3853  0.0359  116.08  13.784  149.18  99.085 
 -5.0180  3.7950  3.9800  3.5600  2.0142  3.5600  3.7950  3.9800  99.085 
 -11.018  2.0746  0.0804  11.497  108.40  0.4863  13.750  110.87  3.9881 
  3.8325  3.9794  2.0917  118.53  0.5186 
   988.000 
  11.594  106.72  0.4560  0.3526  0.0631  110.87  13.750  147.40  97.241 
 -4.9640  4.4270  4.5920  3.3410  2.0682  3.3410  4.4270  4.5920  97.241 
 -10.964  2.0314  0.0686  11.538  107.80  0.4717  13.791  107.67  3.7444 
  4.4788  4.5913  2.0487  118.00  0.5011 
   988.500 
  11.497  108.40  0.4613  0.3487  0.0804  107.67  13.791  145.19  99.907 
 -5.8200  4.8350  5.0420  3.3610  2.0746  3.3610  4.8350  5.0420  99.907 
 -11.820  2.0131  0.0552  11.593  104.59  0.4560  13.677  106.22  3.7706 
  4.8979  5.0412  2.0308  114.68  0.4820 
   989.000 
  11.538  107.80  0.4828  0.3749  0.0686  106.22  13.677  145.82  103.13 
 -7.1890  4.5710  4.9270  3.6650  2.0314  3.6650  4.5710  4.9270  103.13 
 -13.189  2.0375  0.0699  11.652  102.24  0.4613  13.905  108.42  4.1182 
  4.6283  4.9264  2.0555  112.29  0.4886 
   989.500 
  11.593  104.59  0.4924  0.3860  0.0552  108.42  13.905  146.27  104.21 
 -8.0850  4.2120  4.8930  4.2280  2.0131  4.2280  4.2120  4.8930  104.21 
 -14.085  2.0533  0.0905  11.710  100.07  0.4828  14.184  111.41  4.7603 
  4.2614  4.8925  2.0716  110.08  0.5147 
   990.000 
  11.652  102.24  0.4867  0.3712  0.0699  111.41  14.184  145.76  104.74 
 -8.8240  4.4360  4.9320  4.4200  2.0375  4.4200  4.4360  4.9320  104.74 
 -14.824  2.0582  0.0990  11.757  97.652  0.4924  14.277  112.61  4.9827 
  4.4917  4.9316  2.0769  107.57  0.5264 
   990.500 
  11.710  100.07  0.4592  0.3617  0.0905  112.61  14.277  137.80  104.20 
 -9.4410  4.5450  4.9790  4.3660  2.0533  4.3660  4.5450  4.9790  104.20 
 -15.441  2.0072  0.0825  11.787  98.048  0.4867  14.223  112.62  4.9244 
  4.6040  4.9786  2.0260  108.09  0.5195 
   991.000 
  11.757  97.652  0.4504  0.3587  0.0990  112.62  14.223  136.65  99.980 
 -10.057  4.7510  5.1020  4.3840  2.0582  4.3840  4.7510  5.1020  99.980 
 -16.057  1.9959  0.0632  11.803  98.951  0.4592  14.193  108.08  4.9464 
  4.8158  5.1016  2.0148  109.14  0.4863 
   991.500 
  11.787  98.048  0.4652  0.3896  0.0825  108.08  14.193  136.34  96.234 
 -10.521  5.0570  5.2170  4.7530  2.0072  4.7530  5.0570  5.2170  96.234 
 -16.521  2.0342  0.0871  11.810  99.466  0.4504  14.206  102.75  5.3664 
  5.1306  5.2166  2.0532  109.72  0.4756 
   992.000 
  11.803  98.951  0.4790  0.3964  0.0632  102.75  14.206  135.00  94.943 
 -11.179  5.1060  5.4040  5.4240  1.9959  5.4240  5.1060  5.4040  94.943 
 -17.179  2.0400  0.1269  11.823  94.836  0.4652  14.497  95.624  6.1311 
  5.1814  5.4036  2.0591  104.65  0.4936 
   992.500 
  11.810  99.466  0.4764  0.3732  0.0871  95.624  14.497  129.94  96.223 
 -11.244  5.0620  5.5260  5.9240  2.0342  5.9240  5.0620  5.5260  96.223 
 -17.244  1.9744  0.1311  11.855  89.591  0.4790  14.863  94.729  6.7050 
  5.1368  5.5257  1.9936  98.955  0.5103 
   993.000 
  11.823  94.836  0.4675  0.3697  0.1269  94.729  14.863  128.44  101.50 
 -10.634  4.9730  5.7560  4.9370  2.0400  4.9370  4.9730  5.7560  101.50 
 -16.634  1.8441  0.0637  11.932  88.092  0.4764  14.750  96.924  5.5901 
  5.0468  5.7558  1.8638  97.508  0.5073 
   993.500 
  11.855  89.591  0.4642  0.4095  0.1311  96.924  14.750  128.70  101.79 
 -10.065  4.9670  5.9630  4.0040  1.9744  4.0040  4.9670  5.9630  101.79 
 -16.065  1.8495  0.0309  12.044  95.246  0.4675  14.307  101.66  4.5359 
  5.0430  5.9639  1.8698  105.75  0.4967 
   994.000 
  11.932  88.092  0.4687  0.4884  0.0637  101.66  14.307  130.16  98.602 
 -9.9320  5.1350  6.2100  3.6960  1.8441  3.6960  5.1350  6.2100  98.602 
 -15.932  1.9409  0.1040  12.034  97.304  0.4642  14.269  102.75  4.1829 
  5.2160  6.2107  1.9611  108.00  0.4927 
   994.500 
  12.044  95.246  0.4647  0.4852  0.0309  102.75  14.269  130.46  92.048 
 -10.433  5.7330  6.4560  4.4310  1.8495  4.4310  5.7330  6.4560  92.048 
 -16.433  1.9498  0.1129  12.132  92.564  0.4687  14.521  102.92  5.0332 
  5.8369  6.4590  1.9706  103.02  0.4983 
