~Version Information
VERS.                     2.0: CWLS log ASCII Standard Version 2.00
WRAP.                     YES: Multiple lines per depth step
~Well Information Block
#MNEM.UNIT                               Data Type  Information
#---------                               ---------  -----------
STRT.FT                                   805.0000:
STOP.FT                                  5010.0000:
STEP.FT                                     0.5000:
NULL.                 -999.25                     :
COMP.                                             :COMPANY            
WELL.     SANTIAGO C 55-28                        :WELL               
FLD .                                             :FIELD              
CTRY.                                             :COUNTRY            
STAT.                                             :STATE              
LOC .                                             :LOCATION           
UWI .                                             :UNIQUE WELL ID     
SRVC.                                             :Service company    
DATE.                                             :LOG DATE           
~Curve Information
#MNEM.UNIT           API CODE  Curve Description
#---------           --------  -----------------
DEPT.FT                      :   1 DEPTH
CALI.IN                      :   2
GR  .GAPI                    :   3
NPHI.PU-S                    :   4
DPHI.PU-S                    :   5
DRHO.G/C3                    :   6
SP  .MV                      :   7
ILD .OHMM                    :   8
ILM .OHMM                    :   9
SFLU.OHMM                    :  10
LLD .OHMM                    :  11
LLS .OHMM                    :  12
MSFL.OHMM                    :  13
DT  .US/F                    :  14
SPHI.                        :  15
KSCI.                        :  16
PSCI.                        :  17
OSCI.                        :  18
WSCI.                        :  19
KWCI.                        :  20
PWCI.                        :  21
OWCI.                        :  22
WWCI.                        :  23
SBL .MV                      :  24
RS  .OHMM                    :  25
RM  .OHMM                    :  26
RD  .OHMM                    :  27
DTS .US/F                    :  28
RHOB.G/C3                    :  29
ROBS.G/C3                    :  30
DROS.G/C3                    :  31
CALS.IN                      :  32
GRS .GAPI                    :  33
NPHS.PU-S                    :  34
SFLU.OHMM                    :  35
ILMC.OHMM                    :  36
ILDC.OHMM                    :  37
ROBC.G/C3                    :  38
GRC .GAPI                    :  39
NPHC.PU-S                    :  40
~A
# ...
  2785.000 
  10.099  66.370  0.4740  0.3520  0.0050 -19.598  1.6270  1.6480  1.9310 
 -999.25 -999.25 -999.25  183.01 -999.25 -999.25 -999.25 -999.25 -999.25 
 -999.25 -999.25 -999.25 -999.25 -2.9970  1.9310  1.6480  1.6270  178.07 
  2.0692  2.0712  0.0048  10.354  72.881  0.5031  1.9310  1.6480  1.6270 
  2.0810  77.326  0.4918 
  2785.500 
  10.196  65.933  0.5020  0.3550  0.0050 -19.477  1.6090  1.6320  1.9260 
 -999.25 -999.25 -999.25  183.73 -999.25 -999.25 -999.25 -999.25 -999.25 
 -999.25 -999.25 -999.25 -999.25 -2.8808  1.9260  1.6320  1.6090  183.95 
  2.0643  2.0893  0.0133  10.422  74.907  0.4923  1.9260  1.6320  1.6090 
  2.0996  79.648  0.4799 
  2786.000 
  10.251  67.453  0.5130  0.3610  0.0040 -19.514  1.5870  1.6140  1.7820 
 -999.25 -999.25 -999.25  184.67 -999.25 -999.25 -999.25 -999.25 -999.25 
 -999.25 -999.25 -999.25 -999.25 -2.9227  1.7820  1.6140  1.5870  183.72 
  2.0544  2.1013  0.0232  10.473  75.770  0.5192  1.7820  1.6140  1.5870 
  2.1119  80.697  0.5099 
  2786.500 
  10.277  69.390  0.5150  0.3630  0.0030 -19.871  1.5720  1.6040  1.5860 
 -999.25 -999.25 -999.25  187.81 -999.25 -999.25 -999.25 -999.25 -999.25 
 -999.25 -999.25 -999.25 -999.25 -3.2845  1.5860  1.6040  1.5720  182.47 
  2.0511  2.0977  0.0313  10.505  75.242  0.5308  1.5860  1.6040  1.5720 
  2.1085  80.217  0.5227 
  2787.000 
  10.315  71.154  0.5220  0.3620  0.0020 -20.267  1.5680  1.5940  1.5370 
 -999.25 -999.25 -999.25  195.60 -999.25 -999.25 -999.25 -999.25 -999.25 
 -999.25 -999.25 -999.25 -999.25 -3.6853  1.5370  1.5940  1.5680  184.09 
  2.0527  2.0823  0.0302  10.409  75.365  0.5395  1.5370  1.5940  1.5680 
  2.0925  80.103  0.5324 
  2787.500 
  10.357  73.039  0.5340  0.3500  0.0050 -20.505  1.5680  1.5910  1.5530 
 -999.25 -999.25 -999.25  208.42 -999.25 -999.25 -999.25 -999.25 -999.25 
 -999.25 -999.25 -999.25 -999.25 -3.9281  1.5530  1.5910  1.5680  184.88 
  2.0725  2.0689  0.0219  10.298  78.026  0.5591  1.5530  1.5910  1.5680 
  2.0783  82.636  0.5542 
  2788.000 
  10.427  75.096  0.5180  0.3390  0.0140 -20.383  1.5670  1.5810  1.5760 
 -999.25 -999.25 -999.25  209.28 -999.25 -999.25 -999.25 -999.25 -999.25 
 -999.25 -999.25 -999.25 -999.25 -3.8109  1.5760  1.5810  1.5670  183.61 
  2.0907  2.0646  0.0183  10.218  79.817  0.5573  1.5760  1.5810  1.5670 
  2.0735  84.314  0.5522 
  2788.500 
  10.477  75.847  0.5010  0.3320  0.0240 -20.141  1.5690  1.5750  1.5840 
 -999.25 -999.25 -999.25  201.29 -999.25 -999.25 -999.25 -999.25 -999.25 
 -999.25 -999.25 -999.25 -999.25 -3.5737  1.5840  1.5750  1.5690  183.12 
  2.1022  2.0657  0.0189  10.174  78.943  0.5528  1.5840  1.5750  1.5690 
  2.0743  83.270  0.5471 
  2789.000 
  10.508  75.171  0.4910  0.3350  0.0320 -20.020  1.5680  1.5650  1.5770 
 -999.25 -999.25 -999.25  197.39 -999.25 -999.25 -999.25 -999.25 -999.25 
 -999.25 -999.25 -999.25 -999.25 -3.4575  1.5770  1.5650  1.5680  183.89 
  2.0972  2.0673  0.0208  10.133  74.548  0.5536  1.5770  1.5650  1.5680 
  2.0757  78.528  0.5480 
  2789.500 
  10.399  75.389  0.5240  0.3450  0.0300 -20.059  1.5680  1.5530  1.5730 
 -999.25 -999.25 -999.25  195.88 -999.25 -999.25 -999.25 -999.25 -999.25 
 -999.25 -999.25 -999.25 -999.25 -3.5013  1.5730  1.5530  1.5680  185.25 
  2.0807  2.0762  0.0227  10.064  70.802  0.5524  1.5730  1.5530  1.5680 
  2.0840  74.414  0.5467 
  2790.000 
  10.287  78.396  0.5320  0.3530  0.0210 -20.175  1.5730  1.5300  1.5640 
 -999.25 -999.25 -999.25  197.58 -999.25 -999.25 -999.25 -999.25 -999.25 
 -999.25 -999.25 -999.25 -999.25 -3.6221  1.5640  1.5300  1.5730  189.36 
  2.0676  2.0832  0.0247  10.006  68.285  0.5451  1.5640  1.5300  1.5730 
  2.0906  71.630  0.5384 
  2790.500 
  10.210  80.040  0.5410  0.3550  0.0180 -20.291  1.5780  1.5210  1.5750 
 -999.25 -999.25 -999.25  201.19 -999.25 -999.25 -999.25 -999.25 -999.25 
 -999.25 -999.25 -999.25 -999.25 -3.7429  1.5750  1.5210  1.5780  198.35 
  2.0643  2.0869  0.0284  9.9697  66.947  0.5370  1.5750  1.5210  1.5780 
  2.0941  70.142  0.5294 
  2791.000 
  10.169  78.772  0.5630  0.3540  0.0190 -20.407  1.5810  1.5210  1.5960 
 -999.25 -999.25 -999.25  201.04 -999.25 -999.25 -999.25 -999.25 -999.25 
 -999.25 -999.25 -999.25 -999.25 -3.8637  1.5960  1.5210  1.5810  208.62 
  2.0659  2.0859  0.0307  9.9539  67.653  0.5328  1.5960  1.5210  1.5810 
  2.0930  70.845  0.5247 
  2791.500 
  10.128  73.817  0.5560  0.3530  0.0210 -20.284  1.5810  1.5300  1.6080 
 -999.25 -999.25 -999.25  200.80 -999.25 -999.25 -999.25 -999.25 -999.25 
 -999.25 -999.25 -999.25 -999.25 -3.7455  1.6080  1.5300  1.5810  207.33 
  2.0676  2.0732  0.0310  9.9436  68.792  0.5291  1.6080  1.5300  1.5810 
  2.0802  72.013  0.5206 
  2792.000 
  10.055  70.230  0.5520  0.3470  0.0230 -20.120  1.5810  1.5440  1.5990 
 -999.25 -999.25 -999.25  201.23 -999.25 -999.25 -999.25 -999.25 -999.25 
 -999.25 -999.25 -999.25 -999.25 -3.5863  1.5990  1.5440  1.5810  200.29 
  2.0775  2.0515  0.0210  9.9345  70.142  0.5258  1.5990  1.5440  1.5810 
  2.0584  73.404  0.5170 
  2792.500 
  9.9980  67.891  0.5540  0.3430  0.0250 -19.598  1.5750  1.5440  1.5870 
 -999.25 -999.25 -999.25  201.95 -999.25 -999.25 -999.25 -999.25 -999.25 
 -999.25 -999.25 -999.25 -999.25 -3.0692  1.5870  1.5440  1.5750  196.98 
  2.0841  2.0354  0.0124  9.9189  70.536  0.5321  1.5870  1.5440  1.5750 
  2.0422  73.777  0.5239 
  2793.000 
  9.9650  66.741  0.5520  0.3410  0.0290 -19.155  1.5750  1.5550  1.5840 
 -999.25 -999.25 -999.25  201.77 -999.25 -999.25 -999.25 -999.25 -999.25 
 -999.25 -999.25 -999.25 -999.25 -2.6310  1.5840  1.5550  1.5750  196.37 
  2.0874  2.0302  0.0077  9.9111  70.652  0.5399  1.5840  1.5550  1.5750 
  2.0369  73.880  0.5326 
  2793.500 
  9.9520  67.844  0.5430  0.3420  0.0310 -18.794  1.5720  1.5640  1.5810 
 -999.25 -999.25 -999.25  201.54 -999.25 -999.25 -999.25 -999.25 -999.25 
 -999.25 -999.25 -999.25 -999.25 -2.2748  1.5810  1.5640  1.5720  198.68 
  2.0857  2.0390  0.0086  9.9026  71.123  0.5427  1.5810  1.5640  1.5720 
  2.0457  74.351  0.5357 
  2794.000 
  9.9420  69.016  0.5350  0.3510  0.0310 -18.748  1.5690  1.5780  1.5750 
 -999.25 -999.25 -999.25  202.04 -999.25 -999.25 -999.25 -999.25 -999.25 
 -999.25 -999.25 -999.25 -999.25 -2.2336  1.5750  1.5780  1.5690  201.14 
  2.0709  2.0465  0.0131  9.9002  72.479  0.5362  1.5750  1.5780  1.5690 
  2.0532  75.762  0.5285 
  2794.500 
  9.9330  70.421  0.5320  0.3650  0.0190 -18.665  1.5600  1.5690  1.5720 
 -999.25 -999.25 -999.25  202.51 -999.25 -999.25 -999.25 -999.25 -999.25 
 -999.25 -999.25 -999.25 -999.25 -2.1554  1.5720  1.5690  1.5600  200.96 
  2.0477  2.0451  0.0172  9.8984  75.222  0.5183  1.5720  1.5690  1.5600 
  2.0518  78.624  0.5086 
  2795.000 
  9.9160  70.576  0.5280  0.3740  0.0110 -18.780  1.5580  1.5600  1.5660 
 -999.25 -999.25 -999.25  202.29 -999.25 -999.25 -999.25 -999.25 -999.25 
 -999.25 -999.25 -999.25 -999.25 -2.2752  1.5660  1.5600  1.5580  200.95 
  2.0329  2.0392  0.0196  9.8972  75.373  0.5077  1.5660  1.5600  1.5580 
  2.0459  78.779  0.4968 
  2795.500 
  9.9100  70.674  0.5250  0.3760  0.0070 -19.016  1.5550  1.5580  1.5660 
 -999.25 -999.25 -999.25  201.44 -999.25 -999.25 -999.25 -999.25 -999.25 
 -999.25 -999.25 -999.25 -999.25 -2.5160  1.5660  1.5580  1.5550  201.49 
  2.0296  2.0379  0.0208  9.8954  71.638  0.5066  1.5660  1.5580  1.5550 
  2.0445  74.871  0.4956 
  2796.000 
  9.9010  71.248  0.5350  0.3690  0.0090 -19.131  1.5430  1.5400  1.5660 
 -999.25 -999.25 -999.25  201.30 -999.25 -999.25 -999.25 -999.25 -999.25 
 -999.25 -999.25 -999.25 -999.25 -2.6358  1.5660  1.5400  1.5430  201.88 
  2.0412  2.0391  0.0210  9.8942  68.179  0.5178  1.5660  1.5400  1.5430 
  2.0458  71.253  0.5080 
  2796.500 
  9.9000  72.841  0.5420  0.3650  0.0140 -19.127  1.5290  1.5260  1.5550 
 -999.25 -999.25 -999.25  198.86 -999.25 -999.25 -999.25 -999.25 -999.25 
 -999.25 -999.25 -999.25 -999.25 -2.6366  1.5550  1.5260  1.5290  201.68 
  2.0477  2.0382  0.0171  9.8963  66.917  0.5271  1.5550  1.5260  1.5290 
  2.0449  69.939  0.5184 
