~Version Information
VERS.                     2.0: CWLS log ASCII Standard Version 2.00
WRAP.                     YES: Multiple lines per depth step
~Well Information Block
#MNEM.UNIT                               Data Type  Information
#---------                               ---------  -----------
STRT.FT                                   120.0000:
STOP.FT                                  3000.0000:
STEP.FT                                     0.5000:
NULL.                 -999.25                     :
COMP.                                             :COMPANY            
WELL.     LOS LOBOS 62X-30                        :WELL               
FLD .                                             :FIELD              
CTRY.                                             :COUNTRY            
STAT.                                             :STATE              
LOC .                                             :LOCATION           
UWI .                                             :UNIQUE WELL ID     
SRVC.                                             :Service company    
DATE.                                             :LOG DATE           
~Curve Information
#MNEM.UNIT           API CODE  Curve Description
#---------           --------  -----------------
DEPT.FT                      :   1 DEPTH
CALI.IN                      :   2
GR  .GAPI                    :   3
NPHI.PU-S                    :   4
DPHI.PU-S                    :   5
DRHO.G/C3                    :   6
SP  .MV                      :   7
ILD .OHMM                    :   8
ILM .OHMM                    :   9
LL8U.OHMM                    :  10
DT  .US/F                    :  11
ROP .                        :  12
GASR.                        :  13
C1R .                        :  14
C2R .                        :  15
C3R .                        :  16
C4R .                        :  17
KSCI.                        :  18
PSCI.                        :  19
OSCI.                        :  20
WSCI.                        :  21
KWCI.                        :  22
PWCI.                        :  23
OWCI.                        :  24
WWCI.                        :  25
ROBS.G/C3                    :  26
NPHS.PU-S                    :  27
PWCL.                        :  28
OWCL.                        :  29
WWCL.                        :  30
KWCL.                        :  31
VCLD.                        :  32
VCLW.                        :  33
VSHL.                        :  34
PHIE.                        :  35
PHIT.                        :  36
SWE .                        :  37
SWT .                        :  38
SWTU.                        :  39
RMAT.                        :  40
BVWE.                        :  41
RHOB.G/C3                    :  42
CALS.IN                      :  43
DTS .US/F                    :  44
SBL .MV                      :  45
RD  .OHMM                    :  46
RM  .OHMM                    :  47
RS  .OHMM                    :  48
DPHI.                        :  49
GRC .GAPI                    :  50
NPHC.PU-S                    :  51
LL8C.OHMM                    :  52
ILDC.OHMM                    :  53
ILMC.OHMM                    :  54
ROBC.G/C3                    :  55
~A
# ...
   471.000 
  10.890  70.890  0.5020  0.2680  0.0310 -45.942  1989.1  996.86  12.082 
  234.27  89.169  0.3310  2.7510 -999.25 -999.25 -999.25 -999.25 -999.25 
 -999.25 -999.25 -999.25 -999.25 -999.25 -999.25  2.3052  0.6960 -999.25 
 -999.25 -999.25 -999.25 -999.25 -999.25 -999.25 -999.25 -999.25 -999.25 
 -999.25 -999.25 -999.25 -999.25  2.2078  10.314  236.52 -13.942  1989.1 
  996.86  12.082  0.2680  75.480  0.6956  12.082  1338.1  2000.0  2.3147 
   471.500 
  11.305  70.575  0.4840  0.2590  0.0460 -42.444  1349.1  750.14  7.9740 
  236.52  88.953  0.4030  2.7460 -999.25 -999.25 -999.25 -999.25 -999.25 
 -999.25 -999.25 -999.25 -999.25 -999.25 -999.25  2.2227  0.7020 -999.25 
 -999.25 -999.25 -999.25 -999.25 -999.25 -999.25 -999.25 -999.25 -999.25 
 -999.25 -999.25 -999.25 -999.25  2.2227  10.223  239.32 -10.444  1349.1 
  750.14  7.9740  0.2590  78.219  0.7022  7.9740  1001.0  2000.0  2.2316 
   472.000 
  11.633  68.286  0.4790  0.2580  0.0560 -35.643  18.781  169.20  6.8540 
  239.32  88.739  0.4500  2.7450 -999.25 -999.25 -999.25 -999.25 -999.25 
 -999.25 -999.25 -999.25 -999.25 -999.25 -999.25  2.1270  0.6640 -999.25 
 -999.25 -999.25 -999.25 -999.25 -999.25 -999.25 -999.25 -999.25 -999.25 
 -999.25 -999.25 -999.25 -999.25  2.2243  10.180  250.03 -3.6430  18.781 
  169.20  6.8540  0.2580  77.762  0.6604  6.8540  18.688  336.35  2.1356 
   472.500 
  11.214  66.470  0.4680  0.2730  0.0500 -33.482  2.6470  4.1290  6.7800 
  250.03  88.524  0.4560  2.7350 -999.25 -999.25 -999.25 -999.25 -999.25 
 -999.25 -999.25 -999.25 -999.25 -999.25 -999.25  2.0824  0.6020 -999.25 
 -999.25 -999.25 -999.25 -999.25 -999.25 -999.25 -999.25 -999.25 -999.25 
 -999.25 -999.25 -999.25 -999.25  2.1996  10.141  251.41 -1.4820  2.6470 
  4.1290  6.7800  0.2730  75.144  0.5924  6.7800  2.6451  4.1786  2.0908 
   473.000 
  10.606  66.311  0.4180  0.3010  0.0310 -32.108  6.8420  5.1480  6.6570 
  251.41  88.311  0.4740  2.7350 -999.25 -999.25 -999.25 -999.25 -999.25 
 -999.25 -999.25 -999.25 -999.25 -999.25 -999.25  2.1649  0.5390 -999.25 
 -999.25 -999.25 -999.25 -999.25 -999.25 -999.25 -999.25 -999.25 -999.25 
 -999.25 -999.25 -999.25 -999.25  2.1534  10.235  253.80 -0.1080  6.8420 
  5.1480  6.6570  0.3010  73.371  0.5233  6.6570  6.8300  5.2295  2.1739 
   473.500 
  10.121  66.075  0.3580  0.3150  0.0120 -31.834  34.587  7.0440  6.8540 
  253.80  87.856  0.4740  2.7340 -999.25 -999.25 -999.25 -999.25 -999.25 
 -999.25 -999.25 -999.25 -999.25 -999.25 -999.25  2.2078  0.5020 -999.25 
 -999.25 -999.25 -999.25 -999.25 -999.25 -999.25 -999.25 -999.25 -999.25 
 -999.25 -999.25 -999.25 -999.25  2.1303  10.890  268.51  0.1660  34.587 
  7.0440  6.8540  0.3150  74.727  0.4829  6.8540  34.395  7.2539  2.2212 
   474.000 
  9.9000  65.996  0.3270  0.3310  0.0020 -33.016  532.50  153.06  8.1200 
  268.51  87.640  0.4560  2.7340 -999.25 -999.25 -999.25 -999.25 -999.25 
 -999.25 -999.25 -999.25 -999.25 -999.25 -999.25  2.2227  0.4840 -999.25 
 -999.25 -999.25 -999.25 -999.25 -999.25 -999.25 -999.25 -999.25 -999.25 
 -999.25 -999.25 -999.25 -999.25  2.1039  11.305  279.86 -1.0160  532.50 
  153.06  8.1200  0.3310  75.395  0.4633  8.1200  505.37  574.01  2.2386 
   474.500 
  9.8520  65.759  0.2460  0.3450  0.0020 -34.277  987.82  950.72  9.8150 
  279.86  87.426  0.4320  2.7330 -999.25 -999.25 -999.25 -999.25 -999.25 
 -999.25 -999.25 -999.25 -999.25 -999.25 -999.25  2.2243  0.4790 -999.25 
 -999.25 -999.25 -999.25 -999.25 -999.25 -999.25 -999.25 -999.25 -999.25 
 -999.25 -999.25 -999.25 -999.25  2.0807  11.633  284.89 -2.2770  987.82 
  950.72  9.8150  0.3450  76.025  0.4579  9.8150  938.46  2000.0  2.2422 
   475.000 
  9.8410  66.548  0.2180  0.3660 -0.0020 -35.144  732.57  957.68  12.060 
  284.89  95.562  0.4140  2.8410 -999.25 -999.25 -999.25 -999.25 -999.25 
 -999.25 -999.25 -999.25 -999.25 -999.25 -999.25  2.1996  0.4680 -999.25 
 -999.25 -999.25 -999.25 -999.25 -999.25 -999.25 -999.25 -999.25 -999.25 
 -999.25 -999.25 -999.25 -999.25  2.0461  11.214  289.63 -3.1440  732.57 
  957.68  12.060  0.3660  74.833  0.4457  12.060  676.09  2000.0  2.2150 
   475.500 
  9.8330  67.338  0.2090  0.3820 -0.0040 -36.050  65.340  793.75  14.711 
  289.63  97.020  0.3840  2.9490 -999.25 -999.25 -999.25 -999.25 -999.25 
 -999.25 -999.25 -999.25 -999.25 -999.25 -999.25  2.1534  0.4180 -999.25 
 -999.25 -999.25 -999.25 -999.25 -999.25 -999.25 -999.25 -999.25 -999.25 
 -999.25 -999.25 -999.25 -999.25  2.0197  10.606  292.92 -4.0500  65.340 
  793.75  14.711  0.3820  74.335  0.3907  14.711  64.488  2000.0  2.1649 
   476.000 
  9.8480  66.154  0.2070  0.3970 -0.0020 -36.582  13.044  40.530  15.037 
  292.92  97.044  0.4200  2.9480 -999.25 -999.25 -999.25 -999.25 -999.25 
 -999.25 -999.25 -999.25 -999.25 -999.25 -999.25  2.1303  0.3580 -999.25 
 -999.25 -999.25 -999.25 -999.25 -999.25 -999.25 -999.25 -999.25 -999.25 
 -999.25 -999.25 -999.25 -999.25  1.9950  10.121  301.15 -4.5820  13.044 
  40.530  15.037  0.3970  74.052  0.3249  15.037  12.998  45.802  2.1385 
   476.500 
  9.8640  64.338  0.2050  0.4050 -0.0020 -37.115  14.551  18.987  17.145 
  301.15  97.305  0.4730  2.9480 -999.25 -999.25 -999.25 -999.25 -999.25 
 -999.25 -999.25 -999.25 -999.25 -999.25 -999.25  2.1039  0.3270 -999.25 
 -999.25 -999.25 -999.25 -999.25 -999.25 -999.25 -999.25 -999.25 -999.25 
 -999.25 -999.25 -999.25 -999.25  1.9818  9.9000  319.69 -5.1150  14.551 
  18.987  17.145  0.4050  72.216  0.2881  17.145  14.487  19.924  2.1105 
   477.000 
  9.8680  64.417  0.2030  0.4090  0.0020 -37.983  15.623  21.572  17.208 
  319.69  97.329  0.5030  2.9470 -999.25 -999.25 -999.25 -999.25 -999.25 
 -999.25 -999.25 -999.25 -999.25 -999.25 -999.25  2.0807  0.2460 -999.25 
 -999.25 -999.25 -999.25 -999.25 -999.25 -999.25 -999.25 -999.25 -999.25 
 -999.25 -999.25 -999.25 -999.25  1.9752  9.8520  319.92 -5.9830  15.623 
  21.572  17.208  0.4090  70.120  0.2047  17.208  15.547  22.748  2.0871 
   477.500 
  9.8720  64.180  0.2090  0.4090  0.0040 -38.260  18.375  708.93  18.076 
  319.92  97.114  0.5090  2.9470 -999.25 -999.25 -999.25 -999.25 -999.25 
 -999.25 -999.25 -999.25 -999.25 -999.25 -999.25  2.0461  0.2180 -999.25 
 -999.25 -999.25 -999.25 -999.25 -999.25 -999.25 -999.25 -999.25 -999.25 
 -999.25 -999.25 -999.25 -999.25  1.9752  9.8410  306.38 -6.2600  18.375 
  708.93  18.076  0.4090  70.180  0.1771  18.076  18.270  2000.0  2.0524 
   478.000 
  9.8720  62.443  0.2280  0.3970  0.0000 -38.380  31.230  955.93  19.161 
  306.38  96.899  0.4970  2.9460 -999.25 -999.25 -999.25 -999.25 -999.25 
 -999.25 -999.25 -999.25 -999.25 -999.25 -999.25  2.0197  0.2090 -999.25 
 -999.25 -999.25 -999.25 -999.25 -999.25 -999.25 -999.25 -999.25 -999.25 
 -999.25 -999.25 -999.25 -999.25  1.9950  9.8330  304.16 -6.3800  31.230 
  955.93  19.161  0.3970  69.903  0.1684  19.161  30.926  2000.0  2.0259 
   478.500 
  9.8770  60.328  0.2330  0.3920 -0.0010 -38.457  32.869  687.36  19.802 
  304.16  96.446  0.4790  2.9460 -999.25 -999.25 -999.25 -999.25 -999.25 
 -999.25 -999.25 -999.25 -999.25 -999.25 -999.25  1.9950  0.2070 -999.25 
 -999.25 -999.25 -999.25 -999.25 -999.25 -999.25 -999.25 -999.25 -999.25 
 -999.25 -999.25 -999.25 -999.25  2.0032  9.8480  302.99 -6.4570  32.869 
  687.36  19.802  0.3920  68.045  0.1664  19.802  32.535  2000.0  2.0013 
   479.000 
  9.8820  59.160  0.2170  0.3980 -0.0040 -38.376  31.350  35.812  19.553 
  302.99  96.230  0.4610  2.9450 -999.25 -999.25 -999.25 -999.25 -999.25 
 -999.25 -999.25 -999.25 -999.25 -999.25 -999.25  1.9818  0.2050 -999.25 
 -999.25 -999.25 -999.25 -999.25 -999.25 -999.25 -999.25 -999.25 -999.25 
 -999.25 -999.25 -999.25 -999.25  1.9933  9.8640  303.23 -6.3760  31.350 
  35.812  19.553  0.3980  65.776  0.1645  19.553  31.048  39.204  1.9882 
   479.500 
  9.8900  57.519  0.1880  0.4160 -0.0060 -38.177  23.125  22.501  18.752 
  303.23  96.254  0.4370  3.0360 -999.25 -999.25 -999.25 -999.25 -999.25 
 -999.25 -999.25 -999.25 -999.25 -999.25 -999.25  1.9752  0.2030 -999.25 
 -999.25 -999.25 -999.25 -999.25 -999.25 -999.25 -999.25 -999.25 -999.25 
 -999.25 -999.25 -999.25 -999.25  1.9636  9.8680  303.69 -6.1770  23.125 
  22.501  18.752  0.4165  64.511  0.1626  18.752  22.961  23.798  1.9816 
