~Version Information
VERS.                     2.0: CWLS log ASCII Standard Version 2.00
WRAP.                      NO: One line per depth step
~Well Information Block
#MNEM.UNIT                               Data Type  Information
#---------                               ---------  -----------
STRT.FT                                   318.0000:
STOP.FT                                  2700.0000:
STEP.FT                                     0.5000:
NULL.                 -999.25                     :
COMP.                                             :COMPANY            
WELL.     LOS LOBOS 82X-30                        :WELL               
FLD .                                             :FIELD              
CTRY.                                             :COUNTRY            
STAT.                                             :STATE              
LOC .                                             :LOCATION           
UWI .                                             :UNIQUE WELL ID     
SRVC.                                             :Service company    
DATE.                                             :LOG DATE           
~Curve Information
#MNEM.UNIT           API CODE  Curve Description
#---------           --------  -----------------
DEPT.FT                      :   1 DEPTH
SP  .MV                      :   2
ILD .OHMM                    :   3
ILM .OHMM                    :   4
SFLU.OHMM                    :   5
CALI.IN                      :   6
GR  .GAPI                    :   7
NPHI.PU-S                    :   8
DPHI.PU-S                    :   9
DRHO.G/C3                    :  10
CALI.IN                      :  11
DT  .US/F                    :  12
SBL .MV                      :  13
RS  .OHMM                    :  14
RM  .OHMM                    :  15
RD  .OHMM                    :  16
DTS .US/F                    :  17
CALS.IN                      :  18
RHOB.G/C3                    :  19
ROBS.G/C3                    :  20
DROS.G/C3                    :  21
CALS.IN                      :  22
GRS .GAPI                    :  23
NPHS.PU-S                    :  24
SFLU.OHMM                    :  25
ILMC.OHMM                    :  26
ILDC.OHMM                    :  27
ROBC.G/C3                    :  28
GRC .GAPI                    :  29
NPHC.PU-S                    :  30
~A
# ...
   631.500 -52.327  18.770  16.452  17.413  12.984  76.685  0.3970  0.2900  0.0580  12.806  130.97 -10.327  17.413  16.452  18.770  134.85  12.813  2.1715  2.1715  0.0580  12.984  76.685  0.3988  20.412  17.384  18.934  2.1968  86.174  0.3727 
   632.000 -52.581  18.801  16.767  16.385  12.944  74.616  0.4020  0.2900  0.0570  12.799  124.53 -10.581  16.385  16.767  18.801  131.07  12.806  2.1715  2.1715  0.0570  12.944  74.616  0.3895  19.201  17.727  18.959  2.1966  83.766  0.3623 
   632.500 -52.671  18.864  17.089  15.587  12.882  72.466  0.3920  0.3050  0.0540  12.792  119.49 -10.671  15.587  17.089  18.864  124.72  12.799  2.1467  2.1467  0.0540  12.882  72.466  0.3815  18.235  18.073  19.012  2.1716  81.226  0.3535 
   633.000 -52.759  18.927  18.172  15.102  12.820  74.832  0.3840  0.3090  0.0500  12.785  118.72 -10.759  15.102  18.172  18.927  119.66  12.792  2.1402  2.1402  0.0500  12.820  74.832  0.3751  17.632  19.273  19.066  2.1646  83.747  0.3464 
   633.500 -52.883  19.018  18.740  14.767  12.883  76.883  0.3760  0.3090  0.0470  12.774  120.97 -10.883  14.767  18.740  19.018  118.75  12.785  2.1402  2.1402  0.0470  12.883  76.883  0.3774  17.266  19.931  19.169  2.1650  86.179  0.3490 
   634.000 -53.212  19.118  19.030  14.627  12.926  78.419  0.3730  0.3060  0.0490  12.763  128.55 -11.212  14.627  19.030  19.118  120.87  12.774  2.1451  2.1451  0.0490  12.926  78.419  0.3907  17.120  20.272  19.278  2.1701  87.995  0.3638 
   634.500 -53.672  19.219  19.325  15.195  12.989  79.955  0.3870  0.3060  0.0500  12.772  138.92 -11.672  15.195  19.325  19.219  128.20  12.764  2.1451  2.1451  0.0500  12.989  79.955  0.3974  17.823  20.626  19.392  2.1705  89.860  0.3712 
   635.000 -54.132  19.811  19.992  18.477  12.866  82.400  0.3990  0.3230  0.0330  12.781  133.67 -12.132  18.477  19.992  19.811  138.39  12.772  2.1171  2.1171  0.0330  12.866  82.400  0.3900  21.574  21.347  19.972  2.1418  92.323  0.3629 
   635.500 -55.298  20.170  20.319  22.064  12.832  83.498  0.3940  0.3360  0.0290  12.839  129.44 -13.298  22.064  20.319  20.170  133.97  12.780  2.0956  2.0956  0.0290  12.832  83.498  0.3779  25.682  21.709  20.330  2.1202  93.474  0.3496 
   636.000 -55.463  20.498  19.901  23.346  12.797  82.696  0.3810  0.3350  0.0510  12.830  125.73 -13.463  23.346  19.901  20.498  129.70  12.836  2.0972  2.0972  0.0510  12.797  82.696  0.3710  27.129  21.222  20.656  2.1216  92.494  0.3419 
   636.500 -55.438  20.983  19.752  23.769  12.828  75.950  0.3710  0.3290  0.0720  12.822  126.17 -13.438  23.769  19.752  20.983  125.97  12.831  2.1072  2.1072  0.0720  12.828  75.950  0.3728  27.638  21.062  21.155  2.1317  85.015  0.3440 
   637.000 -55.406  21.205  19.744  23.367  12.856  71.741  0.3710  0.3260  0.0760  12.826  130.55 -13.406  23.367  19.744  21.205  126.14  12.823  2.1121  2.1121  0.0760  12.856  71.741  0.3779  27.197  21.062  21.387  2.1368  80.361  0.3496 
   637.500 -55.373  21.079  20.323  22.643  12.843  72.919  0.3770  0.3290  0.0770  12.831  126.86 -13.373  22.643  20.323  21.079  130.23  12.826  2.1072  2.1072  0.0770  12.843  72.919  0.3800  26.355  21.717  21.256  2.1318  81.653  0.3519 
   638.000 -55.459  21.109  21.264  22.101  12.831  74.812  0.3800  0.3290  0.0220  12.836  125.53 -13.459  22.101  21.264  21.109  127.14  12.831  2.1072  2.1072  0.0220  12.831  74.812  0.3797  25.723  22.791  21.284  2.1317  83.748  0.3515 
   638.500 -55.545  21.372  21.651  21.845  12.850  79.159  0.3800  0.3080  0.0100  12.841  128.80 -13.545  21.845  21.651  21.372  125.64  12.836  2.1418  2.1418  0.0100  12.850  79.159  0.3769  25.442  23.243  21.556  2.1665  88.656  0.3485 
   639.000 -55.732  21.719  22.244  21.957  12.949  81.210  0.3790  0.2720  0.0120  12.854  135.23 -13.732  21.957  22.244  21.719  128.52  12.841  2.2012  2.2012  0.0120  12.949  81.210  0.3640  25.641  23.969  21.931  2.2264  91.180  0.3342 
   639.500 -55.919  22.071  22.774  22.478  13.000  81.755  0.3720  0.2400  0.0300  12.866  140.48 -13.919  22.478  22.774  22.071  134.64  12.853  2.2540  2.2540  0.0300  13.000  81.755  0.3423  26.278  24.607  22.302  2.2794  91.908  0.3073 
   640.000 -56.371  22.470  23.317  23.393  13.015  80.478  0.3450  0.2390  0.0490  12.878  138.36 -14.371  23.393  23.317  22.470  139.98  12.865  2.2557  2.2557  0.0490  13.015  80.478  0.3342  27.346  25.249  22.713  2.2811  90.506  0.2985 
   640.500 -56.695  22.916  25.120  25.253  12.999  79.200  0.3360  0.2570  0.0540  12.877  135.44 -14.695  25.253  25.120  22.916  138.57  12.877  2.2260  2.2260  0.0540  12.999  79.200  0.3297  29.479  27.368  23.165  2.2514  89.034  0.2936 
   641.000 -57.058  23.165  26.866  26.578  12.971  77.209  0.3300  0.2790  0.0570  12.868  131.69 -15.058  26.578  26.866  23.165  135.75  12.877  2.1897  2.1897  0.0570  12.971  77.209  0.3310  30.982  29.437  23.412  2.2149  86.735  0.2951 
   641.500 -57.421  23.418  27.383  28.953  12.942  75.218  0.3290  0.2890  0.0540  12.851  129.70 -15.421  28.953  27.383  23.418  132.09  12.869  2.1732  2.1732  0.0540  12.942  75.218  0.3392  33.688  30.040  23.663  2.1983  84.437  0.3039 
   642.000 -58.346  23.885  27.910  29.295  12.870  73.464  0.3360  0.2900  0.0560  12.834  130.82 -16.346  29.295  27.910  23.885  129.93  12.853  2.1715  2.1715  0.0560  12.870  73.464  0.3516  34.014  30.627  24.120  2.1963  82.320  0.3206 
   642.500 -59.070  24.361  28.928  29.641  12.803  71.710  0.3470  0.2910  0.0580  12.781  135.02 -17.070  29.641  28.928  24.361  130.69  12.836  2.1699  2.1699  0.0580  12.803  71.710  0.3673  34.347  31.809  24.587  2.1943  80.218  0.3379 
   643.000 -59.634  24.977  29.509  29.997  12.747  71.107  0.3630  0.2960  0.0590  12.772  136.14 -17.634  29.997  29.509  24.977  134.51  12.787  2.1616  2.1616  0.0590  12.747  71.107  0.3811  34.700  32.471  25.198  2.1857  79.431  0.3531 
   643.500 -59.801  25.471  30.706  30.541  12.762  70.504  0.3780  0.3050  0.0500  12.763  136.11 -17.801  30.541  30.706  25.471  136.00  12.773  2.1467  2.1467  0.0500  12.762  70.504  0.3904  35.337  33.938  25.705  2.1709  78.788  0.3634 
   644.000 -59.773  25.742  31.379  31.722  12.817  69.541  0.3890  0.3130  0.0410  12.742  135.62 -17.773  31.722  31.379  25.742  136.11  12.764  2.1336  2.1336  0.0410  12.817  69.541  0.3932  36.741  34.810  25.999  2.1580  77.820  0.3664 
   644.500 -59.678  25.920  31.923  33.077  12.872  72.067  0.3940  0.3190  0.0370  12.757  133.81 -17.678  33.077  31.923  25.920  135.68  12.745  2.1237  2.1237  0.0370  12.872  72.067  0.3893  38.349  35.530  26.198  2.1484  80.758  0.3622 
   645.000 -59.584  26.006  32.477  34.304  12.955  76.018  0.3910  0.3190  0.0410  12.774  131.01 -17.584  34.304  32.477  26.006  134.06  12.755  2.1237  2.1237  0.0410  12.955  76.018  0.3814  39.845  36.295  26.313  2.1488  85.363  0.3534 
   645.500 -58.971  25.805  32.452  36.423  12.958  77.751  0.3850  0.3090  0.0430  12.791  125.55 -16.971  36.423  32.452  25.805  131.41  12.772  2.1402  2.1402  0.0430  12.958  77.751  0.3645  42.278  36.267  26.108  2.1653  87.315  0.3348 
   646.000 -58.777  25.587  30.701  38.253  12.962  79.168  0.3720  0.2860  0.0360  12.826  121.83 -16.777  38.253  30.701  25.587  126.35  12.788  2.1781  2.1781  0.0360  12.962  79.168  0.3356  44.380  34.097  25.886  2.2033  88.916  0.3000 
   646.500 -58.430  25.371  29.046  39.450  12.977  77.414  0.3450  0.2530  0.0240  12.845  101.67 -16.430  39.450  29.046  25.371  122.40  12.821  2.2326  2.2326  0.0240  12.977  77.414  0.3047  45.770  32.079  25.670  2.2578  86.978  0.2669 
   647.000 -58.083  24.847  27.584  39.149  13.016  75.939  0.3110  0.2320  0.0200  12.864  95.072 -16.083  39.149  27.584  24.847  104.82  12.842  2.2672  2.2672  0.0200  13.016  75.939  0.2872  45.474  30.330  25.145  2.2927  85.404  0.2487 
   647.500 -57.658  24.473  25.906  36.161  13.071  74.464  0.2880  0.2140  0.0240  12.839  96.329 -15.658  36.161  25.906  24.473  96.133  12.861  2.2969  2.2969  0.0240  13.071  74.464  0.2885  42.108  28.345  24.778  2.3227  83.859  0.2501 
