~Version Information
VERS.                     2.0: CWLS log ASCII Standard Version 2.00
WRAP.                     YES: Multiple lines per depth step
~Well Information Block
#MNEM.UNIT                               Data Type  Information
#---------                               ---------  -----------
STRT.FT                                   805.0000:
STOP.FT                                  5010.0000:
STEP.FT                                     0.5000:
NULL.                 -999.25                     :
COMP.                                             :COMPANY            
WELL.     SANTIAGO C 55-28                        :WELL               
FLD .                                             :FIELD              
CTRY.                                             :COUNTRY            
STAT.                                             :STATE              
LOC .                                             :LOCATION           
UWI .                                             :UNIQUE WELL ID     
SRVC.                                             :Service company    
DATE.                                             :LOG DATE           
~Curve Information
#MNEM.UNIT           API CODE  Curve Description
#---------           --------  -----------------
DEPT.FT                      :   1 DEPTH
CALI.IN                      :   2
GR  .GAPI                    :   3
NPHI.PU-S                    :   4
DPHI.PU-S                    :   5
DRHO.G/C3                    :   6
SP  .MV                      :   7
ILD .OHMM                    :   8
ILM .OHMM                    :   9
SFLU.OHMM                    :  10
LLD .OHMM                    :  11
LLS .OHMM                    :  12
MSFL.OHMM                    :  13
DT  .US/F                    :  14
SPHI.                        :  15
KSCI.                        :  16
PSCI.                        :  17
OSCI.                        :  18
WSCI.                        :  19
KWCI.                        :  20
PWCI.                        :  21
OWCI.                        :  22
WWCI.                        :  23
SBL .MV                      :  24
RS  .OHMM                    :  25
RM  .OHMM                    :  26
RD  .OHMM                    :  27
DTS .US/F                    :  28
RHOB.G/C3                    :  29
ROBS.G/C3                    :  30
DROS.G/C3                    :  31
CALS.IN                      :  32
GRS .GAPI                    :  33
NPHS.PU-S                    :  34
SFLU.OHMM                    :  35
ILMC.OHMM                    :  36
ILDC.OHMM                    :  37
ROBC.G/C3                    :  38
GRC .GAPI                    :  39
NPHC.PU-S                    :  40
~A
# ...
  2593.000 
  12.104  67.030  0.3920  0.2410  0.0130 -21.195  4.7590  4.6800  5.2170 
 -999.25 -999.25 -999.25  120.06 -999.25 -999.25 -999.25 -999.25 -999.25 
 -999.25 -999.25 -999.25 -999.25 -2.7479  5.2170  4.6800  4.7590  111.61 
  2.2524  2.2689  0.0570  9.9020  80.794  0.3936  5.2170  4.6800  4.7590 
  2.2756  84.459  0.3698 
  2593.500 
  11.734  70.693  0.3920  0.2160  0.0200 -21.084  4.5010  4.5100  4.5600 
 -999.25 -999.25 -999.25  123.36 -999.25 -999.25 -999.25 -999.25 -999.25 
 -999.25 -999.25 -999.25 -999.25 -2.6417  4.5600  4.5100  4.5010  115.40 
  2.2936  2.2722  0.0680  9.8970  80.423  0.3843  4.5600  4.5100  4.5010 
  2.2788  84.056  0.3594 
  2594.000 
  11.309  73.940  0.4000  0.2100  0.0260 -21.093  4.2980  4.2890  4.1570 
 -999.25 -999.25 -999.25  125.64 -999.25 -999.25 -999.25 -999.25 -999.25 
 -999.25 -999.25 -999.25 -999.25 -2.6555  4.1570  4.2890  4.2980  116.61 
  2.3035  2.2738  0.0700  9.9150  81.705  0.3829  4.1570  4.2890  4.2980 
  2.2806  85.448  0.3579 
  2594.500 
  10.488  76.060  0.3990  0.2190  0.0320 -20.944  4.0800  4.1560  3.9690 
 -999.25 -999.25 -999.25  126.50 -999.25 -999.25 -999.25 -999.25 -999.25 
 -999.25 -999.25 -999.25 -999.25 -2.5113  3.9690  4.1560  4.0800  117.74 
  2.2887  2.2589  0.0600  9.9460  84.479  0.3831  3.9690  4.1560  4.0800 
  2.2660  88.441  0.3581 
  2595.000 
  9.9910  78.413  0.3860  0.2290  0.0420 -20.955  3.9680  4.0190  4.0040 
 -999.25 -999.25 -999.25  128.52 -999.25 -999.25 -999.25 -999.25 -999.25 
 -999.25 -999.25 -999.25 -999.25 -2.5271  4.0040  4.0190  3.9680  119.73 
  2.2722  2.2177  0.0530  9.9880  86.540  0.3786  4.0040  4.0190  3.9680 
  2.2250  90.726  0.3531 
  2595.500 
  9.9020  79.940  0.3820  0.2310  0.0570 -21.003  3.8230  3.9010  3.9080 
 -999.25 -999.25 -999.25  129.92 -999.25 -999.25 -999.25 -999.25 -999.25 
 -999.25 -999.25 -999.25 -999.25 -2.5799  3.9080  3.9010  3.8230  121.29 
  2.2689  2.1682  0.0450  10.066  84.967  0.3730  3.9080  3.9010  3.8230 
  2.1761  89.307  0.3469 
  2596.000 
  9.8970  81.227  0.3840  0.2290  0.0680 -20.973  3.7800  3.7730  3.9210 
 -999.25 -999.25 -999.25  126.75 -999.25 -999.25 -999.25 -999.25 -999.25 
 -999.25 -999.25 -999.25 -999.25 -2.5547  3.9210  3.7730  3.7800  123.18 
  2.2722  2.1418  0.0250  10.421  82.908  0.3805  3.9210  3.7730  3.7800 
  2.1521  88.153  0.3554 
  2596.500 
  9.9150  80.017  0.3820  0.2280  0.0700 -20.625  3.6080  3.6420  3.7640 
 -999.25 -999.25 -999.25  123.97 -999.25 -999.25 -999.25 -999.25 -999.25 
 -999.25 -999.25 -999.25 -999.25 -2.2115  3.7640  3.6420  3.6080  122.36 
  2.2738  2.1633  0.0160  10.257  85.943  0.3912  3.7640  3.6420  3.6080 
  2.1724  90.899  0.3672 
  2597.000 
  9.9460  82.552  0.3750  0.2370  0.0600 -20.315  3.5220  3.5480  3.4960 
 -999.25 -999.25 -999.25  119.64 -999.25 -999.25 -999.25 -999.25 -999.25 
 -999.25 -999.25 -999.25 -999.25 -1.9063  3.4960  3.5480  3.5220  118.70 
  2.2589  2.1864  0.0160  10.034  90.617  0.3873  3.4960  3.5480  3.5220 
  2.1940  95.145  0.3628 
  2597.500 
  9.9880  85.442  0.3710  0.2620  0.0530 -20.325  3.4310  3.4370  3.5140 
 -999.25 -999.25 -999.25  115.89 -999.25 -999.25 -999.25 -999.25 -999.25 
 -999.25 -999.25 -999.25 -999.25 -1.9212  3.5140  3.4370  3.4310  117.14 
  2.2177  2.1880  0.0330  9.9060  92.921  0.3771  3.5140  3.4370  3.4310 
  2.1947  97.149  0.3515 
  2598.000 
  10.066  87.087  0.3890  0.2920  0.0450 -21.292  3.3730  3.3800  3.5710 
 -999.25 -999.25 -999.25  114.42 -999.25 -999.25 -999.25 -999.25 -999.25 
 -999.25 -999.25 -999.25 -999.25 -2.8930  3.5710  3.3800  3.3730  116.42 
  2.1682  2.0659  0.0370  10.249  93.491  0.3748  3.5710  3.3800  3.3730 
  2.0750  98.857  0.3490 
  2598.500 
  10.421  83.917  0.3930  0.3080  0.0250 -21.940  3.3540  3.3230  3.6300 
 -999.25 -999.25 -999.25  114.82 -999.25 -999.25 -999.25 -999.25 -999.25 
 -999.25 -999.25 -999.25 -999.25 -3.5458  3.6300  3.3230  3.3540  116.45 
  2.1418  2.0412  0.0270  10.486  93.831  0.4053  3.6300  3.3230  3.3540 
  2.0519  99.974  0.3831 
  2599.000 
  10.257  82.410  0.3830  0.2950  0.0160 -22.270  3.3280  3.2670  3.4150 
 -999.25 -999.25 -999.25  115.42 -999.25 -999.25 -999.25 -999.25 -999.25 
 -999.25 -999.25 -999.25 -999.25 -3.8806  3.4150  3.2670  3.3280  118.48 
  2.1633  2.0412  0.0220  10.647  95.192  0.4506  3.4150  3.2670  3.3280 
  2.0529  101.94  0.4336 
  2599.500 
  10.034  87.678  0.3730  0.2810  0.0160 -22.319  3.3260  3.2240  3.0340 
 -999.25 -999.25 -999.25  114.75 -999.25 -999.25 -999.25 -999.25 -999.25 
 -999.25 -999.25 -999.25 -999.25 -3.9344  3.0340  3.2240  3.3260  121.83 
  2.1864  2.0890  0.0240  10.479  96.897  0.4825  3.0340  3.2240  3.3260 
  2.0997  103.22  0.4690 
  2600.000 
  9.9060  92.055  0.3760  0.2800  0.0330 -21.692  3.3250  3.1990  2.7970 
 -999.25 -999.25 -999.25  114.61 -999.25 -999.25 -999.25 -999.25 -999.25 
 -999.25 -999.25 -999.25 -999.25 -3.3122  2.7970  3.1990  3.3250  124.61 
  2.1880  2.1121  0.0320  10.335  98.183  0.4964  2.7970  3.1990  3.3250 
  2.1218  104.11  0.4845 
  2600.500 
  10.249  93.343  0.4230  0.3540  0.0370 -21.145  3.3540  3.2030  2.8530 
 -999.25 -999.25 -999.25  113.51 -999.25 -999.25 -999.25 -999.25 -999.25 
 -999.25 -999.25 -999.25 -999.25 -2.7700  2.8530  3.2030  3.3540  126.12 
  2.0659  2.1253  0.0350  10.211  98.690  0.5130  2.8530  3.2030  3.3540 
  2.1342  104.23  0.5028 
  2601.000 
  10.486  93.563  0.4660  0.3690  0.0270 -20.759  3.3830  3.2310  2.8780 
 -999.25 -999.25 -999.25  113.26 -999.25 -999.25 -999.25 -999.25 -999.25 
 -999.25 -999.25 -999.25 -999.25 -2.3888  2.8780  3.2310  3.3830  127.67 
  2.0412  2.1418  0.0280  10.163  98.062  0.5298  2.8780  3.2310  3.3830 
  2.1503  103.40  0.5215 
  2601.500 
  10.647  93.961  0.4910  0.3690  0.0220 -20.691  3.4500  3.3020  2.7870 
 -999.25 -999.25 -999.25  113.71 -999.25 -999.25 -999.25 -999.25 -999.25 
 -999.25 -999.25 -999.25 -999.25 -2.3256  2.7870  3.3020  3.4500  129.35 
  2.0412  2.1913  0.0100  10.181  97.354  0.5259  2.7870  3.3020  3.4500 
  2.1999  102.71  0.5172 
  2602.000 
  10.479  95.784  0.4990  0.3400  0.0240 -20.702  3.5190  3.3920  2.7100 
 -999.25 -999.25 -999.25  114.97 -999.25 -999.25 -999.25 -999.25 -999.25 
 -999.25 -999.25 -999.25 -999.25 -2.3414  2.7100  3.3920  3.5190  127.98 
  2.0890  2.2243  0.0030  10.200  98.014  0.4799  2.7100  3.3920  3.5190 
  2.2331  103.47  0.4660 
  2602.500 
  10.335  97.430  0.5190  0.3260  0.0320 -21.233  3.6290  3.4980  2.7240 
 -999.25 -999.25 -999.25  116.58 -999.25 -999.25 -999.25 -999.25 -999.25 
 -999.25 -999.25 -999.25 -999.25 -2.8772  2.7240  3.4980  3.6290  125.02 
  2.1121  2.2639  0.0010  10.214  98.597  0.4342  2.7240  3.4980  3.6290 
  2.2728  104.14  0.4151 
  2603.000 
  10.211  98.542  0.5340  0.3180  0.0350 -22.161  3.7150  3.6340  2.8090 
 -999.25 -999.25 -999.25  118.39 -999.25 -999.25 -999.25 -999.25 -999.25 
 -999.25 -999.25 -999.25 -999.25 -3.8100  2.8090  3.6340  3.7150  121.21 
  2.1253  2.2821 -0.0020  10.197  95.466  0.3940  2.8090  3.6340  3.7150 
  2.2908  100.77  0.3704 
  2603.500 
  10.163  98.760  0.5230  0.3080  0.0280 -23.689  3.8800  3.8170  2.9180 
 -999.25 -999.25 -999.25  119.95 -999.25 -999.25 -999.25 -999.25 -999.25 
 -999.25 -999.25 -999.25 -999.25 -5.3428  2.9180  3.8170  3.8800  117.19 
  2.1418  2.2887 -0.0050  9.9940  89.976  0.3356  2.9180  3.8170  3.8800 
  2.2960  94.347  0.3023 
  2604.000 
  10.181  97.732  0.4660  0.2780  0.0100 -25.094  4.0610  4.0380  3.1500 
 -999.25 -999.25 -999.25  120.63 -999.25 -999.25 -999.25 -999.25 -999.25 
 -999.25 -999.25 -999.25 -999.25 -6.7527  3.1500  4.0380  4.0610  114.91 
  2.1913  2.2920 -0.0080  9.8420  84.820  0.3074  3.1500  4.0380  4.0610 
  2.2982  88.489  0.2718 
  2604.500 
  10.200  97.176  0.4250  0.2580  0.0030 -30.451  4.2490  4.2650  4.2500 
 -999.25 -999.25 -999.25  119.51 -999.25 -999.25 -999.25 -999.25 -999.25 
 -999.25 -999.25 -999.25 -999.25 -12.114  4.2500  4.2650  4.2490  114.69 
  2.2243  2.2953 -0.0100  9.8290  80.840  0.3014  4.2500  4.2650  4.2490 
  2.3014  84.299  0.2655 
