~Version Information
VERS.                     2.0: CWLS log ASCII Standard Version 2.00
WRAP.                     YES: Multiple lines per depth step
~Well Information Block
#MNEM.UNIT                               Data Type  Information
#---------                               ---------  -----------
STRT.FT                                   100.0000:
STOP.FT                                  3000.0000:
STEP.FT                                     0.5000:
NULL.                 -999.25                     :
COMP.                                             :COMPANY            
WELL.     LOS LOBOS 51X-30                        :WELL               
FLD .                                             :FIELD              
CTRY.                                             :COUNTRY            
STAT.                                             :STATE              
LOC .                                             :LOCATION           
UWI .                                             :UNIQUE WELL ID     
SRVC.                                             :Service company    
DATE.                                             :LOG DATE           
~Curve Information
#MNEM.UNIT           API CODE  Curve Description
#---------           --------  -----------------
DEPT.FT                      :   1 DEPTH
GR  .GAPI                    :   2
CALI.IN                      :   3
DPHI.PU-S                    :   4
NPHI.PU-S                    :   5
DRHO.G/C3                    :   6
DT  .US/F                    :   7
ROP .                        :   8
GAS .                        :   9
CGAS.                        :  10
C1R .                        :  11
C2R .                        :  12
C3R .                        :  13
SP  .MV                      :  14
ILD .OHMM                    :  15
ILM .OHMM                    :  16
SFLU.OHMM                    :  17
GRS .GAPI                    :  18
CALS.IN                      :  19
ROBS.G/C3                    :  20
NPHS.PU-S                    :  21
DROS.G/C3                    :  22
DTS .US/F                    :  23
SBL .MV                      :  24
 RD .OHMM                    :  25
RM  .OHMM                    :  26
RS  .OHMM                    :  27
SFLU.OHMM                    :  28
ILMC.OHMM                    :  29
ILDC.OHMM                    :  30
ROBC.G/C3                    :  31
GRC .GAPI                    :  32
NPHC.PU-S                    :  33
~A
# ...
  2434.500 
  117.18  7.6520  0.5510  0.5000  0.0300  120.46  118.58  11.553  5.1471 
  5.3849 -999.25 -999.25 -999.25  2.0860  2.0550 -999.25  115.50  7.3367 
  1.6996  0.5805 -0.0040  120.50 -999.25  2.0860  2.0550 -999.25 -999.25 
  2.0550  2.0860  1.6996  109.15  0.5821 
  2435.000 
  116.31  7.6800  0.5710  0.5190  0.0130  122.76  118.53  11.608  5.2138 
  5.1209 -999.25 -999.25 -999.25  2.1420  2.0920 -999.25  114.22  7.1527 
  1.7190  0.5816 -0.0064  122.58 -999.25  2.1420  2.0920 -999.25 -999.25 
  2.0920  2.1420  1.7190  107.10  0.5831 
  2435.500 
  116.24  7.5420  0.5810  0.5680  0.0010  126.88  118.48  11.715  5.3264 
  5.1235 -999.25 -999.25 -999.25  2.1710  2.1320 -999.25  111.95  7.0931 
  1.7392  0.5633 -0.0065  126.49 -999.25  2.1710  2.1320 -999.25 -999.25 
  2.1320  2.1710  1.7392  104.70  0.5627 
  2436.000 
  115.05  7.2130  0.5730  0.5880 -0.0070  128.77  79.328  11.808  5.4351 
  5.1270 -999.25 -999.25 -999.25  2.1930  2.1410 -999.25  110.15  7.0749 
  1.7508  0.5479 -0.0075  128.56 -999.25  2.1930  2.1410 -999.25 -999.25 
  2.1410  2.1930  1.7508  102.93  0.5454 
  2436.500 
  113.63  7.1100  0.5580  0.5770 -0.0060  130.75  79.039  11.846  5.5060 
  5.1305 -999.25 -999.25 -999.25  2.2100  2.1550 -999.25  110.13  7.0691 
  1.7548  0.5393 -0.0080  130.50 -999.25  2.2100  2.1550 -999.25 -999.25 
  2.1550  2.2100  1.7548  102.89  0.5357 
  2437.000 
  110.54  7.0790  0.5470  0.5520 -0.0070  130.39  78.751  11.885  5.5769 
  5.1340 -999.25 -999.25 -999.25  2.2200  2.1370 -999.25  112.32  7.0674 
  1.7564  0.5284 -0.0076  130.44 -999.25  2.2200  2.1370 -999.25 -999.25 
  2.1370  2.2200  1.7564  104.93  0.5235 
  2437.500 
  109.76  7.0710  0.5430  0.5440 -0.0080  129.32  78.463  11.943  5.6628 
  5.1376 -999.25 -999.25 -999.25  2.2260  2.1580 -999.25  116.26  7.0727 
  1.7580  0.5136 -0.0058  129.49 -999.25  2.2260  2.1580 -999.25 -999.25 
  2.1580  2.2260  1.7580  108.63  0.5068 
  2438.000 
  110.55  7.0670  0.5420  0.5340 -0.0080  129.67  78.174  11.942  5.6611 
  5.1411 -999.25 -999.25 -999.25  2.2280  2.1880 -999.25  118.98  7.0898 
  1.7607  0.4936 -0.0029  129.61 -999.25  2.2280  2.1880 -999.25 -999.25 
  2.1880  2.2280  1.7607  111.26  0.4844 
  2438.500 
  114.68  7.0680  0.5410  0.5210 -0.0070  132.17  77.886  11.939  5.6589 
  5.1446 -999.25 -999.25 -999.25  2.2170  2.2090 -999.25  119.86  7.1464 
  1.7624  0.4793  0.0006  131.69 -999.25  2.2170  2.2090 -999.25 -999.25 
  2.2090  2.2170  1.7624  112.36  0.4684 
  2439.000 
  118.72  7.0800  0.5400  0.5020 -0.0040  133.54  77.598  11.987  5.6568 
  5.1481 -999.25 -999.25 -999.25  2.1990  2.1320 -999.25  122.03  7.2570 
  1.7585  0.4858  0.0048  133.25 -999.25  2.1990  2.1320 -999.25 -999.25 
  2.1320  2.1990  1.7585  114.94  0.4758 
  2439.500 
  119.44  7.1080  0.5370  0.4780 -0.0010  133.06  33.740  12.049  5.6433 
  5.1516 -999.25 -999.25 -999.25  2.1640  2.0790 -999.25  126.17  7.3410 
  1.7570  0.5075  0.0075  133.16 -999.25  2.1640  2.0790 -999.25 -999.25 
  2.0790  2.1640  1.7570  119.26  0.5002 
  2440.000 
  120.79  7.2310  0.5400  0.4820  0.0040  133.00  33.447  12.113  5.5793 
  5.4203 -999.25 -999.25 -999.25  2.1310  2.0540 -999.25  130.10  7.3908 
  1.7560  0.5526  0.0092  133.01 -999.25  2.1310  2.0540 -999.25 -999.25 
  2.0540  2.1310  1.7560  123.23  0.5509 
  2440.500 
  125.31  7.3260  0.5410  0.4960  0.0070  133.95  33.617  12.184  5.4753 
  5.4202 -999.25 -999.25 -999.25  2.1130  2.0710 -999.25  135.51  7.3965 
  1.7576  0.5885  0.0097  133.70 -999.25  2.1130  2.0710 -999.25 -999.25 
  2.0710  2.1130  1.7576  128.39  0.5911 
  2441.000 
  128.96  7.3900  0.5420  0.5450  0.0090  135.13  72.840  12.251  5.3412 
  5.4200 -999.25 -999.25 -999.25  2.1030  2.0310 -999.25  139.69  7.4165 
  1.7586  0.6149  0.0076  134.81 -999.25  2.1030  2.0310 -999.25 -999.25 
  2.0310  2.1030  1.7586  132.46  0.6207 
  2441.500 
  134.75  7.3940  0.5410  0.5840  0.0100  136.04  72.982  12.249  5.1667 
  5.4198 -999.25 -999.25 -999.25  2.0970  1.9960 -999.25  140.45  7.4772 
  1.7553  0.6271  0.0048  135.78 -999.25  2.0970  1.9960 -999.25 -999.25 
  1.9960  2.0970  1.7553  133.52  0.6345 
  2442.000 
  139.59  7.4100  0.5400  0.6130  0.0080  137.73  73.124  12.247  4.9952 
  5.4195 -999.25 -999.25 -999.25  2.0530  1.9690 -999.25  140.26  7.6308 
  1.7508  0.6034  0.0029  137.21 -999.25  2.0530  1.9690 -999.25 -999.25 
  1.9690  2.0530  1.7508  134.19  0.6080 
  2442.500 
  140.47  7.4650  0.5420  0.6290  0.0050  136.91  73.265  12.244  4.8284 
  5.4193 -999.25 -999.25 -999.25  2.0030  1.9810 -999.25  140.87  7.8902 
  1.7508  0.5650  0.0000  137.18 -999.25  2.0030  1.9810 -999.25 -999.25 
  1.9810  2.0030  1.7508  136.21  0.5651 
  2443.000 
  140.23  7.6200  0.5450  0.6050  0.0030  135.38  73.407  12.211  4.7191 
  5.4191 -999.25 -999.25 -999.25  1.9940  1.9830 -999.25  142.32  8.0574 
  1.7555  0.5477  0.0000  135.90 -999.25  1.9940  1.9830 -999.25 -999.25 
  1.9830  1.9940  1.7555  138.53  0.5458 
  2443.500 
  140.87  7.8900  0.5450  0.5650  0.0000  133.46  73.549  12.160  4.6097 
  5.4189 -999.25 -999.25 -999.25  2.0240  2.0210 -999.25  145.38  7.8231 
  1.7587  0.5627  0.0055  134.14 -999.25  2.0240  2.0210 -999.25 -999.25 
  2.0210  2.0240  1.7587  140.19  0.5624 
  2444.000 
  142.38  8.0640  0.5420  0.5470  0.0000  131.23  73.158  12.157  4.4945 
  5.4187 -999.25 -999.25 -999.25  2.0850  2.0710 -999.25  151.03  7.6067 
  1.7634  0.5958  0.0042  132.06 -999.25  2.0850  2.0710 -999.25 -999.25 
  2.0710  2.0850  1.7634  144.36  0.5995 
  2444.500 
  145.63  7.8030  0.5400  0.5640  0.0060  130.12  66.934  12.155  4.3030 
  5.4185 -999.25 -999.25 -999.25  2.1180  2.1220 -999.25  162.32  7.6283 
  1.7751  0.6076 -0.0028  130.55 -999.25  2.1180  2.1220 -999.25 -999.25 
  2.1220  2.1180  1.7751  155.29  0.6127 
  2445.000 
  151.74  7.5810  0.5370  0.6000  0.0040  130.17  66.979  12.153  4.1244 
  5.4183 -999.25 -999.25 -999.25  2.1990  2.1590 -999.25  177.04  7.6023 
  1.8264  0.6050 -0.0072  130.15 -999.25  2.1990  2.1590 -999.25 -999.25 
  2.1590  2.1990  1.8264  169.19  0.6097 
  2445.500 
  164.26  7.6370  0.5290  0.6090 -0.0040  131.70  67.069  12.151  3.9676 
  5.1469 -999.25 -999.25 -999.25  2.2210  2.1610 -999.25  197.26  7.5426 
  1.8648  0.5856  0.0004  131.06 -999.25  2.2210  2.1610 -999.25 -999.25 
  2.1610  2.2210  1.8648  188.04  0.5879 
  2446.000 
  180.12  7.5940  0.4920  0.6040 -0.0080  134.08  67.159  12.141  3.8108 
  5.1495 -999.25 -999.25 -999.25  2.2150  2.1310 -999.25  200.62  7.3508 
  1.9137  0.5582  0.0190  133.04 -999.25  2.2150  2.1310 -999.25 -999.25 
  2.1310  2.2150  1.9137  189.71  0.5570 
  2446.500 
  202.47  7.5270  0.4710  0.5800  0.0030  139.38  67.249  12.081  3.6922 
  5.1522 -999.25 -999.25 -999.25  2.1760  2.1250 -999.25  196.55  7.1106 
  1.9528  0.5562  0.0381  136.97 -999.25  2.1760  2.1250 -999.25 -999.25 
  2.1250  2.1760  1.9528  183.96  0.5547 
  2447.000 
  199.93  7.2850  0.4370  0.5500  0.0250  141.22  67.338  12.064  3.5852 
  5.1548 -999.25 -999.25 -999.25  2.1230  2.0960 -999.25  185.55  7.0164 
  1.9003  0.5662  0.0395  140.35 -999.25  2.1230  2.0960 -999.25 -999.25 
  2.0960  2.1230  1.9003  172.95  0.5658 
  2447.500 
  195.03  7.0320  0.4160  0.5590  0.0440  141.00  67.428  12.062  3.4837 
  5.1574 -999.25 -999.25 -999.25  2.0710  2.0370 -999.25  167.90  7.0037 
  1.8400  0.5682  0.0248  141.11 -999.25  2.0710  2.0370 -999.25 -999.25 
  2.0370  2.0710  1.8400  156.42  0.5680 
  2448.000 
  180.45  7.0080  0.4750  0.5700  0.0370  139.67  67.518  12.018  3.3888 
  5.1600 -999.25 -999.25 -999.25  2.0270  1.9800 -999.25  155.31  6.9930 
  1.7865  0.5618  0.0107  140.34 -999.25  2.0270  1.9800 -999.25 -999.25 
  1.9800  2.0270  1.7865  144.62  0.5609 
  2448.500 
  159.93  7.0010  0.5010  0.5670  0.0170  137.98  67.607  11.964  3.2938 
  5.1626 -999.25 -999.25 -999.25  1.9700  1.9170 -999.25  149.45  6.9795 
  1.7555  0.5521  0.0028  138.85 -999.25  1.9700  1.9170 -999.25 -999.25 
  1.9170  1.9700  1.7555  139.08  0.5500 
