~Version Information
VERS.                     2.0: CWLS log ASCII Standard Version 2.00
WRAP.                     YES: Multiple lines per depth step
~Well Information Block
#MNEM.UNIT                               Data Type  Information
#---------                               ---------  -----------
STRT.FT                                   120.0000:
STOP.FT                                  3000.0000:
STEP.FT                                     0.5000:
NULL.                 -999.25                     :
COMP.                                             :COMPANY            
WELL.     LOS LOBOS 62X-30                        :WELL               
FLD .                                             :FIELD              
CTRY.                                             :COUNTRY            
STAT.                                             :STATE              
LOC .                                             :LOCATION           
UWI .                                             :UNIQUE WELL ID     
SRVC.                                             :Service company    
DATE.                                             :LOG DATE           
~Curve Information
#MNEM.UNIT           API CODE  Curve Description
#---------           --------  -----------------
DEPT.FT                      :   1 DEPTH
CALI.IN                      :   2
GR  .GAPI                    :   3
NPHI.PU-S                    :   4
DPHI.PU-S                    :   5
DRHO.G/C3                    :   6
SP  .MV                      :   7
ILD .OHMM                    :   8
ILM .OHMM                    :   9
LL8U.OHMM                    :  10
DT  .US/F                    :  11
ROP .                        :  12
GASR.                        :  13
C1R .                        :  14
C2R .                        :  15
C3R .                        :  16
C4R .                        :  17
KSCI.                        :  18
PSCI.                        :  19
OSCI.                        :  20
WSCI.                        :  21
KWCI.                        :  22
PWCI.                        :  23
OWCI.                        :  24
WWCI.                        :  25
ROBS.G/C3                    :  26
NPHS.PU-S                    :  27
PWCL.                        :  28
OWCL.                        :  29
WWCL.                        :  30
KWCL.                        :  31
VCLD.                        :  32
VCLW.                        :  33
VSHL.                        :  34
PHIE.                        :  35
PHIT.                        :  36
SWE .                        :  37
SWT .                        :  38
SWTU.                        :  39
RMAT.                        :  40
BVWE.                        :  41
RHOB.G/C3                    :  42
CALS.IN                      :  43
DTS .US/F                    :  44
SBL .MV                      :  45
RD  .OHMM                    :  46
RM  .OHMM                    :  47
RS  .OHMM                    :  48
DPHI.                        :  49
GRC .GAPI                    :  50
NPHC.PU-S                    :  51
LL8C.OHMM                    :  52
ILDC.OHMM                    :  53
ILMC.OHMM                    :  54
ROBC.G/C3                    :  55
~A
# ...
  2478.000 
  9.8170  116.24  0.5150  0.5370 -0.0080 -40.479  3.3940  3.4130  3.2850 
  132.46  36.578  6.3750  8.7410  1.1760 -999.25 -999.25 -999.25 -999.25 
 -999.25 -999.25 -999.25 -999.25 -999.25 -999.25  1.7933  0.5393 -999.25 
 -999.25 -999.25 -999.25  0.2797  0.5016  0.7851  0.2149  0.4368  0.5294 
  0.7684  0.7684  2.4026  0.1138  1.7640  9.9598  132.91 -8.4790  3.3940 
  3.4130  3.2850  0.5370  131.28  0.5235  3.2850  3.3906  3.4433  1.8004 
  2478.500 
  9.8210  117.42  0.5120  0.5360 -0.0080 -41.028  3.3750  3.4240  3.2540 
  131.27  36.387  6.2070  8.7410  1.1760 -999.25 -999.25 -999.25 -999.25 
 -999.25 -999.25 -999.25 -999.25 -999.25 -999.25  1.7806  0.5334 -999.25 
 -999.25 -999.25 -999.25  0.2610  0.4676  0.7631  0.2369  0.4436  0.5487 
  0.7590  0.7590  2.3929  0.1300  1.7656  9.8800  132.46 -9.0280  3.3750 
  3.4240  3.2540  0.5360  127.89  0.5170  3.2540  3.3715  3.4529  1.7871 
  2479.000 
  9.8370  118.68  0.5160  0.5360 -0.0110 -41.222  3.3310  3.4110  3.2300 
  128.43  36.181  6.0380  8.7410  1.1755 -999.25 -999.25 -999.25 -999.25 
 -999.25 -999.25 -999.25 -999.25 -999.25 -999.25  1.7700  0.5253 -999.25 
 -999.25 -999.25 -999.25  0.2280  0.4079  0.7359  0.2641  0.4440  0.6157 
  0.7714  0.7714  2.3708  0.1626  1.7656  9.8339  131.27 -9.2220  3.3310 
  3.4110  3.2300  0.5360  126.93  0.5081  3.2300  3.3275  3.4388  1.7762 
  2479.500 
  9.8490  119.24  0.5190  0.5400 -0.0120 -41.260  3.2880  3.3430  3.2530 
  127.24  35.978  5.7140  8.7400  1.1750 -999.25 -999.25 -999.25 -999.25 
 -999.25 -999.25 -999.25 -999.25 -999.25 -999.25  1.7644  0.5142 -999.25 
 -999.25 -999.25 -999.25  0.2037  0.3641  0.5878  0.2828  0.4432  0.6468 
  0.7747  0.7747  2.3610  0.1829  1.7590  9.8180  128.43 -9.2600  3.2880 
  3.3430  3.2530  0.5400  128.16  0.4960  3.2530  3.2846  3.3694  1.7705 
  2480.000 
  9.8450  115.70  0.5180  0.5460 -0.0150 -41.297  3.2280  3.3120  3.2640 
  128.00  36.014  5.3530  8.8320  1.1840 -999.25 -999.25 -999.25 -999.25 
 -999.25 -999.25 -999.25 -999.25 -999.25 -999.25  1.7656  0.5130 -999.25 
 -999.25 -999.25 -999.25  0.2040  0.3647  0.5790  0.2826  0.4433  0.6451 
  0.7737  0.7737  2.3598  0.1823  1.7491  9.8250  127.24 -9.2970  3.2280 
  3.3120  3.2640  0.5460  129.38  0.4946  3.2640  3.2247  3.3380  1.7718 
  2480.500 
  9.8360  113.08  0.5180  0.5510 -0.0170 -41.725  3.1640  3.2810  3.2100 
  133.87  39.402  5.1910  9.1940  1.1835 -999.25 -999.25 -999.25 -999.25 
 -999.25 -999.25 -999.25 -999.25 -999.25 -999.25  1.7640  0.5167 -999.25 
 -999.25 -999.25 -999.25  0.2171  0.3880  0.5919  0.2740  0.4449  0.6327 
  0.7738  0.7738  2.3561  0.1734  1.7409  9.8399  128.00 -9.7250  3.1640 
  3.2810  3.2100  0.5510  128.99  0.4987  3.2100  3.1609  3.3068  1.7703 
  2481.000 
  9.8350  112.43  0.5290  0.5540 -0.0170 -42.271  3.0840  3.1810  3.0790 
  138.16  39.680  5.1120  9.1890  1.1830 -999.25 -999.25 -999.25 -999.25 
 -999.25 -999.25 -999.25 -999.25 -999.25 -999.25  1.7567  0.5188 -999.25 
 -999.25 -999.25 -999.25  0.2197  0.3924  0.5812  0.2746  0.4474  0.6404 
  0.7793  0.7793  2.3480  0.1759  1.7359  9.8481  133.87 -10.271  3.0840 
  3.1810  3.0790  0.5540  125.42  0.5010  3.0790  3.0810  3.2054  1.7630 
  2481.500 
  9.7750  114.31  0.5350  0.5490 -0.0160 -42.817  3.0230  3.1010  2.9790 
  149.10  39.710  5.3150  9.1860  1.1870 -999.25 -999.25 -999.25 -999.25 
 -999.25 -999.25 -999.25 -999.25 -999.25 -999.25  1.7472  0.5180 -999.25 
 -999.25 -999.25 -999.25  0.2099  0.3749  0.5466  0.2817  0.4467  0.6866 
  0.8024  0.8024  2.3495  0.1934  1.7442  9.8429  138.16 -10.817  3.0230 
  3.1010  2.9790  0.5490  123.05  0.5001  2.9790  3.0201  3.1241  1.7535 
  2482.000 
  9.8060  114.68  0.5400  0.5430 -0.0110 -43.285  2.9740  3.0060  2.8990 
  149.55  39.741  5.5540  9.1830  1.1870 -999.25 -999.25 -999.25 -999.25 
 -999.25 -999.25 -999.25 -999.25 -999.25 -999.25  1.7398  0.5204 -999.25 
 -999.25 -999.25 -999.25  0.1839  0.3281  0.4582  0.3077  0.4518  0.7285 
  0.8151  0.8151  2.3250  0.2242  1.7541  9.8358  149.10 -11.285  2.9740 
  3.0060  2.8990  0.5430  122.93  0.5028  2.8990  2.9712  3.0276  1.7460 
  2482.500 
  9.8200  112.22  0.5470  0.5420 -0.0080 -43.871  2.9900  2.9570  2.8000 
  150.01  39.559  5.8770  9.1730  1.1870 -999.25 -999.25 -999.25 -999.25 
 -999.25 -999.25 -999.25 -999.25 -999.25 -999.25  1.7377  0.5303 -999.25 
 -999.25 -999.25 -999.25  0.1713  0.3055  0.4858  0.3194  0.4536  0.7431 
  0.8191  0.8191  2.3233  0.2373  1.7557  9.8221  149.55 -11.871  2.9900 
  2.9570  2.8000  0.5420  124.54  0.5136  2.8000  2.9872  2.9777  1.7438 
  2483.000 
  9.8270  107.40  0.5500  0.5400 -0.0080 -44.456  3.0280  2.9350  2.6750 
  152.94  39.350  6.1400  9.1700  1.1860 -999.25 -999.25 -999.25 -999.25 
 -999.25 -999.25 -999.25 -999.25 -999.25 -999.25  1.7462  0.5360 -999.25 
 -999.25 -999.25 -999.25  0.1797  0.3206  0.5704  0.3152  0.4560  0.7284 
  0.8123  0.8123  2.3250  0.2296  1.7590  9.7814  150.01 -12.456  3.0280 
  2.9350  2.6750  0.5400  124.11  0.5199  2.6750  3.0251  2.9548  1.7520 
  2483.500 
  9.8460  101.08  0.5440  0.5390 -0.0110 -44.923  3.1000  2.9780  2.5840 
  152.78  39.149  6.4390  9.1680  1.1835 -999.25 -999.25 -999.25 -999.25 
 -999.25 -999.25 -999.25 -999.25 -999.25 -999.25  1.7544  0.5414 -999.25 
 -999.25 -999.25 -999.25  0.1936  0.3453  0.6900  0.3100  0.4617  0.6866 
  0.7895  0.7895  2.3247  0.2128  1.7607  9.8088  152.94 -12.923  3.1000 
  2.9780  2.5840  0.5390  121.02  0.5258  2.5840  3.0969  2.9988  1.7604 
  2484.000 
  9.8840  91.381  0.5270  0.5310 -0.0120 -45.470  3.2140  3.1330  2.5280 
  150.60  38.234  6.6410  9.1670  1.1810 -999.25 -999.25 -999.25 -999.25 
 -999.25 -999.25 -999.25 -999.25 -999.25 -999.25  1.7563  0.5476 -999.25 
 -999.25 -999.25 -999.25  0.1941  0.3464  0.6908  0.3092  0.4615  0.6765 
  0.7832  0.7832  2.3316  0.2092  1.7739  9.8214  152.78 -13.470  3.2140 
  3.1330  2.5280  0.5310  115.51  0.5325  2.5280  3.2107  3.1562  1.7625 
  2484.500 
  9.9270  82.782  0.4950  0.5220 -0.0110 -45.937  3.5130  3.3090  3.2490 
  142.14  38.272  6.8150  9.1660  1.1750 -999.25 -999.25 -999.25 -999.25 
 -999.25 -999.25 -999.25 -999.25 -999.25 -999.25  1.7593  0.5489 -999.25 
 -999.25 -999.25 -999.25  0.1870  0.3342  0.6899  0.3101  0.4573  0.6697 
  0.7760  0.7760  2.3529  0.2077  1.7887  9.8305  150.60 -13.937  3.5130 
  3.3090  3.2490  0.5220  107.95  0.5340  3.2490  3.5091  3.3351  1.7655 
  2485.000 
  9.9490  79.142  0.4680  0.5180 -0.0120 -46.326  3.8820  3.8060  3.7170 
  139.32  38.074  6.9820  9.1470  1.1750 -999.25 -999.25 -999.25 -999.25 
 -999.25 -999.25 -999.25 -999.25 -999.25 -999.25  1.7630  0.5410 -999.25 
 -999.25 -999.25 -999.25  0.1532  0.2737  0.6630  0.3370  0.4575  0.6887 
  0.7707  0.7707  2.3515  0.2321  1.7953  9.8528  142.14 -14.326  3.8820 
  3.8060  3.7170  0.5180  97.746  0.5253  3.7170  3.8773  3.8411  1.7694 
  2485.500 
  9.9250  76.996  0.4370  0.5160 -0.0130 -46.676  4.1450  4.2750  3.9750 
  137.71  37.876  7.0710  8.9530  1.1695 -999.25 -999.25 -999.25 -999.25 
 -999.25 -999.25 -999.25 -999.25 -999.25 -999.25  1.7764  0.5215 -999.25 
 -999.25 -999.25 -999.25  0.1209  0.2160  0.6393  0.3607  0.4558  0.7010 
  0.7634  0.7634  2.3485  0.2529  1.7986  9.8914  139.32 -14.676  4.1450 
  4.2750  3.9750  0.5160  89.575  0.5040  3.9750  4.1398  4.3205  1.7830 
  2486.000 
  9.8330  75.009  0.4240  0.5130 -0.0120 -46.986  4.4410  4.6560  4.3450 
  136.26  37.676  7.1540  8.9470  1.1640 -999.25 -999.25 -999.25 -999.25 
 -999.25 -999.25 -999.25 -999.25 -999.25 -999.25  1.7898  0.4906 -999.25 
 -999.25 -999.25 -999.25  0.0815  0.1457  0.6201  0.3799  0.4441  0.7319 
  0.7707  0.7707  2.3635  0.2780  1.8036  9.9306  137.71 -14.986  4.4410 
  4.6560  4.3450  0.5130  86.041  0.4701  4.3450  4.4351  4.7114  1.7967 
  2486.500 
  9.7570  73.652  0.4130  0.5070 -0.0080 -47.257  4.6720  4.8800  4.8190 
  135.53  37.706  6.8480  8.9370  1.1590 -999.25 -999.25 -999.25 -999.25 
 -999.25 -999.25 -999.25 -999.25 -999.25 -999.25  1.7958  0.4631 -999.25 
 -999.25 -999.25 -999.25  0.0595  0.1066  0.3797  0.3837  0.4308  0.7630 
  0.7890  0.7890  2.3885  0.2928  1.8135  9.9452  136.26 -15.257  4.6720 
  4.8800  4.8190  0.5070  83.779  0.4400  4.8190  4.6655  4.9415  1.8028 
