~Version Information
VERS.                     2.0: CWLS log ASCII Standard Version 2.00
WRAP.                     YES: Multiple lines per depth step
~Well Information Block
#MNEM.UNIT                               Data Type  Information
#---------                               ---------  -----------
STRT.FT                                   850.0000:
STOP.FT                                  6800.0000:
STEP.FT                                     0.5000:
NULL.                 -999.25                     :
COMP.                                             :COMPANY            
WELL.     SANTIAGO D #26-27                       :WELL               
FLD .                                             :FIELD              
CTRY.                                             :COUNTRY            
STAT.                                             :STATE              
LOC .                                             :LOCATION           
UWI .                                             :UNIQUE WELL ID     
SRVC.                                             :Service company    
DATE.                                             :LOG DATE           
~Curve Information
#MNEM.UNIT           API CODE  Curve Description
#---------           --------  -----------------
DEPT.FT                      :   1 DEPTH
DCAL.IN                      :   2
DGR .GAPI                    :   3
NPHI.PU-S                    :   4
DPHI.PU-S                    :   5
DRHO.G/C3                    :   6
AGR .GAPI                    :   7
ACAL.IN                      :   8
DT  .US/F                    :   9
GR  .GAPI                    :  10
SP  .MV                      :  11
ILM .OHMM                    :  12
ILD .OHMM                    :  13
SFLU.OHMM                    :  14
RHOB.G/C3                    :  15
RS  .OHMM                    :  16
RM  .OHMM                    :  17
RD  .OHMM                    :  18
GRS .GAPI                    :  19
SBL .MV                      :  20
ROBS.G/C3                    :  21
DRHS.G/C3                    :  22
CALS.IN                      :  23
GRS .GAPI                    :  24
NPHS.PU-S                    :  25
CALS.IN                      :  26
GRS .GAPI                    :  27
SFLU.OHMM                    :  28
ILMC.OHMM                    :  29
ILDC.OHMM                    :  30
ROBC.G/C3                    :  31
GRC .GAPI                    :  32
NPHC.PU-S                    :  33
~A
# ...
  5171.000 
  10.272  84.892  0.3210  0.4540  0.0110  92.353  10.835  98.566  81.320 
 -53.030  8.5650  8.3030  9.9850  1.9009  9.9850  8.5650  8.3030  81.320 
 -17.075  1.9026  0.0105  10.274  85.656  0.3450  10.835  92.353  10.868 
  8.6810  8.2943  1.9119  90.238  0.3460 
  5171.500 
  10.270  83.599  0.3450  0.4530  0.0160  93.144  10.871  99.042  78.388 
 -53.230  8.8990  8.6110  10.132  1.9026  10.132  8.8990  8.6110  78.388 
 -17.276  1.9017  0.0133  10.271  84.288  0.3640  10.871  93.144  11.026 
  9.0241  8.6016  1.9109  88.789  0.3689 
  5172.000 
  10.265  82.665  0.3640  0.4530  0.0140  92.075  10.918  98.407  77.673 
 -53.231  9.0130  9.0460  10.020  1.9026  10.020  9.0130  9.0460  77.673 
 -17.278  1.9026  0.0151  10.268  83.180  0.3510  10.918  92.075  10.904 
  9.1411  9.0356  1.9118  87.613  0.3532 
  5172.500 
  10.261  82.598  0.3510  0.4590  0.0090  92.589  10.938  97.793  79.255 
 -53.075  9.0290  9.3300  9.8380  1.8927  9.8380  9.0290  9.3300  79.255 
 -17.123  1.8983  0.0119  10.263  82.636  0.3280  10.938  92.589  10.705 
  9.1573  9.3189  1.9075  87.028  0.3224 
  5173.000 
  10.262  83.675  0.3280  0.4600  0.0060  96.306  10.934  97.238  83.055 
 -52.879  8.9460  9.3640  9.4840  1.8910  9.4840  8.9460  9.3640  83.055 
 -16.928  1.8920  0.0078  10.261  83.040  0.3230  10.934  96.306  10.322 
  9.0718  9.3529  1.9012  87.447  0.3165 
  5173.500 
  10.263  85.624  0.3230  0.4550  0.0090  99.074  10.914  97.119  86.616 
 -52.683  8.6870  9.0940  8.8960  1.8993  8.8960  8.6870  9.0940  86.616 
 -16.733  1.8942  0.0072  10.262  84.437  0.3270  10.914  99.074  9.6851 
  8.8056  9.0835  1.9034  88.921  0.3212 
  5174.000 
  10.275  86.938  0.3270  0.4510  0.0160  99.350  10.890  97.793  90.693 
 -52.407  8.3900  8.4980  8.1930  1.9059  8.1930  8.3900  8.4980  90.693 
 -16.457  1.9017  0.0116  10.267  86.112  0.3420  10.890  99.350  8.9248 
  8.5009  8.4888  1.9109  90.701  0.3390 
  5174.500 
  10.276  87.861  0.3420  0.4480  0.0180  97.648  10.878  98.825  91.759 
 -51.974  8.0010  7.9710  7.5190  1.9108  7.5190  8.0010  7.9710  91.759 
 -16.025  1.9076  0.0167  10.275  87.263  0.3420  10.878  97.648  8.1960 
  8.1022  7.9630  1.9169  91.936  0.3390 
  5175.000 
  10.278  90.047  0.3420  0.4480  0.0180  96.620  10.870  100.71  91.996 
 -51.500  7.4500  7.5590  6.8120  1.9108  6.8120  7.4500  7.5590  91.996 
 -15.552  1.9108  0.0180  10.277  88.590  0.3430  10.870  96.620  7.4296 
  7.5378  7.5518  1.9201  93.337  0.3402 
  5175.500 
  10.279  98.435  0.3430  0.4510  0.0150  96.856  10.874  103.58  92.509 
 -51.146  6.8610  7.1690  6.2510  1.9059  6.2510  6.8610  7.1690  92.509 
 -15.199  1.9092  0.0171  10.278  92.682  0.3580  10.874  96.856  6.8213 
  6.9354  7.1625  1.9186  97.655  0.3617 
  5176.000 
  10.287  102.24  0.3580  0.4530  0.0040  94.048  10.894  104.40  93.101 
 -50.712  6.3540  6.8360  5.6840  1.9026  5.6840  6.3540  6.8360  93.101 
 -14.766  1.9049  0.0117  10.281  99.558  0.3900  10.894  94.048  6.2064 
  6.4179  6.8301  1.9142  104.91  0.4004 
  5176.500 
  10.286  101.62  0.3900  0.4510 -0.0010  89.776  10.906  103.41  92.228 
 -50.358  6.0480  6.5540  5.3800  1.9059  5.3800  6.0480  6.5540  92.228 
 -14.413  1.9035  0.0026  10.287  102.07  0.4050  10.906  89.776  5.8770 
  6.1060  6.5486  1.9128  107.57  0.4185 
  5177.000 
  10.283  96.456  0.4050  0.4480  0.0080  90.724  10.910  102.39  89.731 
 -50.439  5.9590  6.2490  5.6420  1.9108  5.6420  5.9590  6.2490  89.731 
 -14.494  1.9071  0.0013  10.285  100.29  0.3850  10.910  90.724  6.1613 
  6.0153  6.2441  1.9165  105.70  0.3943 
  5177.500 
  10.280  94.296  0.3850  0.4450  0.0150  95.035  10.918  101.92  88.898 
 -50.560  5.9700  6.0030  6.2600  1.9158  6.2600  5.9700  6.0030  88.898 
 -14.616  1.9120  0.0097  10.282  95.943  0.3620  10.918  95.035  6.8317 
  6.0264  5.9985  1.9213  101.10  0.3665 
  5178.000 
  10.278  94.859  0.3620  0.4460  0.0210  99.543  10.917  101.88  90.163 
 -50.166  5.9700  5.6930  6.4460  1.9141  6.4460  5.9700  5.6930  90.163 
 -14.223  1.9154  0.0163  10.280  94.419  0.3470  10.917  99.543  7.0331 
  6.0263  5.6889  1.9247  99.488  0.3484 
  5178.500 
  10.275  99.022  0.3470  0.4480  0.0230  107.37  10.913  103.47  94.755 
 -49.177  5.8180  5.6200  6.2030  1.9108  6.2030  5.8180  5.6200  94.755 
 -13.235  1.9134  0.0214  10.277  95.688  0.3410  10.913  107.37  6.7691 
  5.8714  5.6160  1.9228  100.82  0.3378 
  5179.000 
  10.287  107.77  0.3410  0.4450  0.0150  113.82  10.898  105.33  99.821 
 -47.991  5.6090  5.6400  5.6190  1.9158  5.6190  5.6090  5.6400  99.821 
 -12.050  1.9117  0.0216  10.277  100.60  0.3450  10.898  113.82  6.1352 
  5.6586  5.6360  1.9210  105.99  0.3460 
  5179.500 
  10.293  116.79  0.3450  0.4390  0.0100  118.88  10.882  106.52  106.71 
 -47.003  5.5370  5.6600  5.2520  1.9257  5.2520  5.5370  5.6600  106.71 
 -11.063  1.9173  0.0142  10.288  109.22  0.3790  10.882  118.88  5.7382 
  5.5856  5.6560  1.9267  115.11  0.3871 
  5180.000 
  10.302  120.31  0.3790  0.4150  0.0170  120.70  10.882  106.52  109.28 
 -46.332  5.5880  5.7120  5.0540  1.9653  5.0540  5.5880  5.7120  109.28 
 -10.392  1.9313  0.0110  10.294  117.29  0.4240  10.882  120.70  5.5239 
  5.6377  5.7079  1.9407  123.64  0.4415 
  5180.500 
  10.307  117.80  0.4240  0.3970  0.0270  115.08  10.901  104.34  108.92 
 -46.175  5.7110  5.7740  5.5370  1.9950  5.5370  5.7110  5.7740  108.92 
 -10.236  1.9689  0.0182  10.303  120.00  0.4560  10.901  115.08  6.0497 
  5.7631  5.7699  1.9784  126.54  0.4802 
  5181.000 
  10.313  106.59  0.4560  0.3910  0.0360  104.72  10.929  102.16  100.17 
 -46.256  5.8270  5.8480  6.1440  2.0049  6.1440  5.8270  5.8480  100.17 
 -10.318  1.9960  0.0279  10.308  116.64  0.4380  10.929  104.72  6.7098 
  5.8814  5.8438  2.0055  123.01  0.4584 
  5181.500 
  10.309  98.462  0.4380  0.3980  0.0390  97.996  10.921  100.45  92.209 
 -46.654  5.9120  5.9550  6.7800  1.9933  6.7800  5.9120  5.9550  92.209 
 -10.717  2.0039  0.0362  10.313  105.90  0.4080  10.921  97.996  7.4014 
  5.9682  5.9506  2.0134  111.71  0.4222 
  5182.000 
  10.311  94.681  0.4080  0.4110  0.0390  97.758  10.881  100.08  88.485 
 -47.131  6.0320  6.0100  7.0320  1.9719  7.0320  6.0320  6.0100  88.485 
 -11.195  1.9919  0.0390  10.309  98.216  0.3550  10.881  97.758  7.6744 
  6.0904  6.0055  2.0014  103.59  0.3581 
  5182.500 
  10.308  93.979  0.3550  0.4190  0.0370  104.84  10.881  100.85  87.890 
 -47.252  6.0760  6.0750  6.9810  1.9587  6.9810  6.0760  6.0750  87.890 
 -11.317  1.9712  0.0389  10.311  94.649  0.3460  10.881  104.84  7.6193 
  6.1353  6.0704  1.9808  99.831  0.3472 
  5183.000 
  10.309  97.511  0.3460  0.4240  0.0310  116.78  10.881  103.33  90.065 
 -46.779  6.1200  6.0970  6.7050  1.9504  6.7050  6.1200  6.0970  90.065 
 -10.844  1.9584  0.0368  10.308  94.074  0.3560  10.881  116.78  7.3191 
  6.1801  6.0924  1.9679  99.215  0.3593 
  5183.500 
  10.310  107.68  0.3560  0.4240  0.0220  132.90  10.846  105.83  97.824 
 -46.305  6.0970  6.0750  6.3590  1.9504  6.3590  6.0970  6.0750  97.824 
 -10.371  1.9504  0.0309  10.309  97.589  0.3810  10.846  132.90  6.9436 
  6.1567  6.0704  1.9599  102.93  0.3895 
  5184.000 
  10.307  113.77  0.3810  0.4190  0.0120  135.51  10.759  107.36  107.13 
 -45.912  6.0190  5.9750  5.9530  1.9587  5.9530  6.0190  5.9750  107.13 
 -9.9790  1.9504  0.0221  10.310  107.56  0.4290  10.759  135.51  6.5027 
  6.0772  5.9706  1.9599  113.44  0.4475 
  5184.500 
  10.301  115.01  0.4290  0.4080  0.0130  135.66  10.762  108.03  109.94 
 -45.834  5.9530  5.8670  5.6350  1.9768  5.6350  5.9530  5.8670  109.94 
 -9.9018  1.9584  0.0123  10.307  113.58  0.4510  10.762  135.66  6.1568 
  6.0098  5.8627  1.9679  119.79  0.4741 
  5185.000 
  10.294  114.55  0.4510  0.4020  0.0200  126.11  10.834  107.24  111.16 
 -46.192  5.9090  5.8450  5.5430  1.9867  5.5430  5.9090  5.8450  111.16 
 -10.261  1.9759  0.0130  10.301  114.95  0.4670  10.834  126.11  6.0561 
  5.9648  5.8408  1.9854  121.20  0.4935 
