~Version Information
VERS.                     2.0: CWLS log ASCII Standard Version 2.00
WRAP.                     YES: Multiple lines per depth step
~Well Information Block
#MNEM.UNIT                               Data Type  Information
#---------                               ---------  -----------
STRT.FT                                   805.0000:
STOP.FT                                  5010.0000:
STEP.FT                                     0.5000:
NULL.                 -999.25                     :
COMP.                                             :COMPANY            
WELL.     SANTIAGO C 55-28                        :WELL               
FLD .                                             :FIELD              
CTRY.                                             :COUNTRY            
STAT.                                             :STATE              
LOC .                                             :LOCATION           
UWI .                                             :UNIQUE WELL ID     
SRVC.                                             :Service company    
DATE.                                             :LOG DATE           
~Curve Information
#MNEM.UNIT           API CODE  Curve Description
#---------           --------  -----------------
DEPT.FT                      :   1 DEPTH
CALI.IN                      :   2
GR  .GAPI                    :   3
NPHI.PU-S                    :   4
DPHI.PU-S                    :   5
DRHO.G/C3                    :   6
SP  .MV                      :   7
ILD .OHMM                    :   8
ILM .OHMM                    :   9
SFLU.OHMM                    :  10
LLD .OHMM                    :  11
LLS .OHMM                    :  12
MSFL.OHMM                    :  13
DT  .US/F                    :  14
SPHI.                        :  15
KSCI.                        :  16
PSCI.                        :  17
OSCI.                        :  18
WSCI.                        :  19
KWCI.                        :  20
PWCI.                        :  21
OWCI.                        :  22
WWCI.                        :  23
SBL .MV                      :  24
RS  .OHMM                    :  25
RM  .OHMM                    :  26
RD  .OHMM                    :  27
DTS .US/F                    :  28
RHOB.G/C3                    :  29
ROBS.G/C3                    :  30
DROS.G/C3                    :  31
CALS.IN                      :  32
GRS .GAPI                    :  33
NPHS.PU-S                    :  34
SFLU.OHMM                    :  35
ILMC.OHMM                    :  36
ILDC.OHMM                    :  37
ROBC.G/C3                    :  38
GRC .GAPI                    :  39
NPHC.PU-S                    :  40
~A
# ...
  4177.000 
  10.051  96.704  0.3550  0.4400 -0.0270 -36.771 -999.25 -999.25 -999.25 
  5.6140  4.3870  5.8670 -999.25  37.490 -999.25 -999.25 -999.25 -999.25 
 -999.25 -999.25 -999.25 -999.25 -13.540  5.8670  4.3870  5.6140 -999.25 
  1.9240  1.8901 -0.0146  10.977  86.834  0.4577  5.8670  4.3870  5.6140 
  1.8901  86.834  0.4577 
  4177.500 
  10.214  99.250  0.3530  0.4360 -0.0150 -36.775 -999.25 -999.25 -999.25 
  5.8100  4.4820  11.084 -999.25  37.183 -999.25 -999.25 -999.25 -999.25 
 -999.25 -999.25 -999.25 -999.25 -13.545  11.084  4.4820  5.8100 -999.25 
  1.9306  1.8885 -0.0172  10.853  83.792  0.4558  11.084  4.4820  5.8100 
  1.8885  83.792  0.4558 
  4178.000 
  10.477  100.16  0.3650  0.4340 -0.0060 -36.540 -999.25 -999.25 -999.25 
  6.3190  4.8040  16.789 -999.25  37.162 -999.25 -999.25 -999.25 -999.25 
 -999.25 -999.25 -999.25 -999.25 -13.311  16.789  4.8040  6.3190 -999.25 
  1.9339  1.8928 -0.0195  10.772  82.133  0.4477  16.789  4.8040  6.3190 
  1.8928  82.133  0.4477 
  4178.500 
  10.520  101.79  0.3950  0.4380  0.0010 -36.305 -999.25 -999.25 -999.25 
  6.7850  5.3810  12.661 -999.25  38.108 -999.25 -999.25 -999.25 -999.25 
 -999.25 -999.25 -999.25 -999.25 -13.077  12.661  5.3810  6.7850 -999.25 
  1.9273  1.9064 -0.0137  10.582  81.826  0.4192  12.661  5.3810  6.7850 
  1.9064  81.826  0.4192 
  4179.000 
  10.540  103.22  0.4340  0.4430  0.0030 -36.150 -999.25 -999.25 -999.25 
  7.0350  5.7770  6.7430 -999.25  38.826 -999.25 -999.25 -999.25 -999.25 
 -999.25 -999.25 -999.25 -999.25 -12.923  6.7430  5.7770  7.0350 -999.25 
  1.9191  1.9203 -0.0020  10.416  80.580  0.3801  6.7430  5.7770  7.0350 
  1.9203  80.580  0.3801 
  4179.500 
  10.671  104.06  0.4500  0.4460  0.0030 -36.114 -999.25 -999.25 -999.25 
  6.7890  5.9240  9.6300 -999.25  37.709 -999.25 -999.25 -999.25 -999.25 
 -999.25 -999.25 -999.25 -999.25 -12.888  9.6300  5.9240  6.7890 -999.25 
  1.9141  1.9278  0.0070  10.458  77.328  0.3552  9.6300  5.9240  6.7890 
  1.9278  77.328  0.3552 
  4180.000 
  10.810  103.85  0.4580  0.4420  0.0020 -36.477 -999.25 -999.25 -999.25 
  6.5750  5.8450  8.9740 -999.25  34.791 -999.25 -999.25 -999.25 -999.25 
 -999.25 -999.25 -999.25 -999.25 -13.252  8.9740  5.8450  6.5750 -999.25 
  1.9207  1.9279  0.0106  10.533  73.454  0.3450  8.9740  5.8450  6.5750 
  1.9279  73.454  0.3450 
  4180.500 
  10.802  102.58  0.4680  0.4390 -0.0060 -37.277 -999.25 -999.25 -999.25 
  6.2610  5.2180  6.4360 -999.25  32.720 -999.25 -999.25 -999.25 -999.25 
 -999.25 -999.25 -999.25 -999.25 -14.052  6.4360  5.2180  6.2610 -999.25 
  1.9257  1.9160  0.0044  10.611  70.491  0.3648  6.4360  5.2180  6.2610 
  1.9160  70.491  0.3648 
  4181.000 
  11.117  101.94  0.4780  0.4360 -0.0040 -37.969 -999.25 -999.25 -999.25 
  5.9290  4.7370  7.1270 -999.25  31.888 -999.25 -999.25 -999.25 -999.25 
 -999.25 -999.25 -999.25 -999.25 -14.745  7.1270  4.7370  5.9290 -999.25 
  1.9306  1.8974 -0.0102  10.787  69.640  0.3846  7.1270  4.7370  5.9290 
  1.8974  69.640  0.3846 
  4181.500 
  11.316  102.86  0.4770  0.4370  0.0000 -39.020 -999.25 -999.25 -999.25 
  5.7610  4.4610  10.991 -999.25  31.427 -999.25 -999.25 -999.25 -999.25 
 -999.25 -999.25 -999.25 -999.25 -15.797  10.991  4.4610  5.7610 -999.25 
  1.9290  1.8835 -0.0229  10.906  70.655  0.3891  10.991  4.4610  5.7610 
  1.8835  70.655  0.3891 
  4182.000 
  11.436  103.90  0.4670  0.4360  0.0070 -40.071 -999.25 -999.25 -999.25 
  5.7130  4.4230  11.204 -999.25  34.303 -999.25 -999.25 -999.25 -999.25 
 -999.25 -999.25 -999.25 -999.25 -16.849  11.204  4.4230  5.7130 -999.25 
  1.9306  1.8692 -0.0311  10.918  71.578  0.3696  11.204  4.4230  5.7130 
  1.8692  71.578  0.3696 
  4182.500 
  11.452  104.50  0.4630  0.4290  0.0100 -40.923 -999.25 -999.25 -999.25 
  5.8020  4.5170  6.0420 -999.25  35.988 -999.25 -999.25 -999.25 -999.25 
 -999.25 -999.25 -999.25 -999.25 -17.702  6.0420  4.5170  5.8020 -999.25 
  1.9422  1.8529 -0.0363  10.756  71.274  0.3402  6.0420  4.5170  5.8020 
  1.8529  71.274  0.3402 
  4183.000 
  11.317  103.55  0.4650  0.4210  0.0120 -41.895 -999.25 -999.25 -999.25 
  5.9580  4.6300  16.881 -999.25  37.005 -999.25 -999.25 -999.25 -999.25 
 -999.25 -999.25 -999.25 -999.25 -18.675  16.881  4.6300  5.9580 -999.25 
  1.9554  1.8404 -0.0372  10.639  69.141  0.3338  16.881  4.6300  5.9580 
  1.8404  69.141  0.3338 
  4183.500 
  11.190  102.59  0.4700  0.4160  0.0130 -42.547 -999.25 -999.25 -999.25 
  6.1740  4.7370  10.336 -999.25  37.080 -999.25 -999.25 -999.25 -999.25 
 -999.25 -999.25 -999.25 -999.25 -19.328  10.336  4.7370  6.1740 -999.25 
  1.9636  1.8337 -0.0355  10.601  66.249  0.3353  10.336  4.7370  6.1740 
  1.8337  66.249  0.3353 
  4184.000 
  11.011  100.20  0.4650  0.4170  0.0060 -43.081 -999.25 -999.25 -999.25 
  6.5050  4.8280  6.3400 -999.25  35.974 -999.25 -999.25 -999.25 -999.25 
 -999.25 -999.25 -999.25 -999.25 -19.863  6.3400  4.8280  6.5050 -999.25 
  1.9620  1.8451 -0.0235  10.308  63.776  0.3515  6.3400  4.8280  6.5050 
  1.8451  63.776  0.3515 
  4184.500 
  10.800  95.064  0.4580  0.4300 -0.0160 -42.778 -999.25 -999.25 -999.25 
  6.0820  4.6920  4.7700 -999.25  33.748 -999.25 -999.25 -999.25 -999.25 
 -999.25 -999.25 -999.25 -999.25 -19.561  4.7700  4.6920  6.0820 -999.25 
  1.9405  1.8631 -0.0104  10.495  62.133  0.3634  4.7700  4.6920  6.0820 
  1.8631  62.133  0.3634 
  4185.000 
  10.776  89.565  0.4570  0.4430 -0.0250 -42.276 -999.25 -999.25 -999.25 
  5.2630  4.2040  3.9790 -999.25  31.629 -999.25 -999.25 -999.25 -999.25 
 -999.25 -999.25 -999.25 -999.25 -19.060  3.9790  4.2040  5.2630 -999.25 
  1.9191  1.8737 -0.0015  10.674  61.950  0.3674  3.9790  4.2040  5.2630 
  1.8737  61.950  0.3674 
  4185.500 
  10.960  88.889  0.4510  0.4540 -0.0270 -41.576 -999.25 -999.25 -999.25 
  4.6040  3.7190  3.5130 -999.25  30.452 -999.25 -999.25 -999.25 -999.25 
 -999.25 -999.25 -999.25 -999.25 -18.361  3.5130  3.7190  4.6040 -999.25 
  1.9009  1.8785  0.0018  10.808  66.294  0.3688  3.5130  3.7190  4.6040 
  1.8785  66.294  0.3688 
  4186.000 
  11.175  85.185  0.4200  0.4580 -0.0190 -40.915 -999.25 -999.25 -999.25 
  4.4990  3.5290  4.9510 -999.25  30.109 -999.25 -999.25 -999.25 -999.25 
 -999.25 -999.25 -999.25 -999.25 -17.701  4.9510  3.5290  4.4990 -999.25 
  1.8943  1.8684 -0.0015  10.878  74.878  0.3710  4.9510  3.5290  4.4990 
  1.8684  74.878  0.3710 
  4186.500 
  11.083  82.317  0.3770  0.4600 -0.0140 -40.413 -999.25 -999.25 -999.25 
  4.5690  3.5250  5.2840 -999.25  33.368 -999.25 -999.25 -999.25 -999.25 
 -999.25 -999.25 -999.25 -999.25 -17.200  5.2840  3.5250  4.5690 -999.25 
  1.8910  1.8527 -0.0214  10.902  80.419  0.3690  5.2840  3.5250  4.5690 
  1.8527  80.419  0.3690 
  4187.000 
  10.896  81.721  0.3510  0.4610 -0.0150 -40.112 -999.25 -999.25 -999.25 
  4.8140  3.7070  5.0220 -999.25  39.774 -999.25 -999.25 -999.25 -999.25 
 -999.25 -999.25 -999.25 -999.25 -16.900  5.0220  3.7070  4.8140 -999.25 
  1.8894  1.8450 -0.0309  10.863  82.890  0.3574  5.0220  3.7070  4.8140 
  1.8450  82.890  0.3574 
  4187.500 
  10.817  81.882  0.3430  0.4620 -0.0190 -40.127 -999.25 -999.25 -999.25 
  5.1100  4.0150  10.226 -999.25  42.198 -999.25 -999.25 -999.25 -999.25 
 -999.25 -999.25 -999.25 -999.25 -16.916  10.226  4.0150  5.1100 -999.25 
  1.8877  1.8579 -0.0260  10.802  83.677  0.3455  10.226  4.0150  5.1100 
  1.8579  83.677  0.3455 
  4188.000 
  10.729  79.055  0.3760  0.4560 -0.0200 -40.182 -999.25 -999.25 -999.25 
  5.4740  4.3490  12.576 -999.25  42.440 -999.25 -999.25 -999.25 -999.25 
 -999.25 -999.25 -999.25 -999.25 -16.972  12.576  4.3490  5.4740 -999.25 
  1.8976  1.8628 -0.0222  10.774  78.686  0.3449  12.576  4.3490  5.4740 
  1.8628  78.686  0.3449 
  4188.500 
  10.427  74.713  0.3910  0.4450 -0.0070 -40.717 -999.25 -999.25 -999.25 
  5.7780  4.5910  9.5500 -999.25  41.215 -999.25 -999.25 -999.25 -999.25 
 -999.25 -999.25 -999.25 -999.25 -17.508  9.5500  4.5910  5.7780 -999.25 
  1.9158  1.8537 -0.0257  11.004  71.611  0.3582  9.5500  4.5910  5.7780 
  1.8537  71.611  0.3582 
