~Version Information
VERS.                     2.0: CWLS log ASCII Standard Version 2.00
WRAP.                     YES: Multiple lines per depth step
~Well Information Block
#MNEM.UNIT                               Data Type  Information
#---------                               ---------  -----------
STRT.FT                                   100.0000:
STOP.FT                                  3000.0000:
STEP.FT                                     0.5000:
NULL.                 -999.25                     :
COMP.                                             :COMPANY            
WELL.     LOS LOBOS 51X-30                        :WELL               
FLD .                                             :FIELD              
CTRY.                                             :COUNTRY            
STAT.                                             :STATE              
LOC .                                             :LOCATION           
UWI .                                             :UNIQUE WELL ID     
SRVC.                                             :Service company    
DATE.                                             :LOG DATE           
~Curve Information
#MNEM.UNIT           API CODE  Curve Description
#---------           --------  -----------------
DEPT.FT                      :   1 DEPTH
GR  .GAPI                    :   2
CALI.IN                      :   3
DPHI.PU-S                    :   4
NPHI.PU-S                    :   5
DRHO.G/C3                    :   6
DT  .US/F                    :   7
ROP .                        :   8
GAS .                        :   9
CGAS.                        :  10
C1R .                        :  11
C2R .                        :  12
C3R .                        :  13
SP  .MV                      :  14
ILD .OHMM                    :  15
ILM .OHMM                    :  16
SFLU.OHMM                    :  17
GRS .GAPI                    :  18
CALS.IN                      :  19
ROBS.G/C3                    :  20
NPHS.PU-S                    :  21
DROS.G/C3                    :  22
DTS .US/F                    :  23
SBL .MV                      :  24
 RD .OHMM                    :  25
RM  .OHMM                    :  26
RS  .OHMM                    :  27
SFLU.OHMM                    :  28
ILMC.OHMM                    :  29
ILDC.OHMM                    :  30
ROBC.G/C3                    :  31
GRC .GAPI                    :  32
NPHC.PU-S                    :  33
~A
# ...
   912.000 
 -999.25 -999.25 -999.25 -999.25 -999.25 -999.25  40.027  8.9263  45.906 
  3.8490  0.6444 -999.25 -60.701  15.696  10.331  15.498 -999.25 -999.25 
 -999.25 -999.25 -999.25 -999.25 -34.028  15.696  10.331  15.498  15.498 
  10.331  15.696 -999.25 -999.25 -999.25 
   912.500 
 -999.25 -999.25 -999.25 -999.25 -999.25 -999.25  39.907  8.7510  46.466 
  3.8509  0.6439 -999.25 -61.433  15.543  10.063  15.571 -999.25 -999.25 
 -999.25 -999.25 -999.25 -999.25 -34.774  15.543  10.063  15.571  15.571 
  10.063  15.543 -999.25 -999.25 -999.25 
   913.000 
 -999.25 -999.25 -999.25 -999.25 -999.25 -999.25  39.787  8.4274  46.341 
  3.8528  0.6433 -999.25 -61.727  15.167  9.7660  15.307 -999.25 -999.25 
 -999.25 -999.25 -999.25 -999.25 -35.081  15.167  9.7660  15.307  15.307 
  9.7660  15.167 -999.25 -999.25 -999.25 
   913.500 
 -999.25 -999.25 -999.25 -999.25 -999.25 -999.25  39.667  7.9780  46.098 
  3.8547  0.6428 -999.25 -61.144  14.219  9.5310  14.115 -999.25 -999.25 
 -999.25 -999.25 -999.25 -999.25 -34.511  14.219  9.5310  14.115  14.115 
  9.5310  14.219 -999.25 -999.25 -999.25 
   914.000 
 -999.25 -999.25 -999.25 -999.25 -999.25 -999.25  39.578  7.5066  45.846 
  3.8569  0.6423 -999.25 -60.288  13.425  9.3350  13.425 -999.25 -999.25 
 -999.25 -999.25 -999.25 -999.25 -33.668  13.425  9.3350  13.425  13.425 
  9.3350  13.425 -999.25 -999.25 -999.25 
   914.500 
 -999.25 -999.25 -999.25 -999.25 -999.25 -999.25  147.35  6.9464  45.576 
  3.5051  0.6418 -999.25 -60.017  13.392  9.0760  13.466 -999.25 -999.25 
 -999.25 -999.25 -999.25 -999.25 -33.410  13.392  9.0760  13.466  13.466 
  9.0760  13.392 -999.25 -999.25 -999.25 
   915.000 
 -999.25 -999.25 -999.25 -999.25 -999.25 -999.25  147.25  6.5161  45.238 
  3.5045  0.6413 -999.25 -59.035  13.529  8.8400  13.728 -999.25 -999.25 
 -999.25 -999.25 -999.25 -999.25 -32.442  13.529  8.8400  13.728  13.728 
  8.8400  13.529 -999.25 -999.25 -999.25 
   915.500 
 -999.25 -999.25 -999.25 -999.25 -999.25 -999.25  147.16  6.1218  44.731 
  3.5038  0.6408 -999.25 -56.538  14.178  8.5950  14.546 -999.25 -999.25 
 -999.25 -999.25 -999.25 -999.25 -29.958  14.178  8.5950  14.546  14.546 
  8.5950  14.178 -999.25 -999.25 -999.25 
   916.000 
 -999.25 -999.25 -999.25 -999.25 -999.25 -999.25  147.06  5.9427  44.066 
  3.5032  0.6403 -999.25 -53.325  15.438  8.2950  15.665 -999.25 -999.25 
 -999.25 -999.25 -999.25 -999.25 -26.758  15.438  8.2950  15.665  15.665 
  8.2950  15.438 -999.25 -999.25 -999.25 
   916.500 
 -999.25 -999.25 -999.25 -999.25 -999.25 -999.25  146.97  5.8355  42.997 
  3.5025  0.6398 -999.25 -51.227  16.597  8.0370  16.718 -999.25 -999.25 
 -999.25 -999.25 -999.25 -999.25 -24.673  16.597  8.0370  16.718  16.718 
  8.0370  16.597 -999.25 -999.25 -999.25 
   917.000 
 -999.25 -999.25 -999.25 -999.25 -999.25 -999.25  146.87  5.8005  41.791 
  3.5019  0.6393 -999.25 -49.724  14.045  7.5750  14.782 -999.25 -999.25 
 -999.25 -999.25 -999.25 -999.25 -23.183  14.045  7.5750  14.782  14.782 
  7.5750  14.045 -999.25 -999.25 -999.25 
   917.500 
 -999.25 -999.25 -999.25 -999.25 -999.25 -999.25  146.78  5.9854  41.392 
  3.5012  0.6388 -999.25 -46.349  8.0110  6.9850  10.139 -999.25 -999.25 
 -999.25 -999.25 -999.25 -999.25 -19.822  8.0110  6.9850  10.139  10.139 
  6.9850  8.0110 -999.25 -999.25 -999.25 
   918.000 
 -999.25 -999.25 -999.25 -999.25 -999.25 -999.25  146.68  6.1283  41.221 
  3.5006  0.6383 -999.25 -40.980  6.3130  6.3590  3.9770 -999.25 -999.25 
 -999.25 -999.25 -999.25 -999.25 -14.466  6.3130  6.3590  3.9770  3.9770 
  6.3590  6.3130 -999.25 -999.25 -999.25 
   918.500 
 -999.25 -999.25 -999.25 -999.25 -999.25 -999.25  40.352  6.2379  41.028 
  3.4999  0.6378 -999.25 -38.682  2.6830  4.8050  2.5680 -999.25 -999.25 
 -999.25 -999.25 -999.25 -999.25 -12.181  2.6830  4.8050  2.5680  2.5680 
  4.8050  2.6830 -999.25 -999.25 -999.25 
   919.000 
 -999.25 -999.25 -999.25 -999.25 -999.25 -999.25  40.286  6.1671  41.033 
  3.4993  0.6372 -999.25 -37.102  2.2670  4.1120  2.2830 -999.25 -999.25 
 -999.25 -999.25 -999.25 -999.25 -10.614  2.2670  4.1120  2.2830  2.2830 
  4.1120  2.2670 -999.25 -999.25 -999.25 
   919.500 
 -999.25 -999.25 -999.25 -999.25 -999.25 -999.25  40.220  6.1700  41.043 
  3.4986  0.6367 -999.25 -35.921  2.2530  3.6290  2.2820 -999.25 -999.25 
 -999.25 -999.25 -999.25 -999.25 -9.4463  2.2530  3.6290  2.2820  2.2820 
  3.6290  2.2530 -999.25 -999.25 -999.25 
   920.000 
 -999.25 -999.25 -999.25 -999.25 -999.25 -999.25  40.154  5.9632  40.966 
  3.4980  0.6362 -999.25 -35.338  2.2800  3.2620  2.3090 -999.25 -999.25 
 -999.25 -999.25 -999.25 -999.25 -8.8765  2.2800  3.2620  2.3090  2.3090 
  3.2620  2.2800 -999.25 -999.25 -999.25 
   920.500 
 -999.25 -999.25 -999.25 -999.25 -999.25 -999.25  40.058  5.8474  40.881 
  3.4973  0.6357 -999.25 -34.874  2.3550  3.0300  2.3980 -999.25 -999.25 
 -999.25 -999.25 -999.25 -999.25 -8.4256  2.3550  3.0300  2.3980  2.3980 
  3.0300  2.3550 -999.25 -999.25 -999.25 
   921.000 
 -999.25 -999.25 -999.25 -999.25 -999.25 -999.25  87.823  5.7232  40.796 
  3.4967  0.6352 -999.25 -34.292  2.4580  2.8710  2.4850 -999.25 -999.25 
 -999.25 -999.25 -999.25 -999.25 -7.8568  2.4580  2.8710  2.4850  2.4850 
  2.8710  2.4580 -999.25 -999.25 -999.25 
   921.500 
 -999.25 -999.25 -999.25 -999.25 -999.25 -999.25  87.798  5.6177  40.721 
  3.4960  0.6347 -999.25 -34.226  2.5430  2.7970  2.5570 -999.25 -999.25 
 -999.25 -999.25 -999.25 -999.25 -7.8040  2.5430  2.7970  2.5570  2.5570 
  2.7970  2.5430 -999.25 -999.25 -999.25 
   922.000 
 -999.25 -999.25 -999.25 -999.25 -999.25 -999.25  87.773  5.4401  40.655 
  3.4954  0.6342 -999.25 -34.401  2.5600  2.7440  2.5510 -999.25 -999.25 
 -999.25 -999.25 -999.25 -999.25 -7.9922  2.5600  2.7440  2.5510  2.5510 
  2.7440  2.5600 -999.25 -999.25 -999.25 
   922.500 
 -999.25 -999.25 -999.25 -999.25 -999.25 -999.25  87.740  5.2448  40.590 
  3.4947  0.6337 -999.25 -34.735  2.5350  2.7520  2.4850 -999.25 -999.25 
 -999.25 -999.25 -999.25 -999.25 -8.3394  2.5350  2.7520  2.4850  2.4850 
  2.7520  2.5350 -999.25 -999.25 -999.25 
   923.000 
 -999.25 -999.25 -999.25 -999.25 -999.25 -999.25  116.25  5.1619  40.543 
  3.4941  0.6332 -999.25 -35.111  2.4510  2.7750  2.4110 -999.25 -999.25 
 -999.25 -999.25 -999.25 -999.25 -8.7286  2.4510  2.7750  2.4110  2.4110 
  2.7750  2.4510 -999.25 -999.25 -999.25 
   923.500 
 -999.25 -999.25 -999.25 -999.25 -999.25 -999.25  116.34  5.1240  40.556 
  3.4934  0.6327 -999.25 -35.284  2.3620  2.7680  2.3150 -999.25 -999.25 
 -999.25 -999.25 -999.25 -999.25 -8.9148  2.3620  2.7680  2.3150  2.3150 
  2.7680  2.3620 -999.25 -999.25 -999.25 
   924.000 
 -999.25 -999.25 -999.25 -999.25 -999.25 -999.25  116.44  5.4445  40.566 
  3.4928  0.6322 -999.25 -35.462  2.2920  2.7420  2.2300 -999.25 -999.25 
 -999.25 -999.25 -999.25 -999.25 -9.1060  2.2920  2.7420  2.2300  2.2300 
  2.7420  2.2920 -999.25 -999.25 -999.25 
   924.500 
 -999.25 -999.25 -999.25 -999.25 -999.25 -999.25  116.54  5.9377  40.575 
  3.4921  0.6317 -999.25 -35.394  2.2240  2.6650  2.1600 -999.25 -999.25 
 -999.25 -999.25 -999.25 -999.25 -9.0511  2.2240  2.6650  2.1600  2.1600 
  2.6650  2.2240 -999.25 -999.25 -999.25 
   925.000 
 -999.25 -999.25 -999.25 -999.25 -999.25 -999.25  116.64  6.2247  40.638 
  3.4915  0.6311 -999.25 -35.089  2.1950  2.5820  2.1040 -999.25 -999.25 
 -999.25 -999.25 -999.25 -999.25 -8.7593  2.1950  2.5820  2.1040  2.1040 
  2.5820  2.1950 -999.25 -999.25 -999.25 
   925.500 
 -999.25 -999.25 -999.25 -999.25 -999.25 -999.25  116.73  6.3687  40.765 
  3.4908  0.6306 -999.25 -34.785  2.1690  2.4880  2.0720 -999.25 -999.25 
 -999.25 -999.25 -999.25 -999.25 -8.4685  2.1690  2.4880  2.0720  2.0720 
  2.4880  2.1690 -999.25 -999.25 -999.25 
   926.000 
 -999.25 -999.25 -999.25 -999.25 -999.25 -999.25  116.83  6.4606  40.926 
  3.4902  0.6301 -999.25 -34.681  2.1440  2.4140  2.0410 -999.25 -999.25 
 -999.25 -999.25 -999.25 -999.25 -8.3777  2.1440  2.4140  2.0410  2.0410 
  2.4140  2.1440 -999.25 -999.25 -999.25 
