~Version Information
VERS.                     2.0: CWLS log ASCII Standard Version 2.00
WRAP.                     YES: Multiple lines per depth step
~Well Information Block
#MNEM.UNIT                               Data Type  Information
#---------                               ---------  -----------
STRT.FT                                   100.0000:
STOP.FT                                  3000.0000:
STEP.FT                                     0.5000:
NULL.                 -999.25                     :
COMP.                                             :COMPANY            
WELL.     LOS LOBOS 51X-30                        :WELL               
FLD .                                             :FIELD              
CTRY.                                             :COUNTRY            
STAT.                                             :STATE              
LOC .                                             :LOCATION           
UWI .                                             :UNIQUE WELL ID     
SRVC.                                             :Service company    
DATE.                                             :LOG DATE           
~Curve Information
#MNEM.UNIT           API CODE  Curve Description
#---------           --------  -----------------
DEPT.FT                      :   1 DEPTH
GR  .GAPI                    :   2
CALI.IN                      :   3
DPHI.PU-S                    :   4
NPHI.PU-S                    :   5
DRHO.G/C3                    :   6
DT  .US/F                    :   7
ROP .                        :   8
GAS .                        :   9
CGAS.                        :  10
C1R .                        :  11
C2R .                        :  12
C3R .                        :  13
SP  .MV                      :  14
ILD .OHMM                    :  15
ILM .OHMM                    :  16
SFLU.OHMM                    :  17
GRS .GAPI                    :  18
CALS.IN                      :  19
ROBS.G/C3                    :  20
NPHS.PU-S                    :  21
DROS.G/C3                    :  22
DTS .US/F                    :  23
SBL .MV                      :  24
 RD .OHMM                    :  25
RM  .OHMM                    :  26
RS  .OHMM                    :  27
SFLU.OHMM                    :  28
ILMC.OHMM                    :  29
ILDC.OHMM                    :  30
ROBC.G/C3                    :  31
GRC .GAPI                    :  32
NPHC.PU-S                    :  33
~A
# ...
  2144.500 
  95.836  6.7520  0.5210 -999.25  0.0000  128.23  73.121  15.251  9.5333 
  6.0363 -999.25 -999.25 -999.25  2.5090  2.4410 -999.25  97.780  6.7444 
  1.7985 -999.25 -0.0036  128.31 -999.25  2.5090  2.4410 -999.25 -999.25 
  2.4410  2.5090  1.7985  90.052 -999.25 
  2145.000 
  91.945  6.7570  0.5280 -999.25 -0.0040  127.34  72.960  14.621  9.3209 
  5.9369 -999.25 -999.25 -999.25  2.4500  2.3830 -999.25  96.716  6.7404 
  1.7959 -999.25 -0.0005  128.23 -999.25  2.4500  2.3830 -999.25 -999.25 
  2.3830  2.4500  1.7959  89.057 -999.25 
  2145.500 
  91.313  6.7810  0.5330 -999.25 -0.0060  126.29  72.798  14.115  9.0506 
  5.9401 -999.25 -999.25 -999.25  2.3870  2.2930 -999.25  93.703  6.7547 
  1.7840 -999.25 -0.0022  127.34 -999.25  2.3870  2.2930 -999.25 -999.25 
  2.2930  2.3870  1.7840  86.338 -999.25 
  2146.000 
  92.749  6.7570  0.5340 -999.25 -0.0050  127.64  72.636  13.705  8.8114 
  5.9429 -999.25 -999.25 -999.25  2.3270  2.2110 -999.25  91.579  6.7709 
  1.7740 -999.25 -0.0052  126.29 -999.25  2.3270  2.2110 -999.25 -999.25 
  2.2110  2.3270  1.7740  84.442 -999.25 
  2146.500 
  98.081  6.9240  0.5320 -999.25 -0.0040  131.37  72.475  13.300  8.5975 
  5.9458 -999.25 -999.25 -999.25  2.2150  2.0930 -999.25  92.188  6.7664 
  1.7695 -999.25 -0.0054  127.64 -999.25  2.2150  2.0930 -999.25 -999.25 
  2.0930  2.2150  1.7695  84.986 -999.25 
  2147.000 
  105.96  7.0440  0.5290 -999.25 -0.0020  137.74  72.303  12.968  8.3978 
  5.9486 -999.25 -999.25 -999.25  2.0890  1.9950 -999.25  96.162  6.8639 
  1.7710 -999.25 -0.0044  131.37 -999.25  2.0890  1.9950 -999.25 -999.25 
  1.9950  2.0890  1.7710  89.036 -999.25 
  2147.500 
  113.83  7.0960  0.5180 -999.25  0.0020  145.01  158.06  12.748  8.1083 
  5.9514 -999.25 -999.25 -999.25  1.9520  1.8610 -999.25  103.36  7.0045 
  1.7755 -999.25 -0.0027  137.74 -999.25  1.9520  1.8610 -999.25 -999.25 
  1.8610  1.9520  1.7755  96.299 -999.25 
  2148.000 
  121.31  7.1320  0.5080 -999.25  0.0030  150.09  157.86  12.631  7.8422 
  5.9543 -999.25 -999.25 -999.25  1.8640  1.8010 -999.25  111.48  7.0805 
  1.7899 -999.25  0.0008  145.01 -999.25  1.8640  1.8010 -999.25 -999.25 
  1.8010  1.8640  1.7899  104.21 -999.25 
  2148.500 
  123.07  7.1480  0.5050 -999.25  0.0020  150.76  157.66  12.553  7.5841 
  5.9571 -999.25 -999.25 -999.25  1.8170  1.7580 -999.25  119.31  7.1224 
  1.8074 -999.25  0.0027  150.09 -999.25  1.8170  1.7580 -999.25 -999.25 
  1.7580  1.8170  1.8074  111.72 -999.25 
  2149.000 
  121.32  7.1200  0.5050 -999.25  0.0020  150.70  157.46  12.457  7.4618 
  5.9600 -999.25 -999.25 -999.25  1.7740  1.7360 -999.25  122.65  7.1442 
  1.8156 -999.25  0.0022  150.76 -999.25  1.7740  1.7360 -999.25 -999.25 
  1.7360  1.7740  1.8156  114.96 -999.25 
  2149.500 
  118.23  7.0770  0.5100 -999.25  0.0010  148.09  157.25  12.659  7.4319 
  5.9628 -999.25 -999.25 -999.25  1.7390  1.7420 -999.25  121.68  7.1258 
  1.8168 -999.25  0.0020  150.70 -999.25  1.7390  1.7420 -999.25 -999.25 
  1.7420  1.7390  1.8168  113.96 -999.25 
  2150.000 
  101.61  7.0020  0.5160 -999.25  0.0000  139.72  157.05  13.222  7.4020 
  6.2903 -999.25 -999.25 -999.25  1.7450  1.7700 -999.25  118.77  7.0846 
  1.8099 -999.25  0.0012  148.09 -999.25  1.7450  1.7700 -999.25 -999.25 
  1.7700  1.7450  1.8099  111.04 -999.25 
  2150.500 
  95.336  6.9340  0.5160 -999.25 -0.0010  132.99  156.85  14.012  7.3794 
  6.2891 -999.25 -999.25 -999.25  1.8260  1.8230 -999.25  104.02  7.0129 
  1.8000 -999.25  0.0001  139.72 -999.25  1.8260  1.8230 -999.25 -999.25 
  1.8230  1.8260  1.8000  96.946 -999.25 
  2151.000 
  90.888  6.9180  0.5160 -999.25 -0.0020  128.89  156.65  18.330  7.5191 
  6.2885 -999.25 -999.25 -999.25  1.8800  1.9040 -999.25  96.053  6.9418 
  1.7986 -999.25 -0.0009  133.04 -999.25  1.8800  1.9040 -999.25 -999.25 
  1.9040  1.8800  1.7986  89.241 -999.25 
  2151.500 
  85.327  6.9540  0.5170 -999.25 -0.0010  124.58  156.44  19.130  7.6508 
  6.2879 -999.25 -999.25 -999.25  1.9820  2.0110 -999.25  91.260  6.9193 
  1.7986 -999.25 -0.0019  128.96 -999.25  1.9820  2.0110 -999.25 -999.25 
  2.0110  1.9820  1.7986  84.704 -999.25 
  2152.000 
  81.673  6.9270  0.5250 -999.25  0.0000  124.34  68.684  19.362  7.9023 
  6.2873 -999.25 -999.25 -999.25  2.0970  2.1360 -999.25  85.621  6.9521 
  1.7970 -999.25 -0.0011  124.69 -999.25  2.0970  2.1360 -999.25 -999.25 
  2.1360  2.0970  1.7970  79.585 -999.25 
  2152.500 
  79.928  6.9110  0.5360 -999.25  0.0000  125.32  68.792  19.610  8.1880 
  6.2867 -999.25 -999.25 -999.25  2.1870  2.2600 -999.25  81.754  6.9276 
  1.7840 -999.25  0.0000  124.35 -999.25  2.1870  2.2600 -999.25 -999.25 
  2.2600  2.1870  1.7840  75.909 -999.25 
  2153.000 
  79.614  6.8910  0.5360 -999.25 -0.0040  122.71  68.862  19.383  8.5930 
  6.2861 -999.25 -999.25 -999.25  2.3480  2.3520 -999.25  79.925  6.9108 
  1.7656 -999.25  0.0000  125.28 -999.25  2.3480  2.3520 -999.25 -999.25 
  2.3520  2.3480  1.7656  74.156 -999.25 
  2153.500 
  80.890  6.8480  0.5280 -999.25 -0.0120  119.43  68.932  19.046  9.3178 
  6.2855 -999.25 -999.25 -999.25  2.4210  2.4390 -999.25  79.664  6.8893 
  1.7661 -999.25 -0.0043  122.83 -999.25  2.4210  2.4390 -999.25 -999.25 
  2.4390  2.4210  1.7661  73.843 -999.25 
  2154.000 
  82.803  6.8000  0.5180 -999.25 -0.0090  118.68  69.003  18.341  10.008 
  6.2849 -999.25 -999.25 -999.25  2.4700  2.4790 -999.25  81.024  6.8446 
  1.7800 -999.25 -0.0118  119.61 -999.25  2.4700  2.4790 -999.25 -999.25 
  2.4790  2.4700  1.7800  74.955 -999.25 
  2154.500 
  82.807  6.8050  0.5180 -999.25 -0.0050  118.20  69.073  17.752  10.756 
  6.2843 -999.25 -999.25 -999.25  2.5620  2.5710 -999.25  82.803  6.8005 
  1.7953 -999.25 -0.0086  118.73 -999.25  2.5620  2.5710 -999.25 -999.25 
  2.5710  2.5620  1.7953  76.451 -999.25 
  2155.000 
  81.539  6.8210  0.5190 -999.25 -0.0010  116.25  69.143  17.425  11.717 
  6.2837 -999.25 -999.25 -999.25  2.6610  2.8370 -999.25  82.640  6.8071 
  1.7951 -999.25 -0.0045  118.23 -999.25  2.6610  2.8370 -999.25 -999.25 
  2.8370  2.6610  1.7951  76.323 -999.25 
  2155.500 
  80.191  6.9120  0.5150 -999.25 -0.0030  115.40  69.213  17.423  12.460 
  6.2831 -999.25 -999.25 -999.25  2.9000  3.0970 -999.25  81.321  6.8357 
  1.7947 -999.25 -0.0013  116.40 -999.25  2.9000  3.0970 -999.25 -999.25 
  3.0970  2.9000  1.7947  75.200 -999.25 
  2156.000 
  80.434  6.9920  0.4990 -999.25 -0.0020  114.78  69.284  18.288  13.120 
  6.2825 -999.25 -999.25 -999.25  3.1020  3.2830 -999.25  80.238  6.9274 
  1.8053 -999.25 -0.0028  115.47 -999.25  3.1020  3.2830 -999.25 -999.25 
  3.2830  3.1020  1.8053  74.500 -999.25 
  2156.500 
  80.756  6.9640  0.4940 -999.25  0.0000  115.81  69.354  19.015  13.618 
  6.2819 -999.25 -999.25 -999.25  3.2170  3.4420 -999.25  80.506  6.9857 
  1.8285 -999.25 -0.0016  114.84 -999.25  3.2170  3.4420 -999.25 -999.25 
  3.4420  3.2170  1.8285  74.941 -999.25 
  2157.000 
  79.885  6.9410  0.4930 -999.25  0.0050  116.48  121.04  20.295  14.099 
  6.2813 -999.25 -999.25 -999.25  3.2760  3.5300 -999.25  80.535  6.9582 
  1.8353 -999.25  0.0013  115.71 -999.25  3.2760  3.5300 -999.25 -999.25 
  3.5300  3.2760  1.8353  74.877 -999.25 
  2157.500 
  77.345  6.9250  0.5030 -999.25  0.0110  116.36  121.05  20.957  14.355 
  6.2807 -999.25 -999.25 -999.25  3.2810  3.4600 -999.25  79.161  6.9364 
  1.8319 -999.25  0.0067  116.41 -999.25  3.2810  3.4600 -999.25 -999.25 
  3.4600  3.2810  1.8319  73.530 -999.25 
  2158.000 
  77.826  6.9010  0.5200 -999.25  0.0120  115.76  121.05  20.334  14.287 
  6.2801 -999.25 -999.25 -999.25  3.2510  3.3720 -999.25  77.497  6.9174 
  1.8112 -999.25  0.0113  116.38 -999.25  3.2510  3.3720 -999.25 -999.25 
  3.3720  3.2510  1.8112  71.924 -999.25 
  2158.500 
  84.350  6.8460  0.5240 -999.25  0.0050  114.99  121.06  19.854  14.157 
  6.2795 -999.25 -999.25 -999.25  3.2270  3.2620 -999.25  80.085  6.8820 
  1.7897 -999.25  0.0096  115.84 -999.25  3.2270  3.2620 -999.25 -999.25 
  3.2620  3.2270  1.7897  74.209 -999.25 
