~Version Information
VERS.                     2.0: CWLS log ASCII Standard Version 2.00
WRAP.                     YES: Multiple lines per depth step
~Well Information Block
#MNEM.UNIT                               Data Type  Information
#---------                               ---------  -----------
STRT.FT                                   120.0000:
STOP.FT                                  3000.0000:
STEP.FT                                     0.5000:
NULL.                 -999.25                     :
COMP.                                             :COMPANY            
WELL.     LOS LOBOS 62X-30                        :WELL               
FLD .                                             :FIELD              
CTRY.                                             :COUNTRY            
STAT.                                             :STATE              
LOC .                                             :LOCATION           
UWI .                                             :UNIQUE WELL ID     
SRVC.                                             :Service company    
DATE.                                             :LOG DATE           
~Curve Information
#MNEM.UNIT           API CODE  Curve Description
#---------           --------  -----------------
DEPT.FT                      :   1 DEPTH
CALI.IN                      :   2
GR  .GAPI                    :   3
NPHI.PU-S                    :   4
DPHI.PU-S                    :   5
DRHO.G/C3                    :   6
SP  .MV                      :   7
ILD .OHMM                    :   8
ILM .OHMM                    :   9
LL8U.OHMM                    :  10
DT  .US/F                    :  11
ROP .                        :  12
GASR.                        :  13
C1R .                        :  14
C2R .                        :  15
C3R .                        :  16
C4R .                        :  17
KSCI.                        :  18
PSCI.                        :  19
OSCI.                        :  20
WSCI.                        :  21
KWCI.                        :  22
PWCI.                        :  23
OWCI.                        :  24
WWCI.                        :  25
ROBS.G/C3                    :  26
NPHS.PU-S                    :  27
PWCL.                        :  28
OWCL.                        :  29
WWCL.                        :  30
KWCL.                        :  31
VCLD.                        :  32
VCLW.                        :  33
VSHL.                        :  34
PHIE.                        :  35
PHIT.                        :  36
SWE .                        :  37
SWT .                        :  38
SWTU.                        :  39
RMAT.                        :  40
BVWE.                        :  41
RHOB.G/C3                    :  42
CALS.IN                      :  43
DTS .US/F                    :  44
SBL .MV                      :  45
RD  .OHMM                    :  46
RM  .OHMM                    :  47
RS  .OHMM                    :  48
DPHI.                        :  49
GRC .GAPI                    :  50
NPHC.PU-S                    :  51
LL8C.OHMM                    :  52
ILDC.OHMM                    :  53
ILMC.OHMM                    :  54
ROBC.G/C3                    :  55
~A
# ...
  1974.000 
  11.079  121.53  0.5430  0.5570  0.0050 -47.942  2.2370  2.1140  2.1970 
  132.21  34.974  2.8450  6.7860  0.2700 -999.25 -999.25 -999.25 -999.25 
 -999.25 -999.25 -999.25 -999.25 -999.25 -999.25  1.7219  0.5564 -999.25 
 -999.25 -999.25 -999.25  0.2979  0.5313  0.7521  0.2479  0.4813  0.4488 
  0.7161  0.7161  2.3202  0.1113  1.7310  11.250  128.33 -15.942  2.2370 
  2.1140  2.1970  0.5610  138.29  0.5428  2.1970  2.2365  2.1352  1.7376 
  1974.500 
  11.043  120.65  0.5370  0.5540  0.0050 -48.212  2.1740  2.0620  2.1580 
  128.86  39.055  2.8560  6.7860 -999.25 -999.25 -999.25 -999.25 -999.25 
 -999.25 -999.25 -999.25 -999.25 -999.25 -999.25  1.7291  0.5488 -999.25 
 -999.25 -999.25 -999.25  0.2617  0.4663  0.7292  0.2708  0.4754  0.5643 
  0.7518  0.7518  2.3084  0.1528  1.7359  11.105  127.74 -16.212  2.1740 
  2.0620  2.1580  0.5560  137.13  0.5344  2.1580  2.1734  2.0811  1.7439 
  1975.000 
  10.991  118.20  0.5060  0.5520  0.0040 -48.324  2.0970  2.0150  2.1240 
  128.03  39.316  2.8670  6.7860 -999.25 -999.25 -999.25 -999.25 -999.25 
 -999.25 -999.25 -999.25 -999.25 -999.25 -999.25  1.7350  0.5423 -999.25 
 -999.25 -999.25 -999.25  0.2418  0.4309  0.6767  0.2771  0.4662  0.6421 
  0.7873  0.7873  2.3084  0.1779  1.7392  11.050  128.70 -16.324  2.0970 
  2.0150  2.1240  0.5534  134.65  0.5272  2.1240  2.0964  2.0329  1.7493 
  1975.500 
  10.924  109.63  0.5050  0.5510  0.0030 -48.318  2.0520  1.9400  2.0980 
  127.60  39.341  2.8670  6.7850 -999.25 -999.25 -999.25 -999.25 -999.25 
 -999.25 -999.25 -999.25 -999.25 -999.25 -999.25  1.7386  0.5301 -999.25 
 -999.25 -999.25 -999.25  0.2253  0.4016  0.4828  0.2811  0.4575  0.7181 
  0.8267  0.8267  2.3138  0.2019  1.7409  11.001  130.58 -16.318  2.0520 
  1.9400  2.0980  0.5517  126.88  0.5138  2.0980  2.0514  1.9563  1.7526 
  1976.000 
  10.974  105.13  0.5220  0.5510  0.0010 -48.194  2.0230  1.8950  2.0760 
  129.21  39.363  2.8660  6.7850 -999.25 -999.25 -999.25 -999.25 -999.25 
 -999.25 -999.25 -999.25 -999.25 -999.25 -999.25  1.7405  0.5101 -999.25 
 -999.25 -999.25 -999.25  0.2102  0.3748  0.4505  0.2886  0.4532  0.7596 
  0.8469  0.8469  2.3181  0.2192  1.7409  10.937  132.02 -16.194  2.0230 
  1.8950  2.0760  0.5510  120.23  0.4918  2.0760  2.0224  1.9102  1.7542 
  1976.500 
  10.953  104.72  0.5520  0.5540 -0.0020 -48.188  2.0200  1.8820  2.0610 
  131.13  39.385  2.8650  6.7890 -999.25 -999.25 -999.25 -999.25 -999.25 
 -999.25 -999.25 -999.25 -999.25 -999.25 -999.25  1.7409  0.5090 -999.25 
 -999.25 -999.25 -999.25  0.1883  0.3358  0.5359  0.3107  0.4582  0.7742 
  0.8469  0.8469  2.3207  0.2405  1.7359  10.964  133.38 -16.188  2.0200 
  1.8820  2.0610  0.5518  118.43  0.4907  2.0610  2.0194  1.8971  1.7547 
  1977.000 
  10.807  104.32  0.5510  0.5590 -0.0030 -47.985  2.0100  1.9000  2.0580 
  132.34  39.413  2.8580  6.7940 -999.25 -999.25 -999.25 -999.25 -999.25 
 -999.25 -999.25 -999.25 -999.25 -999.25 -999.25  1.7370  0.5260 -999.25 
 -999.25 -999.25 -999.25  0.1799  0.3208  0.6767  0.3233  0.4642  0.7796 
  0.8465  0.8465  2.3213  0.2520  1.7277  10.957  134.59 -15.985  2.0100 
  1.9000  2.0580  0.5553  117.95  0.5093  2.0580  2.0094  1.9154  1.7507 
  1977.500 
  10.622  101.86  0.5650  0.5610 -0.0030 -47.663  2.0150  1.9680  2.0630 
  133.71  39.442  2.8390  6.7930 -999.25 -999.25 -999.25 -999.25 -999.25 
 -999.25 -999.25 -999.25 -999.25 -999.25 -999.25  1.7294  0.5471 -999.25 
 -999.25 -999.25 -999.25  0.1683  0.3001  0.6646  0.3354  0.4671  0.7711 
  0.8356  0.8356  2.3179  0.2586  1.7244  10.839  135.58 -15.663  2.0150 
  1.9680  2.0630  0.5595  115.57  0.5324  2.0630  2.0143  1.9837  1.7425 
  1978.000 
  10.519  101.06  0.5810  0.5520 -0.0030 -47.303  2.0980  2.0710  2.0940 
  134.83  39.474  2.8320  6.7930 -999.25 -999.25 -999.25 -999.25 -999.25 
 -999.25 -999.25 -999.25 -999.25 -999.25 -999.25  1.7251  0.5540 -999.25 
 -999.25 -999.25 -999.25  0.1588  0.2831  0.6563  0.3437  0.4680  0.7500 
  0.8164  0.8164  2.3150  0.2578  1.7392  10.663  134.02 -15.303  2.0980 
  2.0710  2.0940  0.5588  113.41  0.5399  2.0940  2.0971  2.0871  1.7370 
  1978.500 
  10.491  101.21  0.5420  0.5410 -0.0010 -46.981  2.2570  2.2360  2.1960 
  135.76  39.498  2.7710  6.8030 -999.25 -999.25 -999.25 -999.25 -999.25 
 -999.25 -999.25 -999.25 -999.25 -999.25 -999.25  1.7358  0.5657 -999.25 
 -999.25 -999.25 -999.25  0.1532  0.2731  0.6482  0.3518  0.4717  0.7249 
  0.7948  0.7948  2.3076  0.2550  1.7574  10.543  130.45 -14.981  2.2570 
  2.2360  2.1960  0.5494  112.76  0.5527  2.1960  2.2559  2.2538  1.7469 
  1979.000 
  10.576  97.969  0.5110  0.5360  0.0030 -46.897  2.4900  2.5730  2.3620 
  133.66  39.527  2.7470  6.8020 -999.25 -999.25 -999.25 -999.25 -999.25 
 -999.25 -999.25 -999.25 -999.25 -999.25 -999.25  1.7531  0.5711 -999.25 
 -999.25 -999.25 -999.25  0.1500  0.2672  0.6385  0.3615  0.4788  0.6846 
  0.7618  0.7618  2.3062  0.2475  1.7656  10.498  122.96 -14.897  2.4900 
  2.5730  2.3620  0.5399  110.44  0.5585  2.3620  2.4886  2.5961  1.7639 
  1979.500 
  10.603  90.414  0.4960  0.5320  0.0080 -47.009  2.7780  2.9500  2.4060 
  129.90  37.884  2.6980  6.7870 -999.25 -999.25 -999.25 -999.25 -999.25 
 -999.25 -999.25 -999.25 -999.25 -999.25 -999.25  1.7636  0.5437 -999.25 
 -999.25 -999.25 -999.25  0.1336  0.2382  0.6288  0.3712  0.4757  0.6591 
  0.7340  0.7340  2.3124  0.2447  1.7722  10.556  116.54 -15.009  2.7780 
  2.9500  2.4060  0.5351  104.15  0.5286  2.4060  2.7764  2.9813  1.7748 
  1980.000 
  10.528  84.822  0.4650  0.5260  0.0110 -47.397  3.0540  3.2550  2.3640 
  122.00  33.145  2.6550  6.3160 -999.25 -999.25 -999.25 -999.25 -999.25 
 -999.25 -999.25 -999.25 -999.25 -999.25 -999.25  1.7706  0.5144 -999.25 
 -999.25 -999.25 -999.25  0.1067  0.1905  0.6278  0.3722  0.4560  0.7035 
  0.7580  0.7580  2.3390  0.2618  1.7821  10.596  112.88 -15.397  3.0540 
  3.2550  2.3640  0.5308  97.250  0.4964  2.3640  3.0521  3.2938  1.7820 
  1980.500 
  10.483  78.119  0.4390  0.5240  0.0060 -47.831  3.2910  3.4820  2.5330 
  115.95  31.501  2.6000  6.2140 -999.25 -999.25 -999.25 -999.25 -999.25 
 -999.25 -999.25 -999.25 -999.25 -999.25 -999.25  1.7796  0.4941 -999.25 
 -999.25 -999.25 -999.25  0.0709  0.1268  0.5175  0.3839  0.4398  0.7146 
  0.7509  0.7509  2.3654  0.2743  1.7854  10.547  110.87 -15.831  3.2910 
  3.4820  2.5330  0.5256  90.214  0.4742  2.5330  3.2887  3.5255  1.7907 
  1981.000 
  10.572  73.929  0.4260  0.5230  0.0030 -48.147  3.4760  3.6110  3.1680 
  112.64  31.054  2.5510  6.2230 -999.25 -999.25 -999.25  1.3000  45.500 
  1.5000  60.600 -999.25 -999.25 -999.25 -999.25  1.7846  0.4675 -999.25 
 -999.25 -999.25 -999.25  0.0377  0.0674  0.1819  0.3987  0.4284  0.7470 
  0.7645  0.7645  2.3783  0.2978  1.7871  10.495  109.35 -16.147  3.4760 
  3.6110  3.1680  0.5238  84.288  0.4449  3.1680  3.4734  3.6566  1.7953 
  1981.500 
  10.630  79.477  0.4230  0.5210  0.0080 -48.107  3.6580  3.6440  3.4570 
  110.78  31.078  2.5150  6.2230 -999.25 -999.25 -999.25 -999.25 -999.25 
 -999.25 -999.25 -999.25 -999.25 -999.25 -999.25  1.7866  0.4427 -999.25 
 -999.25 -999.25 -999.25  0.0218  0.0390  0.0467  0.4046  0.4218  0.7502 
  0.7604  0.7604  2.3831  0.3035  1.7904  10.549  110.20 -16.107  3.6580 
  3.6440  3.4570  0.5226  85.894  0.4178  3.4570  3.6552  3.6917  1.7978 
  1982.000 
  10.467  83.769  0.4310  0.5120  0.0140 -47.673  3.8980  3.6050  3.3770 
  109.31  31.582  2.4840  6.2230 -999.25 -999.25 -999.25 -999.25 -999.25 
 -999.25 -999.25 -999.25 -999.25 -999.25 -999.25  1.7895  0.4284 -999.25 
 -999.25 -999.25 -999.25  0.0071  0.0127  0.0152  0.4110  0.4166  0.7305 
  0.7341  0.7341  2.3859  0.3002  1.8052  10.614  110.52 -15.673  3.8980 
  3.6050  3.3770  0.5195  91.430  0.4022  3.3770  3.8949  3.6531  1.8010 
  1982.500 
  10.372  87.197  0.4460  0.5010  0.0180 -47.476  4.0210  3.5340  3.2860 
  110.20  31.608  2.4410  6.2200 -999.25 -999.25 -999.25 -999.25 -999.25 
 -999.25 -999.25 -999.25 -999.25 -999.25 -999.25  1.8011  0.4246 -999.25 
 -999.25 -999.25 -999.25  0.0111  0.0199  0.0238  0.4055  0.4143  0.6972 
  0.7036  0.7036  2.3948  0.2827  1.8234  10.512  110.01 -15.476  4.0210 
  3.5340  3.2860  0.5103  95.341  0.3980  3.2860  4.0175  3.5780  1.8120 
