~Version Information
VERS.                     2.0: CWLS log ASCII Standard Version 2.00
WRAP.                     YES: Multiple lines per depth step
~Well Information Block
#MNEM.UNIT                               Data Type  Information
#---------                               ---------  -----------
STRT.FT                                   100.0000:
STOP.FT                                  3000.0000:
STEP.FT                                     0.5000:
NULL.                 -999.25                     :
COMP.                                             :COMPANY            
WELL.     LOS LOBOS 51X-30                        :WELL               
FLD .                                             :FIELD              
CTRY.                                             :COUNTRY            
STAT.                                             :STATE              
LOC .                                             :LOCATION           
UWI .                                             :UNIQUE WELL ID     
SRVC.                                             :Service company    
DATE.                                             :LOG DATE           
~Curve Information
#MNEM.UNIT           API CODE  Curve Description
#---------           --------  -----------------
DEPT.FT                      :   1 DEPTH
GR  .GAPI                    :   2
CALI.IN                      :   3
DPHI.PU-S                    :   4
NPHI.PU-S                    :   5
DRHO.G/C3                    :   6
DT  .US/F                    :   7
ROP .                        :   8
GAS .                        :   9
CGAS.                        :  10
C1R .                        :  11
C2R .                        :  12
C3R .                        :  13
SP  .MV                      :  14
ILD .OHMM                    :  15
ILM .OHMM                    :  16
SFLU.OHMM                    :  17
GRS .GAPI                    :  18
CALS.IN                      :  19
ROBS.G/C3                    :  20
NPHS.PU-S                    :  21
DROS.G/C3                    :  22
DTS .US/F                    :  23
SBL .MV                      :  24
 RD .OHMM                    :  25
RM  .OHMM                    :  26
RS  .OHMM                    :  27
SFLU.OHMM                    :  28
ILMC.OHMM                    :  29
ILDC.OHMM                    :  30
ROBC.G/C3                    :  31
GRC .GAPI                    :  32
NPHC.PU-S                    :  33
~A
# ...
  1941.500 
  110.08  7.0150  0.4800 -999.25 -0.0050  142.08  49.129  15.193  7.7122 
  4.0678 -999.25 -999.25 -999.25  2.3930  2.2330 -999.25  99.324  6.8515 
  1.8438 -999.25 -0.0003  141.70 -999.25  2.3930  2.2330 -999.25 -999.25 
  2.2330  2.3930  1.8438  91.912 -999.25 
  1942.000 
  100.93  6.9670  0.4800 -999.25 -0.0010  141.52  49.078  14.716  7.7910 
  4.0663 -999.25 -999.25 -999.25  2.4280  2.2450 -999.25  97.393  6.7946 
  1.8371 -999.25 -0.0060  140.08 -999.25  2.4280  2.2450 -999.25 -999.25 
  2.2450  2.4280  1.8371  89.898 -999.25 
  1942.500 
  99.735  6.8760  0.4870 -999.25  0.0020  139.38  49.027  15.249  7.7899 
  4.0649 -999.25 -999.25 -999.25  2.5050  2.3110 -999.25  92.680  6.7798 
  1.8343 -999.25 -0.0070  137.38 -999.25  2.5050  2.3110 -999.25 -999.25 
  2.3110  2.5050  1.8343  85.491 -999.25 
  1943.000 
  98.459  6.8000  0.4920 -999.25 -0.0050  136.35  48.975  15.909  8.3621 
  4.0634 -999.25 -999.25 -999.25  2.5930  2.3450 -999.25  83.424  6.7691 
  1.8344 -999.25 -0.0043  134.64 -999.25  2.5930  2.3450 -999.25 -999.25 
  2.3450  2.5930  1.8344  76.916 -999.25 
  1943.500 
  95.275  6.7840  0.4940 -999.25 -0.0080  133.71  48.924  17.283  8.8961 
  4.0620 -999.25 -999.25 -999.25  2.6850  2.4510 -999.25  73.263  6.7655 
  1.8372 -999.25 -0.0008  132.34 -999.25  2.6850  2.4510 -999.25 -999.25 
  2.4510  2.6850  1.8372  67.537 -999.25 
  1944.000 
  87.797  6.7720  0.4950 -999.25 -0.0050  131.54  48.872  18.930  9.7597 
  4.0605 -999.25 -999.25 -999.25  2.8150  2.5980 -999.25  67.369  6.7645 
  1.8401 -999.25  0.0030  130.29 -999.25  2.8150  2.5980 -999.25 -999.25 
  2.5980  2.8150  1.8401  62.101 -999.25 
  1944.500 
  75.629  6.7640  0.4930 -999.25 -0.0030  129.52  48.821  21.097  10.803 
  4.0591 -999.25 -999.25 -999.25  2.9850  2.7650 -999.25  63.730  6.7527 
  1.8464 -999.25  0.0002  127.86 -999.25  2.9850  2.7650 -999.25 -999.25 
  2.7650  2.9850  1.8464  58.715 -999.25 
  1945.000 
  69.264  6.7680  0.4920 -999.25  0.0030  126.78  48.770  25.838  11.604 
  4.0584 -999.25 -999.25 -999.25  3.1360  3.0290 -999.25  63.562  6.7365 
  1.8541 -999.25 -0.0036  125.76 -999.25  3.1360  3.0290 -999.25 -999.25 
  3.0290  3.1360  1.8541  58.518 -999.25 
  1945.500 
  64.331  6.7590  0.4890 -999.25  0.0030  125.06  48.718  50.883  12.175 
  7.2276 -999.25 -999.25 -999.25  3.4550  3.3000 -999.25  67.050  6.7219 
  1.8580 -999.25 -0.0017  121.30 -999.25  3.4550  3.3000 -999.25 -999.25 
  3.3000  3.4550  1.8580  61.689 -999.25 
  1946.000 
  62.816  6.7430  0.4840 -999.25 -0.0040  118.61  41.104  61.934  12.849 
  7.2254 -999.25 -999.25 -999.25  3.6760  3.7440 -999.25  73.117  6.7167 
  1.8559 -999.25  0.0009  114.94 -999.25  3.6760  3.7440 -999.25 -999.25 
  3.7440  3.6760  1.8559  67.255 -999.25 
  1946.500 
  64.641  6.7270  0.4800 -999.25 -0.0030  112.15  41.338  68.242  13.408 
  7.2233 -999.25 -999.25 -999.25  3.8340  4.0640 -999.25  77.815  6.7190 
  1.8494 -999.25  0.0002  110.95 -999.25  3.8340  4.0640 -999.25 -999.25 
  4.0640  3.8340  1.8494  71.584 -999.25 
  1947.000 
  70.362  6.7150  0.4800 -999.25  0.0000  109.99  41.498  66.738  13.727 
  7.2212 -999.25 -999.25 -999.25  4.0870  4.0640 -999.25  79.760  6.7185 
  1.8425 -999.25 -0.0025  108.97 -999.25  4.0870  4.0640 -999.25 -999.25 
  4.0640  4.0870  1.8425  73.371 -999.25 
  1947.500 
  76.718  6.7190  0.4830 -999.25  0.0020  108.11  41.668  59.537  14.063 
  7.2191 -999.25 -999.25 -999.25  4.3010  4.1620 -999.25  80.595  6.7218 
  1.8383 -999.25 -0.0035  107.52 -999.25  4.3010  4.1620 -999.25 -999.25 
  4.1620  4.3010  1.8383  74.150 -999.25 
  1948.000 
  79.179  6.7190  0.4880 -999.25 -0.0020  107.00  26.892  46.316  14.208 
  7.2169 -999.25 -999.25 -999.25  4.3480  4.3010 -999.25  79.262  6.7299 
  1.8366 -999.25 -0.0045  107.42 -999.25  4.3480  4.3010 -999.25 -999.25 
  4.3010  4.3480  1.8366  72.951 -999.25 
  1948.500 
  80.447  6.7180  0.4910 -999.25 -0.0030  107.81  26.878  39.699  13.769 
  7.2148 -999.25 -999.25 -999.25  4.2770  4.3640 -999.25  75.962  6.7498 
  1.8374 -999.25 -0.0045  108.11 -999.25  4.2770  4.3640 -999.25 -999.25 
  4.3640  4.2770  1.8374  69.975 -999.25 
  1949.000 
  80.762  6.7260  0.4930 -999.25 -0.0040  108.41  26.864  24.644  13.149 
  7.2127 -999.25 -999.25 -999.25  4.1540  4.3480 -999.25  75.365  6.7741 
  1.8390 -999.25 -0.0015  108.74 -999.25  4.1540  4.3480 -999.25 -999.25 
  4.3480  4.1540  1.8390  69.501 -999.25 
  1949.500 
  77.657  6.7340  0.4930 -999.25 -0.0050  109.09  34.729  15.337  12.575 
  7.2106 -999.25 -999.25 -999.25  3.9540  4.2850 -999.25  75.884  6.7862 
  1.8467 -999.25  0.0010  109.63 -999.25  3.9540  4.2850 -999.25 -999.25 
  4.2850  3.9540  1.8467  70.018 -999.25 
  1950.000 
  74.234  6.7660  0.4920 -999.25 -0.0040  110.22  34.523  14.198  12.001 
  7.2084 -999.25 -999.25 -999.25  3.8200  4.0490 -999.25  74.293  6.7879 
  1.8574 -999.25  0.0026  111.22 -999.25  3.8200  4.0490 -999.25 -999.25 
  4.0490  3.8200  1.8574  68.555 -999.25 
  1950.500 
  76.462  6.7820  0.4910 -999.25  0.0010  112.38  34.318  14.837  11.392 
  7.2063 -999.25 -999.25 -999.25  3.8610  4.1240 -999.25  72.716  6.7795 
  1.8586 -999.25  0.0051  112.13 -999.25  3.8610  4.1240 -999.25 -999.25 
  4.1240  3.8610  1.8586  67.074 -999.25 
  1951.000 
  75.351  6.7900  0.4830 -999.25  0.0010  111.83  34.112  16.230  11.136 
  4.1357 -999.25 -999.25 -999.25  3.7700  4.1990 -999.25  71.820  6.7740 
  1.8536 -999.25  0.0027  111.23 -999.25  3.7700  4.1990 -999.25 -999.25 
  4.1990  3.7700  1.8536  66.232 -999.25 
  1951.500 
  73.364  6.7860  0.4780 -999.25  0.0040  110.48  33.906  17.068  10.977 
  4.1315 -999.25 -999.25 -999.25  3.6680  4.2060 -999.25  70.635  6.7672 
  1.8523 -999.25 -0.0006  109.61 -999.25  3.6680  4.2060 -999.25 -999.25 
  4.2060  3.6680  1.8523  65.119 -999.25 
  1952.000 
  72.174  6.7740  0.4810 -999.25  0.0060  108.43  33.754  17.652  10.889 
  4.1274 -999.25 -999.25 -999.25  3.7210  4.1910 -999.25  69.166  6.7597 
  1.8540 -999.25 -0.0004  108.41 -999.25  3.7210  4.1910 -999.25 -999.25 
  4.1910  3.7210  1.8540  63.743 -999.25 
  1952.500 
  71.539  6.7740  0.4840 -999.25  0.0000  108.37  61.508  17.937  11.395 
  4.1232 -999.25 -999.25 -999.25  3.8450  4.1370 -999.25  69.121  6.7628 
  1.8547 -999.25  0.0000  109.01 -999.25  3.8450  4.1370 -999.25 -999.25 
  4.1370  3.8450  1.8547  63.711 -999.25 
  1953.000 
  69.951  6.7620  0.4830 -999.25 -0.0010  109.96  61.260  18.503  11.875 
  4.1191 -999.25 -999.25 -999.25  3.9880  4.1140 -999.25  68.851  6.7903 
  1.8497 -999.25  0.0006  110.42 -999.25  3.9880  4.1140 -999.25 -999.25 
  4.1140  3.9880  1.8497  63.540 -999.25 
  1953.500 
  68.601  6.7580  0.4820 -999.25  0.0000  111.15  61.012  19.526  12.369 
  4.1149 -999.25 -999.25 -999.25  4.0610  4.0690 -999.25  70.709  6.8332 
  1.8291 -999.25  0.0004  111.23 -999.25  4.0610  4.0690 -999.25 -999.25 
  4.0690  4.0610  1.8291  65.380 -999.25 
  1954.000 
  69.477  6.7660  0.4820 -999.25  0.0000  111.37  60.763  21.778  12.889 
  4.1107 -999.25 -999.25 -999.25  4.0680  4.0240 -999.25  76.521  6.8651 
  1.8163 -999.25 -0.0013  111.13 -999.25  4.0680  4.0240 -999.25 -999.25 
  4.0240  4.0680  1.8163  70.854 -999.25 
  1954.500 
  68.445  6.8060  0.4870 -999.25  0.0010  110.72  60.542  26.667  13.333 
  4.1066 -999.25 -999.25 -999.25  4.0090  3.9220 -999.25  83.964  6.9223 
  1.8204 -999.25 -0.0026  110.13 -999.25  4.0090  3.9220 -999.25 -999.25 
  3.9220  4.0090  1.8204  77.943 -999.25 
  1955.000 
  72.104  6.8500  0.5040 -999.25  0.0000  109.03  79.368  30.354  13.637 
  4.1024 -999.25 -999.25 -999.25  3.9290  3.8150 -999.25  90.100  6.9700 
  1.8298 -999.25 -0.0030  108.80 -999.25  3.9290  3.8150 -999.25 -999.25 
  3.8150  3.9290  1.8298  83.814 -999.25 
  1955.500 
  79.102  6.8740  0.5060 -999.25 -0.0020  108.36  79.320  33.191  13.916 
  4.0969 -999.25 -999.25 -999.25  3.8220  3.5790 -999.25  94.086  6.9890 
  1.8509 -999.25 -0.0023  109.03 -999.25  3.8220  3.5790 -999.25 -999.25 
  3.5790  3.8220  1.8509  87.595 -999.25 
