~Version Information
VERS.                     2.0: CWLS log ASCII Standard Version 2.00
WRAP.                      NO: One line per depth step
~Well Information Block
#MNEM.UNIT                               Data Type  Information
#---------                               ---------  -----------
STRT.FT                                   318.0000:
STOP.FT                                  2700.0000:
STEP.FT                                     0.5000:
NULL.                 -999.25                     :
COMP.                                             :COMPANY            
WELL.     LOS LOBOS 82X-30                        :WELL               
FLD .                                             :FIELD              
CTRY.                                             :COUNTRY            
STAT.                                             :STATE              
LOC .                                             :LOCATION           
UWI .                                             :UNIQUE WELL ID     
SRVC.                                             :Service company    
DATE.                                             :LOG DATE           
~Curve Information
#MNEM.UNIT           API CODE  Curve Description
#---------           --------  -----------------
DEPT.FT                      :   1 DEPTH
SP  .MV                      :   2
ILD .OHMM                    :   3
ILM .OHMM                    :   4
SFLU.OHMM                    :   5
CALI.IN                      :   6
GR  .GAPI                    :   7
NPHI.PU-S                    :   8
DPHI.PU-S                    :   9
DRHO.G/C3                    :  10
CALI.IN                      :  11
DT  .US/F                    :  12
SBL .MV                      :  13
RS  .OHMM                    :  14
RM  .OHMM                    :  15
RD  .OHMM                    :  16
DTS .US/F                    :  17
CALS.IN                      :  18
RHOB.G/C3                    :  19
ROBS.G/C3                    :  20
DROS.G/C3                    :  21
CALS.IN                      :  22
GRS .GAPI                    :  23
NPHS.PU-S                    :  24
SFLU.OHMM                    :  25
ILMC.OHMM                    :  26
ILDC.OHMM                    :  27
ROBC.G/C3                    :  28
GRC .GAPI                    :  29
NPHC.PU-S                    :  30
~A
# ...
  1110.000 -52.251  2.7840  2.7460  2.4000  13.272  57.784  0.4320  0.3540  0.1270  13.046  136.02 -3.9177  2.4000  2.7460  2.7840  137.24  13.030  2.0659  2.0704  0.1264  13.293  57.855  0.4320  2.7380  2.7725  2.7887  2.0972  65.508  0.4094 
  1110.500 -52.418  2.7670  2.7330  2.4170  13.339  58.062  0.4440  0.3640  0.0850  13.057  135.21 -4.0739  2.4170  2.7330  2.7670  137.08  13.036  2.0494  2.0529  0.0938  13.325  58.131  0.4440  2.7591  2.7594  2.7718  2.0799  65.873  0.4227 
  1111.000 -52.585  2.7510  2.7060  2.4790  13.407  58.339  0.4400  0.3540  0.0670  13.101  135.04 -4.2302  2.4790  2.7060  2.7510  135.98  13.047  2.0659  2.0624  0.0708  13.393  58.338  0.4400  2.8346  2.7322  2.7560  2.0897  66.215  0.4183 
  1111.500 -52.754  2.7470  2.6920  2.5420  13.621  58.335  0.4120  0.3380  0.0980  13.138  135.75 -4.3884  2.5420  2.6920  2.7470  135.20  13.059  2.0923  2.0866  0.0913  13.575  58.393  0.4120  2.9157  2.7189  2.7526  2.1148  66.566  0.3874 
  1112.000 -52.965  2.7440  2.6790  2.6110  13.709  58.572  0.3770  0.3340  0.1460  13.151  136.86 -4.5887  2.6110  2.6790  2.7440  135.08  13.103  2.0989  2.0975  0.1356  13.690  58.629  0.3770  3.0020  2.7063  2.7500  2.1262  67.017  0.3488 
  1112.500 -53.052  2.7420  2.6710  2.5540  13.719  58.809  0.3750  0.3430  0.1540  13.148  138.66 -4.6649  2.5540  2.6710  2.7420  135.80  13.139  2.0841  2.0873  0.1522  13.717  58.808  0.3750  2.9351  2.6982  2.7481  2.1161  67.263  0.3466 
  1113.000 -53.138  2.7470  2.6620  2.4980  13.729  58.804  0.3780  0.3680  0.1340  13.125  139.55 -4.7402  2.4980  2.6620  2.7470  136.93  13.151  2.0428  2.0519  0.1384  13.727  58.785  0.3780  2.8688  2.6891  2.7531  2.0808  67.253  0.3500 
  1113.500 -53.225  2.7510  2.6540  2.3890  13.307  58.724  0.3970  0.3860  0.1090  13.108  140.28 -4.8164  2.3890  2.6540  2.7510  138.69  13.147  2.0131  2.0197  0.1146  13.401  58.614  0.3970  2.7285  2.6793  2.7560  2.0471  66.542  0.3708 
  1114.000 -53.312  2.7470  2.6460  2.3600  13.255  58.245  0.4290  0.3940  0.0800  13.091  140.63 -4.8926  2.3600  2.6460  2.7470  139.58  13.124  1.9999  2.0029  0.0865  13.267  57.956  0.4290  2.6900  2.6705  2.7515  2.0296  65.582  0.4061 
  1114.500 -53.444  2.7430  2.6470  2.3310  13.497  56.969  0.4580  0.3870  0.0700  13.086  139.93 -5.0139  2.3310  2.6470  2.7430  140.29  13.107  2.0115  2.0088  0.0723  13.442  57.049  0.4580  2.6611  2.6724  2.7481  2.0364  64.828  0.4382 
  1115.000 -53.489  2.7470  2.6490  2.3540  13.637  57.326  0.4550  0.3740  0.0760  13.081  138.93 -5.0481  2.3540  2.6490  2.7470  140.61  13.091  2.0329  2.0280  0.0746  13.605  57.405  0.4550  2.6934  2.6752  2.7527  2.0563  65.486  0.4349 
  1115.500 -53.534  2.7510  2.6660  2.3770  13.652  57.683  0.4290  0.3620  0.0810  13.080  138.48 -5.0824  2.3770  2.6660  2.7510  139.91  13.086  2.0527  2.0481  0.0798  13.649  57.881  0.4290  2.7221  2.6928  2.7569  2.0766  66.097  0.4062 
  1116.000 -53.546  2.7580  2.6760  2.3930  13.609  58.596  0.4210  0.3610  0.0850  13.079  138.25 -5.0836  2.3930  2.6760  2.7580  138.92  13.081  2.0544  2.0540  0.0841  13.619  58.791  0.4210  2.7402  2.7028  2.7638  2.0823  67.090  0.3974 
  1116.500 -53.558  2.7640  2.6850  2.4100  13.445  59.509  0.4290  0.3650  0.0680  13.076  138.12 -5.0849  2.4100  2.6850  2.7640  138.47  13.080  2.0477  2.0493  0.0720  13.484  59.608  0.4290  2.7560  2.7113  2.7693  2.0771  67.804  0.4062 
  1117.000 -53.544  2.7780  2.7080  2.4310  13.294  59.980  0.4480  0.3640  0.0670  13.069  137.99 -5.0601  2.4310  2.7080  2.7780  138.25  13.079  2.0494  2.0490  0.0672  13.330  59.931  0.4480  2.7758  2.7340  2.7828  2.0760  67.921  0.4271 
  1117.500 -53.530  2.7850  2.7170  2.4340  13.298  59.741  0.4580  0.3620  0.0790  13.062  137.09 -5.0354  2.4340  2.7170  2.7850  138.12  13.076  2.0527  2.0519  0.0761  13.297  59.498  0.4580  2.7782  2.7430  2.7897  2.0788  67.377  0.4381 
  1118.000 -53.505  2.7910  2.7260  2.4380  13.509  58.545  0.4570  0.3590  0.0800  13.059  136.41 -4.9996  2.4380  2.7260  2.7910  137.97  13.069  2.0577  2.0564  0.0798  13.458  58.497  0.4570  2.7883  2.7530  2.7963  2.0841  66.499  0.4371 
  1118.500 -53.471  2.8100  2.7440  2.4570  13.509  58.304  0.4530  0.3670  0.0510  13.055  136.46 -4.9549  2.4570  2.7440  2.8100  137.08  13.062  2.0445  2.0477  0.0581  13.509  58.678  0.4530  2.8125  2.7716  2.8156  2.0756  66.787  0.4327 
  1119.000 -53.438  2.8250  2.7510  2.4770  13.262  60.212  0.4530  0.3680  0.0420  13.045  136.46 -4.9111  2.4770  2.7510  2.8250  136.41  13.059  2.0428  2.0432  0.0442  13.323  60.901  0.4530  2.8298  2.7778  2.8300  2.0702  69.009  0.4326 
  1119.500 -53.450  2.8390  2.7580  2.5020  13.381  63.788  0.4580  0.3630  0.0450  13.048  136.45 -4.9124  2.5020  2.7580  2.8390  136.46  13.055  2.0511  2.0490  0.0443  13.351  64.224  0.4580  2.8603  2.7850  2.8441  2.0761  72.824  0.4382 
  1120.000 -53.416  2.8560  2.7760  2.4970  13.524  66.092  0.4570  0.3550  0.0490  13.051  136.45 -4.8676  2.4970  2.7760  2.8560  136.46  13.045  2.0643  2.0609  0.0480  13.488  66.210  0.4570  2.8592  2.8042  2.8617  2.0887  75.322  0.4371 
  1120.500 -53.382  2.8740  2.7910  2.4370  13.584  66.726  0.4510  0.3490  0.0630  13.045  136.44 -4.8229  2.4370  2.7910  2.8740  136.45  13.048  2.0742  2.0716  0.0594  13.569  66.609  0.4510  2.7908  2.8199  2.8801  2.0998  75.922  0.4305 
  1121.000 -53.352  2.8990  2.8050  2.4490  13.488  66.087  0.4520  0.3410  0.0720  13.040  136.36 -4.7821  2.4490  2.8050  2.8990  136.45  13.051  2.0874  2.0840  0.0697  13.513  65.702  0.4520  2.8032  2.8339  2.9050  2.1119  74.788  0.4316 
  1121.500 -53.323  2.9130  2.8320  2.4890  13.277  63.939  0.4520  0.3350  0.0820  13.037  136.27 -4.7424  2.4890  2.8320  2.9130  136.44  13.045  2.0972  2.0947  0.0794  13.332  63.324  0.4520  2.8442  2.8604  2.9183  2.1217  71.769  0.4315 
  1122.000 -53.214  2.9200  2.8600  2.5530  13.225  60.436  0.4410  0.3370  0.0870  13.034  135.55 -4.6226  2.5530  2.8600  2.9200  136.36  13.040  2.0940  2.0948  0.0857  13.239  60.477  0.4410  2.9163  2.8884  2.9250  2.1214  68.388  0.4193 
  1122.500 -53.280  2.9270  2.8740  2.5920  13.261  60.673  0.4130  0.3430  0.0610  13.041  134.93 -4.6778  2.5920  2.8740  2.9270  136.28  13.037  2.0841  2.0867  0.0678  13.252  61.411  0.4130  2.9627  2.9028  2.9320  2.1133  69.466  0.3884 
  1123.000 -53.346  2.9370  2.8890  2.6320  13.297  65.045  0.4020  0.3430  0.0530  13.048  133.36 -4.7331  2.6320  2.8890  2.9370  135.57  13.034  2.0841  2.0841  0.0551  13.287  65.492  0.4020  3.0112  2.9183  2.9422  2.1109  74.147  0.3763 
  1123.500 -53.836  2.9460  2.8930  2.7030  13.380  67.746  0.3970  0.3370  0.0460  13.051  132.60 -5.2123  2.7030  2.8930  2.9460  134.95  13.041  2.0940  2.0913  0.0479  13.358  67.823  0.3970  3.0978  2.9228  2.9515  2.1185  76.917  0.3708 
  1124.000 -54.202  2.9480  2.8970  2.7170  13.301  68.223  0.3970  0.3340  0.0490  13.054  133.01 -5.5676  2.7170  2.8970  2.9480  133.40  13.048  2.0989  2.0976  0.0482  13.322  67.895  0.3970  3.1128  2.9267  2.9534  2.1246  76.932  0.3708 
  1124.500 -54.052  2.9490  2.8950  2.7320  13.106  66.153  0.4100  0.3310  0.0590  13.051  133.58 -5.4068  2.7320  2.8950  2.9490  132.62  13.051  2.1039  2.1025  0.0563  13.159  65.875  0.4100  3.1236  2.9236  2.9537  2.1287  74.347  0.3851 
  1125.000 -53.902  2.9530  2.8920  2.7250  13.102  64.362  0.4320  0.3290  0.0670  13.050  133.83 -5.2461  2.7250  2.8920  2.9530  133.00  13.054  2.1072  2.1062  0.0648  13.103  64.090  0.4320  3.1130  2.9202  2.9575  2.1322  72.233  0.4094 
  1125.500 -53.754  2.9570  2.8880  2.6840  13.157  62.571  0.4490  0.3280  0.0800  13.049  134.07 -5.0873  2.6840  2.8880  2.9570  133.56  13.051  2.1088  2.1083  0.0764  13.142  62.157  0.4490  3.0665  2.9164  2.9617  2.1345  70.122  0.4281 
  1126.000 -53.601  2.9620  2.8930  2.6300  13.221  59.782  0.4570  0.3280  0.0830  13.066  135.04 -4.9236  2.6300  2.8930  2.9620  133.82  13.050  2.1088  2.1088  0.0822  13.203  59.782  0.4570  3.0055  2.9219  2.9670  2.1352  67.543  0.4370 
