~Version Information
VERS.                     2.0: CWLS log ASCII Standard Version 2.00
WRAP.                     YES: Multiple lines per depth step
~Well Information Block
#MNEM.UNIT                               Data Type  Information
#---------                               ---------  -----------
STRT.FT                                   120.0000:
STOP.FT                                  3000.0000:
STEP.FT                                     0.5000:
NULL.                 -999.25                     :
COMP.                                             :COMPANY            
WELL.     LOS LOBOS 62X-30                        :WELL               
FLD .                                             :FIELD              
CTRY.                                             :COUNTRY            
STAT.                                             :STATE              
LOC .                                             :LOCATION           
UWI .                                             :UNIQUE WELL ID     
SRVC.                                             :Service company    
DATE.                                             :LOG DATE           
~Curve Information
#MNEM.UNIT           API CODE  Curve Description
#---------           --------  -----------------
DEPT.FT                      :   1 DEPTH
CALI.IN                      :   2
GR  .GAPI                    :   3
NPHI.PU-S                    :   4
DPHI.PU-S                    :   5
DRHO.G/C3                    :   6
SP  .MV                      :   7
ILD .OHMM                    :   8
ILM .OHMM                    :   9
LL8U.OHMM                    :  10
DT  .US/F                    :  11
ROP .                        :  12
GASR.                        :  13
C1R .                        :  14
C2R .                        :  15
C3R .                        :  16
C4R .                        :  17
KSCI.                        :  18
PSCI.                        :  19
OSCI.                        :  20
WSCI.                        :  21
KWCI.                        :  22
PWCI.                        :  23
OWCI.                        :  24
WWCI.                        :  25
ROBS.G/C3                    :  26
NPHS.PU-S                    :  27
PWCL.                        :  28
OWCL.                        :  29
WWCL.                        :  30
KWCL.                        :  31
VCLD.                        :  32
VCLW.                        :  33
VSHL.                        :  34
PHIE.                        :  35
PHIT.                        :  36
SWE .                        :  37
SWT .                        :  38
SWTU.                        :  39
RMAT.                        :  40
BVWE.                        :  41
RHOB.G/C3                    :  42
CALS.IN                      :  43
DTS .US/F                    :  44
SBL .MV                      :  45
RD  .OHMM                    :  46
RM  .OHMM                    :  47
RS  .OHMM                    :  48
DPHI.                        :  49
GRC .GAPI                    :  50
NPHC.PU-S                    :  51
LL8C.OHMM                    :  52
ILDC.OHMM                    :  53
ILMC.OHMM                    :  54
ROBC.G/C3                    :  55
~A
# ...
  1641.000 
  11.668  41.183  0.5040  0.5070 -0.0020 -53.697  8.3970  8.3970  9.5050 
  234.83  65.142  4.2810  8.7840  1.8090  0.8860 -999.25 -999.25 -999.25 
 -999.25 -999.25 -999.25 -999.25 -999.25 -999.25  1.8119  0.5148 -999.25 
 -999.25 -999.25 -999.25  0.0224  0.0402  0.4358  0.4029  0.4206  0.4397 
  0.4633  0.4633  2.3882  0.1772  1.8135  11.162  229.59 -21.697  8.3970 
  8.3970  9.5050  0.5073  46.216  0.4971  9.5050  8.3884  8.7310  1.8270 
  1641.500 
  11.877  40.319  0.5290  0.5070 -0.0010 -53.931  7.7500  8.0970  7.8930 
  231.35  64.525  4.2680  8.7690  1.8130  0.9000 -999.25 -999.25 -999.25 
 -999.25 -999.25 -999.25 -999.25 -999.25 -999.25  1.8135  0.5288 -999.25 
 -999.25 -999.25 -999.25  0.0304  0.0544  0.5498  0.3965  0.4206  0.4449 
  0.4767  0.4767  2.3987  0.1764  1.8135  11.685  228.54 -21.931  7.7500 
  8.0970  7.8930  0.5104  47.011  0.5126  7.8930  7.7473  8.4685  1.8317 
  1642.000 
  11.558  39.061  0.5290  0.5080  0.0020 -54.165  7.1270  7.5280  7.7930 
  228.91  63.909  4.2670  8.7630  1.8130  0.9040  0.0770 -999.25 -999.25 
 -999.25 -999.25 -999.25 -999.25 -999.25 -999.25  1.8133  0.5261 -999.25 
 -999.25 -999.25 -999.25  0.0476  0.0853  0.6177  0.3823  0.4201  0.4373 
  0.4878  0.4878  2.4033  0.1672  1.8118  11.846  231.07 -22.165  7.1270 
  7.5280  7.7930  0.5225  45.999  0.5097  7.7930  7.1259  7.8644  1.8325 
  1642.500 
  11.668  40.169  0.5200  0.5180  0.0060 -54.321  6.6260  7.0880  7.8210 
  228.40  63.292  4.2670  8.7580  1.8120  0.9130  0.0810 -999.25 -999.25 
 -999.25 -999.25 -999.25 -999.25 -999.25 -999.25  1.8099  0.5197 -999.25 
 -999.25 -999.25 -999.25  0.0653  0.1170  0.6285  0.3715  0.4233  0.4311 
  0.5006  0.5006  2.4049  0.1602  1.7953  11.571  234.14 -22.321  6.6260 
  7.0880  7.8210  0.5464  45.548  0.5026  7.8210  6.6233  7.3608  1.8275 
  1643.000 
  12.000  44.275  0.5190  0.5450  0.0100 -54.516  6.3080  6.8220  6.7970 
  232.05  62.675  4.2600  8.7570  1.8120  0.9170  0.0900 -999.25 -999.25 
 -999.25 -999.25 -999.25 -999.25 -999.25 -999.25  1.7895  0.5182 -999.25 
 -999.25 -999.25 -999.25  0.0746  0.1337  0.6304  0.3696  0.4288  0.4318 
  0.5102  0.5102  2.4037  0.1596  1.7508  11.711  232.60 -22.516  6.3080 
  6.8220  6.7970  0.5607  48.711  0.5009  6.7970  6.3063  7.0860  1.8079 
  1643.500 
  11.941  47.197  0.5150  0.5610  0.0000 -54.632  6.0380  6.3890  6.2050 
  234.89  62.058  4.4990  8.7710  1.8160  0.9170  0.0940 -999.25 -999.25 
 -999.25 -999.25 -999.25 -999.25 -999.25 -999.25  1.7469  0.5138 -999.25 
 -999.25 -999.25 -999.25  0.0784  0.1406  0.6288  0.3712  0.4334  0.4377 
  0.5184  0.5184  2.4019  0.1625  1.7244  11.991  227.47 -22.632  6.0380 
  6.3890  6.2050  0.5422  53.182  0.4963  6.2050  6.0380  6.6403  1.7669 
  1644.000 
  11.417  46.492  0.5070  0.5410 -0.0090 -54.394  5.9720  6.1940  5.9510 
  231.79  61.441  5.1740  8.7710  1.8250  0.9110  0.0980 -999.25 -999.25 
 -999.25 -999.25 -999.25 -999.25 -999.25 -999.25  1.7297  0.5070 -999.25 
 -999.25 -999.25 -999.25  0.0780  0.1399  0.6265  0.3735  0.4353  0.4355 
  0.5157  0.5157  2.3997  0.1627  1.7574  11.856  220.70 -22.394  5.9720 
  6.1940  5.9510  0.5401  54.316  0.4887  5.9510  5.9713  6.4206  1.7490 
  1644.500 
  11.164  42.709  0.5040  0.5400 -0.0100 -54.155  5.9180  6.1600  6.3310 
  226.00  61.064  6.7400  8.7750  1.8290  0.9100  0.0930 -999.25 -999.25 
 -999.25 -999.25 -999.25 -999.25 -999.25 -999.25  1.7576  0.5057 -999.25 
 -999.25 -999.25 -999.25  0.0729  0.1304  0.6162  0.3838  0.4413  0.4404 
  0.5133  0.5133  2.3718  0.1690  1.7590  11.372  217.82 -22.155  5.9180 
  6.1600  6.3310  0.5392  51.068  0.4872  6.3310  5.9148  6.3518  1.7740 
  1645.000 
  10.956  40.268  0.5140  0.5390 -0.0050 -53.996  5.8650  6.0600  6.4830 
  218.95  81.438  8.5750  8.7890  1.8430  0.9100  0.0920 -999.25 -999.25 
 -999.25 -999.25 -999.25 -999.25 -999.25 -999.25  1.7593  0.5170 -999.25 
 -999.25 -999.25 -999.25  0.0644  0.1149  0.6023  0.3977  0.4482  0.4570 
  0.5182  0.5182  2.3385  0.1817  1.7607  11.123  221.43 -21.996  5.8650 
  6.0600  6.4830  0.5354  47.144  0.4995  6.4830  5.8606  6.2296  1.7742 
  1645.500 
  11.027  43.190  0.5480  0.5340 -0.0010 -53.797  5.7690  5.9180  5.8650 
  217.46  82.408  9.4410  9.7600  1.8430  0.9090  0.0820 -999.25 -999.25 
 -999.25 -999.25 -999.25 -999.25 -999.25 -999.25  1.7624  0.5467 -999.25 
 -999.25 -999.25 -999.25  0.0572  0.1020  0.5949  0.4051  0.4500  0.4765 
  0.5286  0.5286  2.3239  0.1930  1.7689  10.971  223.99 -21.797  5.7690 
  5.9180  5.8650  0.5353  47.060  0.5320  5.8650  5.7640  6.0703  1.7763 
  1646.000 
  11.323  46.428  0.5960  0.5360  0.0020 -53.559  5.7170  5.6240  5.2960 
  222.66  81.944  9.9250  9.7590  6.2190  0.9090  0.2930 -999.25 -999.25 
 -999.25 -999.25 -999.25 -999.25 -999.25 -999.25  1.7681  0.5843 -999.25 
 -999.25 -999.25 -999.25  0.0490  0.0874  0.5932  0.4068  0.4453  0.5181 
  0.5597  0.5597  2.3355  0.2108  1.7656  11.095  221.88 -21.559  5.7170 
  5.6240  5.2960  0.5338  50.708  0.5733  5.2960  5.7127  5.7682  1.7828 
  1646.500 
  11.453  49.588  0.6100  0.5320  0.0040 -53.281  5.4520  5.3340  5.3340 
  224.39  81.956  21.510  9.7590  6.2190  0.9080  0.3120 -999.25 -999.25 
 -999.25 -999.25 -999.25 -999.25 -999.25 -999.25  1.7672  0.6043 -999.25 
 -999.25 -999.25 -999.25  0.0524  0.0936  0.5982  0.4018  0.4430  0.5296 
  0.5734  0.5734  2.3546  0.2128  1.7722  11.355  218.30 -21.281  5.4520 
  5.3340  5.3340  0.5281  54.747  0.5953  5.3340  5.4492  5.4764  1.7835 
  1647.000 
  11.568  53.298  0.6010  0.5240  0.0020 -52.649  5.1910  5.1440  5.2380 
  221.14  81.968  23.477  9.7580  6.2180  0.9170  0.3160 -999.25 -999.25 
 -999.25 -999.25 -999.25 -999.25 -999.25 -999.25  1.7756  0.6020 -999.25 
 -999.25 -999.25 -999.25  0.0645  0.1152  0.6027  0.3973  0.4481  0.5283 
  0.5818  0.5818  2.3587  0.2099  1.7854  11.483  214.27 -20.649  5.1910 
  5.1440  5.2380  0.5211  58.857  0.5929  5.2380  5.1890  5.2822  1.7927 
  1647.500 
  11.528  61.585  0.5780  0.5170 -0.0110 -52.057  4.9870  4.9150  4.9960 
  217.49  81.740  24.845  9.7620  6.2200  2.0710  0.3200 -999.25 -999.25 
 -999.25 -999.25 -999.25 -999.25 -999.25 -999.25  1.7886  0.5871 -999.25 
 -999.25 -999.25 -999.25  0.0847  0.1514  0.6131  0.3869  0.4536  0.5187 
  0.5894  0.5894  2.3600  0.2007  1.7970  11.557  209.96 -20.057  4.9870 
  4.9150  4.9960  0.5133  65.663  0.5766  4.9960  4.9854  5.0441  1.8061 
  1648.000 
  11.158  70.739  0.5700  0.5060 -0.0250 -51.228  4.7300  4.7040  4.7730 
  213.38  81.275  25.198  9.7620  6.2220  2.0700  0.3220 -999.25 -999.25 
 -999.25 -999.25 -999.25 -999.25 -999.25 -999.25  1.8023  0.5738 -999.25 
 -999.25 -999.25 -999.25  0.1580  0.2825  0.6624  0.3376  0.4621  0.4222 
  0.5779  0.5779  2.3668  0.1425  1.8151  11.419  206.97 -19.228  4.7300 
  4.7040  4.7730  0.5014  75.312  0.5619  4.7730  4.7281  4.8168  1.8189 
  1648.500 
  10.006  81.786  0.5700  0.4880 -0.0300 -50.242  4.5110  4.4460  4.4460 
  209.05  81.289  25.310  9.7610  6.2210  2.0600  0.3240 -999.25 -999.25 
 -999.25 -999.25 -999.25 -999.25 -999.25 -999.25  1.8243  0.5702 -999.25 
 -999.25 -999.25 -999.25  0.2278  0.4077  0.7147  0.2853  0.4652  0.3088 
  0.5761  0.5761  2.3766  0.0881  1.8448  10.801  205.18 -18.242  4.5110 
  4.4460  4.4460  0.4842  85.146  0.5577  4.4460  4.5075  4.5257  1.8371 
  1649.000 
  9.9200  86.365  0.5740  0.4670 -0.0210 -49.020  4.2870  4.1790  4.0510 
  206.43  80.822  25.364  9.7750  6.2160  2.0550  0.3230 -999.25 -999.25 
 -999.25 -999.25 -999.25 -999.25 -999.25 -999.25  1.8561  0.5720 -999.25 
 -999.25 -999.25 -999.25  0.2599  0.4657  0.7481  0.2519  0.4577  0.2502 
  0.5873  0.5873  2.3913  0.0630  1.8795  9.9779  207.99 -17.020  4.2870 
  4.1790  4.0510  0.4656  91.777  0.5594  4.0510  4.2816  4.2250  1.8634 
  1649.500 
  10.027  88.657  0.5800  0.4540 -0.0110 -47.876  4.0290  3.8780  3.6380 
  204.86  95.199  25.357  9.7840  6.2155  2.0540  0.3275 -999.25 -999.25 
 -999.25 -999.25 -999.25 -999.25 -999.25 -999.25  1.8868  0.5766 -999.25 
 -999.25 -999.25 -999.25  0.2820  0.5057  0.7829  0.2171  0.4409  0.2030 
  0.6076  0.6076  2.4055  0.0441  1.9009  9.9567  211.72 -15.876  4.0290 
  3.8780  3.6380  0.4539  95.582  0.5644  3.6380  4.0242  3.9170  1.8939 
