~Version Information
VERS.                     2.0: CWLS log ASCII Standard Version 2.00
WRAP.                      NO: One line per depth step
~Well Information Block
#MNEM.UNIT                               Data Type  Information
#---------                               ---------  -----------
STRT.FT                                    90.0000:
STOP.FT                                  2000.0000:
STEP.FT                                     0.5000:
NULL.                 -999.25                     :
COMP.                                             :COMPANY            
WELL.     LL 76-30 OR MUDDY CREEK 76-30           :WELL               
FLD .                                             :FIELD              
CTRY.                                             :COUNTRY            
STAT.                                             :STATE              
LOC .                                             :LOCATION           
UWI .                                             :UNIQUE WELL ID     
SRVC.                                             :Service company    
DATE.                                             :LOG DATE           
~Curve Information
#MNEM.UNIT           API CODE  Curve Description
#---------           --------  -----------------
DEPT.FT                      :   1 DEPTH
GR  .GAPI                    :   2
CALI.IN                      :   3
DPHI.PU-S                    :   4
NPHI.PU-S                    :   5
DRHO.G/C3                    :   6
SP  .MV                      :   7
ILD .OHMM                    :   8
ILM .OHMM                    :   9
SFLU.OHMM                    :  10
DT  .US/F                    :  11
RHOB.G/C3                    :  12
ROBS.G/C3                    :  13
CALS.IN                      :  14
DRHS.G/C3                    :  15
GRS .GAPI                    :  16
NPHS.PU-S                    :  17
DTS .US/F                    :  18
SBL .MV                      :  19
RD  .OHMM                    :  20
RM  .OHMM                    :  21
RS  .OHMM                    :  22
SFLU.OHMM                    :  23
ILMC.OHMM                    :  24
ILDC.OHMM                    :  25
ROBC.G/C3                    :  26
GRC .GAPI                    :  27
NPHC.PU-S                    :  28
~A
# ...
  1764.000  106.30  6.7540  0.5400  0.5110 -0.0010 -999.25  1.4870  1.4330 -999.25  139.86  1.7590  1.7583  6.7866 -0.0042  105.98  0.5110  128.58 -999.25  1.4870  1.4330 -999.25 -999.25  1.4330  1.4870  1.7583  95.790  0.4819 
  1764.500  105.51  6.8350  0.5410  0.5120 -0.0090 -999.25  1.3440  1.2840 -999.25  146.63  1.7574  1.7581  6.8631 -0.0090  104.78  0.5120  141.91 -999.25  1.3440  1.2840 -999.25 -999.25  1.2840  1.3440  1.7581  95.000  0.4830 
  1765.000  103.93  6.8960  0.5400  0.5160 -0.0090 -999.25  1.1930  1.1720 -999.25  147.23  1.7590  1.7607  6.8965 -0.0085  102.80  0.5160  146.84 -999.25  1.1930  1.1720 -999.25 -999.25  1.1720  1.1930  1.7607  93.328  0.4873 
  1765.500  101.75  6.8970  0.5380  0.5240 -0.0080 -999.25  1.1090  1.0990 -999.25  147.22  1.7623  1.7661  6.9091 -0.0063  103.48  0.5240  147.23 -999.25  1.1090  1.0990 -999.25 -999.25  1.0990  1.1090  1.7661  93.988  0.4959 
  1766.000  104.75  6.9180  0.5340  0.5400 -0.0050 -999.25  1.0690  1.0500 -999.25  147.22  1.7689  1.7710  6.9186 -0.0037  109.54  0.5400  147.22 -999.25  1.0690  1.0500 -999.25 -999.25  1.0500  1.0690  1.7710  99.537  0.5132 
  1766.500  112.32  6.9190  0.5320  0.5580 -0.0030 -999.25  1.0400  1.0310 -999.25  150.00  1.7722  1.7733  6.9197 -0.0009  116.59  0.5580  148.48 -999.25  1.0400  1.0310 -999.25 -999.25  1.0310  1.0400  1.7733  105.94  0.5326 
  1767.000  118.50  6.9200  0.5310  0.5680  0.0000 -999.25  1.0310  1.0120 -999.25  151.09  1.7739  1.7726  6.9207  0.0007  120.89  0.5680  150.54 -999.25  1.0310  1.0120 -999.25 -999.25  1.0120  1.0310  1.7726  109.86  0.5434 
  1767.500  121.69  6.9210  0.5320  0.5630  0.0010 -999.25  1.0400  1.0120 -999.25  151.09  1.7722  1.7695  6.9218  0.0010  120.58  0.5630  151.09 -999.25  1.0400  1.0120 -999.25 -999.25  1.0120  1.0400  1.7695  109.58  0.5380 
  1768.000  120.31  6.9220  0.5340  0.5390  0.0010 -999.25  1.0400  1.0120 -999.25  151.28  1.7689  1.7689  6.9565 -0.0007  120.15  0.5390  151.20 -999.25  1.0400  1.0120 -999.25 -999.25  1.0120  1.0400  1.7689  109.34  0.5121 
  1768.500  120.12  6.9620  0.5340  0.5390 -0.0010 -999.25  1.0590  1.0120 -999.25  151.67  1.7689  1.7750  7.0366 -0.0019  121.23  0.5390  151.52 -999.25  1.0590  1.0120 -999.25 -999.25  1.0120  1.0590  1.7750  110.67  0.5121 
  1769.000  121.32  7.0430  0.5300  0.5420 -0.0020 -999.25  1.0690  1.0210 -999.25  152.16  1.7755  1.7803  7.0636 -0.0020  122.50  0.5420  151.99 -999.25  1.0690  1.0210 -999.25 -999.25  1.0210  1.0690  1.7803  111.96  0.5153 
  1769.500  122.53  7.0640  0.5270  0.5560 -0.0020 -999.25  1.0690  1.0310 -999.25  152.06  1.7805  1.7872  7.0450 -0.0009  121.25  0.5560  152.09 -999.25  1.0690  1.0310 -999.25 -999.25  1.0310  1.0690  1.7872  110.73  0.5304 
  1770.000  121.35  7.0450  0.5230  0.5710 -0.0010 -999.25  1.0790  1.0400 -999.25  149.96  1.7871  1.7904  7.0480  0.0019  118.47  0.5710  150.55 -999.25  1.0790  1.0400 -999.25 -999.25  1.0400  1.0790  1.7904  108.20  0.5466 
  1770.500  118.77  7.0460  0.5210  0.5930  0.0020 -999.25  1.0840  1.0790 -999.25  148.66  1.7904  1.7914  7.0731  0.0005  115.68  0.5930  148.98 -999.25  1.0840  1.0790 -999.25 -999.25  1.0790  1.0840  1.7914  105.76  0.5704 
  1771.000  115.59  7.0670  0.5210  0.5840  0.0010 -999.25  1.0890  1.1090 -999.25  147.16  1.7904  1.7983  7.1198 -0.0022  116.78  0.5840  147.47 -999.25  1.0890  1.1090 -999.25 -999.25  1.1090  1.0890  1.7983  106.97  0.5607 
  1771.500  116.20  7.1070  0.5170  0.5480 -0.0020 -999.25  1.1190  1.1400 -999.25  147.35  1.7970  1.8049  7.1789 -0.0025  119.85  0.5480  147.32 -999.25  1.1190  1.1400 -999.25 -999.25  1.1400  1.1190  1.8049  110.03  0.5218 
  1772.000  119.00  7.1680  0.5130  0.5400 -0.0030 -999.25  1.1610  1.1720 -999.25  150.43  1.8036  1.8058  7.2223 -0.0007  122.06  0.5400  150.03 -999.25  1.1610  1.1720 -999.25 -999.25  1.1720  1.1610  1.8058  112.25  0.5132 
  1772.500  122.19  7.2090  0.5100  0.5490 -0.0010 -999.25  1.1820  1.1820 -999.25  151.43  1.8085  1.7933  7.2275  0.0000  121.05  0.5490  151.33 -999.25  1.1820  1.1820 -999.25 -999.25  1.1820  1.1820  1.7933  111.34  0.5229 
  1773.000  121.80  7.2500  0.5150  0.5520  0.0000 -999.25  1.1880  1.1930 -999.25  152.02  1.8003  1.7785  7.1743 -0.0004  119.48  0.5520  151.98 -999.25  1.1880  1.1930 -999.25 -999.25  1.1930  1.1880  1.7785  109.67  0.5261 
  1773.500  119.82  7.1910  0.5260  0.5460  0.0000 -999.25  1.1930  1.2040 -999.25  151.21  1.7821  1.7747  7.1431 -0.0015  118.65  0.5460  151.23 -999.25  1.1930  1.2040 -999.25 -999.25  1.2040  1.1930  1.7747  108.77  0.5197 
  1774.000  119.04  7.1530  0.5310  0.5360 -0.0010 -999.25  1.2040  1.2040 -999.25  149.91  1.7739  1.7810  7.1230 -0.0020  116.49  0.5360  149.90 -999.25  1.2040  1.2040 -999.25 -999.25  1.2040  1.2040  1.7810  106.71  0.5089 
  1774.500  118.25  7.1330  0.5300  0.5380 -0.0020 -999.25  1.2040  1.2040 -999.25  149.51  1.7755  1.7874  7.1272 -0.0014  113.62  0.5380  149.47 -999.25  1.2040  1.2040 -999.25 -999.25  1.2040  1.2040  1.7874  104.10  0.5110 
  1775.000  115.08  7.1150  0.5240  0.5390 -0.0020 -999.25  1.2040  1.1930 -999.25  148.90  1.7854  1.7920  7.1363 -0.0023  113.10  0.5390  148.84 -999.25  1.2040  1.1930 -999.25 -999.25  1.1930  1.2040  1.7920  103.66  0.5121 
  1775.500  112.70  7.1350  0.5220  0.5400 -0.0010 -999.25  1.1820  1.1930 -999.25  148.20  1.7887  1.8033  7.1515 -0.0059  116.64  0.5400  148.20 -999.25  1.1820  1.1930 -999.25 -999.25  1.1930  1.1820  1.8033  106.97  0.5132 
  1776.000  113.31  7.1370  0.5190  0.5510 -0.0030 -999.25  1.1820  1.1930 -999.25  148.19  1.7937  1.8224  7.1421 -0.0054  121.96  0.5510  148.23 -999.25  1.1820  1.1930 -999.25 -999.25  1.1930  1.1820  1.8224  111.81  0.5250 
  1776.500  117.89  7.1570  0.5110  0.5610 -0.0070 -999.25  1.1820  1.2040 -999.25  148.39  1.8069  1.8419  7.1388  0.0001  136.41  0.5610  148.41 -999.25  1.1820  1.2040 -999.25 -999.25  1.2040  1.1820  1.8419  125.04  0.5358 
  1777.000  123.07  7.1380  0.4990  0.5590 -0.0050 -999.25  1.2260  1.2270 -999.25  148.48  1.8267  1.8626  7.1048  0.0055  142.86  0.5590  148.48 -999.25  1.2260  1.2270 -999.25 -999.25  1.2270  1.2260  1.8626  130.77  0.5337 
  1777.500  138.91  7.1390  0.4880  0.5410  0.0010 -999.25  1.2610  1.2610 -999.25  148.47  1.8448  1.8662  7.0828  0.0098  147.50  0.5410  148.39 -999.25  1.2610  1.2610 -999.25 -999.25  1.2610  1.2610  1.8662  134.90  0.5143 
  1778.000  143.29  7.1010  0.4760  0.5300  0.0060 -999.25  1.2960  1.2960 -999.25  148.17  1.8646  1.8544  7.0830  0.0110  147.42  0.5300  148.01 -999.25  1.2960  1.2960 -999.25 -999.25  1.2960  1.2960  1.8544  134.83  0.5024 
  1778.500  147.68  7.0820  0.4750  0.5350  0.0100 -999.25  1.3080  1.3080 -999.25  147.66  1.8663  1.8369  7.0899  0.0089  142.25  0.5350  147.73 -999.25  1.3080  1.3080 -999.25 -999.25  1.3080  1.3080  1.8369  130.14  0.5078 
  1779.000  147.49  7.0830  0.4820  0.5400  0.0110 -999.25  1.3320  1.3320 -999.25  147.86  1.8547  1.8192  7.1728  0.0066  137.88  0.5400  148.57 -999.25  1.3320  1.3320 -999.25 -999.25  1.3320  1.3320  1.8192  126.55  0.5132 
  1779.500  142.53  7.0840  0.4920  0.5460  0.0090 -999.25  1.3320  1.3320 -999.25  149.65  1.8382  1.8135  7.2289  0.0036  131.05  0.5460  150.55 -999.25  1.3320  1.3320 -999.25 -999.25  1.3320  1.3320  1.8135  120.55  0.5197 
  1780.000  138.76  7.1650  0.5030  0.5610  0.0070 -999.25  1.3200  1.3200 -999.25  151.73  1.8201  1.8135  7.2561  0.0018  124.40  0.5610  152.39 -999.25  1.3200  1.3200 -999.25 -999.25  1.3200  1.3200  1.8135  114.55  0.5359 
  1780.500  132.00  7.2250  0.5070  0.5560  0.0040 -999.25  1.2960  1.2960 -999.25  153.13  1.8135  1.8129  7.2934  0.0019  115.82  0.5560  153.22 -999.25  1.2960  1.2960 -999.25 -999.25  1.2960  1.2960  1.8129  106.80  0.5305 
  1781.000  126.94  7.2460  0.5070  0.5420  0.0020 -999.25  1.2840  1.2840 -999.25  153.32  1.8135  1.8112  7.3228  0.0054  113.16  0.5420  153.04 -999.25  1.2840  1.2840 -999.25 -999.25  1.2840  1.2840  1.8112  104.48  0.5154 
  1781.500  116.60  7.2870  0.5070  0.5160  0.0010 -999.25  1.2490  1.2490 -999.25  152.81  1.8135  1.8108  7.3657  0.0097  110.23  0.5160  152.87 -999.25  1.2490  1.2490 -999.25 -999.25  1.2490  1.2490  1.8108  101.94  0.4874 
