~Version Information
VERS.                     2.0: CWLS log ASCII Standard Version 2.00
WRAP.                     YES: Multiple lines per depth step
~Well Information Block
#MNEM.UNIT                               Data Type  Information
#---------                               ---------  -----------
STRT.FT                                   805.0000:
STOP.FT                                  5010.0000:
STEP.FT                                     0.5000:
NULL.                 -999.25                     :
COMP.                                             :COMPANY            
WELL.     SANTIAGO C 55-28                        :WELL               
FLD .                                             :FIELD              
CTRY.                                             :COUNTRY            
STAT.                                             :STATE              
LOC .                                             :LOCATION           
UWI .                                             :UNIQUE WELL ID     
SRVC.                                             :Service company    
DATE.                                             :LOG DATE           
~Curve Information
#MNEM.UNIT           API CODE  Curve Description
#---------           --------  -----------------
DEPT.FT                      :   1 DEPTH
CALI.IN                      :   2
GR  .GAPI                    :   3
NPHI.PU-S                    :   4
DPHI.PU-S                    :   5
DRHO.G/C3                    :   6
SP  .MV                      :   7
ILD .OHMM                    :   8
ILM .OHMM                    :   9
SFLU.OHMM                    :  10
LLD .OHMM                    :  11
LLS .OHMM                    :  12
MSFL.OHMM                    :  13
DT  .US/F                    :  14
SPHI.                        :  15
KSCI.                        :  16
PSCI.                        :  17
OSCI.                        :  18
WSCI.                        :  19
KWCI.                        :  20
PWCI.                        :  21
OWCI.                        :  22
WWCI.                        :  23
SBL .MV                      :  24
RS  .OHMM                    :  25
RM  .OHMM                    :  26
RD  .OHMM                    :  27
DTS .US/F                    :  28
RHOB.G/C3                    :  29
ROBS.G/C3                    :  30
DROS.G/C3                    :  31
CALS.IN                      :  32
GRS .GAPI                    :  33
NPHS.PU-S                    :  34
SFLU.OHMM                    :  35
ILMC.OHMM                    :  36
ILDC.OHMM                    :  37
ROBC.G/C3                    :  38
GRC .GAPI                    :  39
NPHC.PU-S                    :  40
~A
# ...
  2197.000 
  10.890  83.679  0.3250  0.1910  0.0330 -39.012  5.9120  5.9010  6.4100 
 -999.25 -999.25 -999.25  141.37 -999.25 -999.25 -999.25 -999.25 -999.25 
 -999.25 -999.25 -999.25 -999.25 -16.757  6.4100  5.9010  5.9120  137.60 
  2.3349  2.3031  0.0144  10.511  75.010  0.2970  6.4100  5.9010  5.9120 
  2.3140  79.985  0.2610 
  2197.500 
  10.664  80.700  0.3130  0.2030  0.0210 -42.082  5.9990  5.9110  7.3300 
 -999.25 -999.25 -999.25  145.35 -999.25 -999.25 -999.25 -999.25 -999.25 
 -999.25 -999.25 -999.25 -999.25 -19.832  7.3300  5.9110  5.9990  140.66 
  2.3151  2.2826  0.0059  10.274  72.356  0.3016  7.3300  5.9110  5.9990 
  2.2918  76.571  0.2659 
  2198.000 
  10.410  76.890  0.3020  0.2150  0.0100 -44.195  6.0200  5.9540  8.1250 
 -999.25 -999.25 -999.25  143.43 -999.25 -999.25 -999.25 -999.25 -999.25 
 -999.25 -999.25 -999.25 -999.25 -21.950  8.1250  5.9540  6.0200  145.98 
  2.2953  2.2680  0.0007  10.076  71.268  0.3053  8.1250  5.9540  6.0200 
  2.2760  74.932  0.2697 
  2198.500 
  10.180  73.199  0.2970  0.2280  0.0030 -45.389  6.0640  6.0200  8.6800 
 -999.25 -999.25 -999.25  136.56 -999.25 -999.25 -999.25 -999.25 -999.25 
 -999.25 -999.25 -999.25 -999.25 -23.149  8.6800  6.0200  6.0640  148.69 
  2.2738  2.2620 -0.0021  9.9392  70.873  0.3040  8.6800  6.0200  6.0640 
  2.2690  74.180  0.2683 
  2199.000 
  10.001  71.350  0.2970  0.2340 -0.0010 -45.945  6.1540  6.1880  8.9550 
 -999.25 -999.25 -999.25  127.14 -999.25 -999.25 -999.25 -999.25 -999.25 
 -999.25 -999.25 -999.25 -999.25 -23.709  8.9550  6.1880  6.1540  152.93 
  2.2639  2.2625 -0.0002  9.8592  69.408  0.2985  8.9550  6.1880  6.1540 
  2.2689  72.452  0.2623 
  2199.500 
  9.8930  71.043  0.3040  0.2360 -0.0030 -46.102  6.4540  6.4190  8.9540 
 -999.25 -999.25 -999.25  121.39 -999.25 -999.25 -999.25 -999.25 -999.25 
 -999.25 -999.25 -999.25 -999.25 -23.871  8.9540  6.4190  6.4540  162.58 
  2.2606  2.2657  0.0053  9.8324  66.882  0.2928  8.9540  6.4190  6.4540 
  2.2719  69.752  0.2563 
  2200.000 
  9.8330  70.677  0.3060  0.2340  0.0020 -45.671  6.7720  6.6710  8.7130 
 -999.25 -999.25 -999.25  119.93 -999.25 -999.25 -999.25 -999.25 -999.25 
 -999.25 -999.25 -999.25 -999.25 -23.445  8.7130  6.6710  6.7720  180.94 
  2.2639  2.2582  0.0107  9.8488  65.041  0.2878  8.7130  6.6710  6.7720 
  2.2646  67.870  0.2511 
  2200.500 
  9.8320  68.046  0.3030  0.2320  0.0080 -45.243  6.8440  6.7820  8.6450 
 -999.25 -999.25 -999.25  129.99 -999.25 -999.25 -999.25 -999.25 -999.25 
 -999.25 -999.25 -999.25 -999.25 -23.022  8.6450  6.7820  6.8440  190.69 
  2.2672  2.2437  0.0125  9.8956  64.707  0.2847  8.6450  6.7820  6.8440 
  2.2503  67.628  0.2479 
  2201.000 
  9.8630  65.297  0.2960  0.2420  0.0130 -44.814  6.8660  7.0320  8.6090 
 -999.25 -999.25 -999.25  128.32 -999.25 -999.25 -999.25 -999.25 -999.25 
 -999.25 -999.25 -999.25 -999.25 -22.598  8.6090  7.0320  6.8660  183.76 
  2.2507  2.2366  0.0104  9.9402  65.436  0.2859  8.6090  7.0320  6.8660 
  2.2436  68.492  0.2492 
  2201.500 
  9.9240  64.388  0.2910  0.2500  0.0120 -44.504  6.9390  7.1860  9.0100 
 -999.25 -999.25 -999.25  127.24 -999.25 -999.25 -999.25 -999.25 -999.25 
 -999.25 -999.25 -999.25 -999.25 -22.292  9.0100  7.1860  6.9390  164.79 
  2.2375  2.2460  0.0069  9.9483  65.456  0.2889  9.0100  7.1860  6.9390 
  2.2531  68.531  0.2523 
  2202.000 
  9.9550  64.965  0.2860  0.2510  0.0090 -44.035  7.0260  7.2890  9.6050 
 -999.25 -999.25 -999.25  126.72 -999.25 -999.25 -999.25 -999.25 -999.25 
 -999.25 -999.25 -999.25 -999.25 -21.828  9.6050  7.2890  7.0260  143.17 
  2.2359  2.2681  0.0040  9.9253  64.168  0.2906  9.6050  7.2890  7.0260 
  2.2750  67.131  0.2541 
  2202.500 
  9.9420  66.133  0.2840  0.2390  0.0050 -43.606  7.1930  7.5030  9.2200 
 -999.25 -999.25 -999.25  127.38 -999.25 -999.25 -999.25 -999.25 -999.25 
 -999.25 -999.25 -999.25 -999.25 -21.404  9.2200  7.5030  7.1930  138.53 
  2.2557  2.2951  0.0020  9.9417  63.019  0.2892  9.2200  7.5030  7.1930 
  2.3021  65.965  0.2526 
  2203.000 
  9.9090  64.751  0.2870  0.2240  0.0030 -43.138  7.3900  7.7240  8.7850 
 -999.25 -999.25 -999.25  128.32 -999.25 -999.25 -999.25 -999.25 -999.25 
 -999.25 -999.25 -999.25 -999.25 -20.941  8.7850  7.7240  7.3900  143.29 
  2.2804  2.3213  0.0010  10.036  63.681  0.2862  8.7850  7.7240  7.3900 
  2.3290  66.868  0.2495 
  2203.500 
  9.9750  63.070  0.2900  0.2060  0.0010 -42.471  7.6920  8.0390  9.1100 
 -999.25 -999.25 -999.25  126.89 -999.25 -999.25 -999.25 -999.25 -999.25 
 -999.25 -999.25 -999.25 -999.25 -20.279  9.1100  8.0390  7.6920  144.43 
  2.3101  2.3371  0.0015  10.144  65.981  0.2814  9.1100  8.0390  7.6920 
  2.3455  69.528  0.2445 
  2204.000 
  10.101  62.578  0.2910  0.1920  0.0010 -42.041  7.9330  8.2760  10.150 
 -999.25 -999.25 -999.25  123.29 -999.25 -999.25 -999.25 -999.25 -999.25 
 -999.25 -999.25 -999.25 -999.25 -19.854  10.150  8.2760  7.9330  140.15 
  2.3332  2.3384  0.0039  10.220  68.053  0.2730  10.150  8.2760  7.9330 
  2.3473  71.891  0.2358 
  2204.500 
  10.191  65.292  0.2880  0.1870  0.0020 -40.818  8.1360  8.5030  10.860 
 -999.25 -999.25 -999.25  119.62 -999.25 -999.25 -999.25 -999.25 -999.25 
 -999.25 -999.25 -999.25 -999.25 -18.635  10.860  8.5030  8.1360  132.08 
  2.3414  2.3266  0.0087  10.251  68.028  0.2660  10.860  8.5030  8.1360 
  2.3357  71.936  0.2286 
  2205.000 
  10.253  67.827  0.2850  0.1910  0.0060 -39.198  8.2980  8.7050  10.996 
 -999.25 -999.25 -999.25  117.89 -999.25 -999.25 -999.25 -999.25 -999.25 
 -999.25 -999.25 -999.25 -999.25 -17.020  10.996  8.7050  8.2980  124.41 
  2.3349  2.3101  0.0147  10.169  66.163  0.2646  10.996  8.7050  8.2980 
  2.3186  69.779  0.2271 
  2205.500 
  10.248  69.175  0.2790  0.2020  0.0120 -37.220  8.3100  8.8140  9.9150 
 -999.25 -999.25 -999.25  118.18 -999.25 -999.25 -999.25 -999.25 -999.25 
 -999.25 -999.25 -999.25 -999.25 -15.047  9.9150  8.8140  8.3100  120.70 
  2.3167  2.2961  0.0206  10.009  66.574  0.2797  9.9150  8.8140  8.3100 
  2.3035  69.844  0.2427 
  2206.000 
  10.072  66.367  0.2690  0.2110  0.0180 -35.203  8.2000  8.8580  7.5480 
 -999.25 -999.25 -999.25  120.20 -999.25 -999.25 -999.25 -999.25 -999.25 
 -999.25 -999.25 -999.25 -999.25 -13.035  7.5480  8.8580  8.2000  124.66 
  2.3019  2.2837  0.0266  9.9217  71.314  0.3063  7.5480  8.8580  8.2000 
  2.2906  74.598  0.2707 
  2206.500 
  9.9290  64.805  0.2640  0.2190  0.0240 -33.424  7.8710  8.6930  6.5970 
 -999.25 -999.25 -999.25  120.74 -999.25 -999.25 -999.25 -999.25 -999.25 
 -999.25 -999.25 -999.25 -999.25 -11.261  6.5970  8.6930  7.8710  129.21 
  2.2887  2.2730  0.0321  9.9479  77.806  0.3393  6.5970  8.6930  7.8710 
  2.2800  81.460  0.3064 
  2207.000 
  9.9120  69.538  0.2650  0.2260  0.0300 -31.882  7.5690  8.3910  6.0260 
 -999.25 -999.25 -999.25  120.84 -999.25 -999.25 -999.25 -999.25 -999.25 
 -999.25 -999.25 -999.25 -999.25 -9.7233  6.0260  8.3910  7.5690  127.82 
  2.2771  2.2659  0.0366  10.094  82.642  0.3641  6.0260  8.3910  7.5690 
  2.2739  86.945  0.3371 
  2207.500 
  9.9980  77.004  0.2900  0.2320  0.0350 -30.500  7.2790  7.8640  5.5750 
 -999.25 -999.25 -999.25  121.22 -999.25 -999.25 -999.25 -999.25 -999.25 
 -999.25 -999.25 -999.25 -999.25 -8.3462  5.5750  7.8640  7.2790  127.00 
  2.2672  2.2652  0.0402  10.396  84.685  0.3795  5.5750  7.8640  7.2790 
  2.2753  89.971  0.3543 
  2208.000 
  10.234  82.925  0.3180  0.2340  0.0390 -29.277  7.0520  7.3430  5.2540 
 -999.25 -999.25 -999.25  122.20 -999.25 -999.25 -999.25 -999.25 -999.25 
 -999.25 -999.25 -999.25 -999.25 -7.1280  5.2540  7.3430  7.0520  127.03 
  2.2639  2.2685  0.0436  10.819  85.860  0.4000  5.2540  7.3430  7.0520 
  2.2814  92.438  0.3773 
  2208.500 
  10.641  84.868  0.3550  0.2320  0.0420 -28.213  6.7810  6.9580  5.0060 
 -999.25 -999.25 -999.25  123.34 -999.25 -999.25 -999.25 -999.25 -999.25 
 -999.25 -999.25 -999.25 -999.25 -6.0688  5.0060  6.9580  6.7810  127.82 
  2.2672  2.2711  0.0471  11.221  88.547  0.4171  5.0060  6.9580  6.7810 
  2.2866  96.496  0.3966 
