~Version Information
VERS.                     2.0: CWLS log ASCII Standard Version 2.00
WRAP.                      NO: One line per depth step
~Well Information Block
#MNEM.UNIT                               Data Type  Information
#---------                               ---------  -----------
STRT.FT                                    90.0000:
STOP.FT                                  2000.0000:
STEP.FT                                     0.5000:
NULL.                 -999.25                     :
COMP.                                             :COMPANY            
WELL.     LL 76-30 OR MUDDY CREEK 76-30           :WELL               
FLD .                                             :FIELD              
CTRY.                                             :COUNTRY            
STAT.                                             :STATE              
LOC .                                             :LOCATION           
UWI .                                             :UNIQUE WELL ID     
SRVC.                                             :Service company    
DATE.                                             :LOG DATE           
~Curve Information
#MNEM.UNIT           API CODE  Curve Description
#---------           --------  -----------------
DEPT.FT                      :   1 DEPTH
GR  .GAPI                    :   2
CALI.IN                      :   3
DPHI.PU-S                    :   4
NPHI.PU-S                    :   5
DRHO.G/C3                    :   6
SP  .MV                      :   7
ILD .OHMM                    :   8
ILM .OHMM                    :   9
SFLU.OHMM                    :  10
DT  .US/F                    :  11
RHOB.G/C3                    :  12
ROBS.G/C3                    :  13
CALS.IN                      :  14
DRHS.G/C3                    :  15
GRS .GAPI                    :  16
NPHS.PU-S                    :  17
DTS .US/F                    :  18
SBL .MV                      :  19
RD  .OHMM                    :  20
RM  .OHMM                    :  21
RS  .OHMM                    :  22
SFLU.OHMM                    :  23
ILMC.OHMM                    :  24
ILDC.OHMM                    :  25
ROBC.G/C3                    :  26
GRC .GAPI                    :  27
NPHC.PU-S                    :  28
~A
# ...
  1260.000  117.22  6.8800  0.5100  0.4950 -0.0070 -999.25  1.7490  1.6780 -999.25  140.41  1.8085  1.8258  6.8600 -0.0020  109.02  0.5060  140.41 -999.25  1.7490  1.6780 -999.25 -999.25  1.6780  1.7490  1.8258  98.830  0.4765 
  1260.500  113.04  6.8600  0.5010  0.5090 -0.0040 -999.25  1.7570  1.6860 -999.25  140.42  1.8234  1.8242  6.8605  0.0020  100.53  0.5030  140.42 -999.25  1.7570  1.6860 -999.25 -999.25  1.6860  1.7570  1.8242  91.132  0.4733 
  1261.000  105.06  6.8600  0.4980  0.5060  0.0000 -999.25  1.7660  1.6950 -999.25  138.63  1.8283  1.8104  6.8610  0.0059  94.250  0.5010  138.63 -999.25  1.7660  1.6950 -999.25 -999.25  1.6950  1.7660  1.8104  85.443  0.4711 
  1261.500  95.895  6.8610  0.5030  0.5030  0.0040 -999.25  1.7590  1.7030 -999.25  135.84  1.8201  1.7900  6.8610  0.0080  92.321  0.5010  135.84 -999.25  1.7590  1.7030 -999.25 -999.25  1.7030  1.7590  1.7900  83.694  0.4711 
  1262.000  92.510  6.8610  0.5150  0.5010  0.0080 -999.25  1.7520  1.6730 -999.25  133.84  1.8003  1.7687  6.8615  0.0071  92.490  0.5030  133.84 -999.25  1.7520  1.6730 -999.25 -999.25  1.6730  1.7520  1.7687  83.849  0.4733 
  1262.500  92.115  6.8610  0.5280  0.5010  0.0080 -999.25  1.7210  1.6430 -999.25  133.05  1.7788  1.7566  6.8804  0.0032  96.677  0.5130  133.05 -999.25  1.7210  1.6430 -999.25 -999.25  1.6430  1.7210  1.7566  87.711  0.4841 
  1263.000  92.916  6.8620  0.5410  0.5030  0.0060 -999.25  1.7060  1.6140 -999.25  134.95  1.7574  1.7564  6.9115 -0.0018  103.80  0.5280  134.95 -999.25  1.7060  1.6140 -999.25 -999.25  1.6140  1.7060  1.7564  94.287  0.5002 
  1263.500  101.10  6.9020  0.5420  0.5130  0.0000 -999.25  1.6910  1.6300 -999.25  139.95  1.7557  1.7581  6.9495 -0.0053  111.67  0.5450  139.95 -999.25  1.6910  1.6300 -999.25 -999.25  1.6300  1.6910  1.7581  101.60  0.5185 
  1264.000  107.08  6.9230  0.5410  0.5280 -0.0040 -999.25  1.6920  1.6460 -999.25  142.75  1.7574  1.7676  6.9917 -0.0066  117.98  0.5630  142.75 -999.25  1.6920  1.6460 -999.25 -999.25  1.6460  1.6920  1.7676  107.51  0.5380 
  1264.500  117.46  6.9830  0.5400  0.5450 -0.0070 -999.25  1.7080  1.6770 -999.25  143.75  1.7590  1.7893  6.9779 -0.0056  116.96  0.5670  143.75 -999.25  1.7080  1.6770 -999.25 -999.25  1.6770  1.7080  1.7893  106.53  0.5423 
  1265.000  118.65  7.0030  0.5280  0.5630 -0.0060 -999.25  1.7410  1.6930 -999.25  144.16  1.7788  1.8084  6.9190 -0.0025  110.19  0.5580  144.16 -999.25  1.7410  1.6930 -999.25 -999.25  1.6930  1.7410  1.8084  100.13  0.5326 
  1265.500  114.67  6.9440  0.5130  0.5670 -0.0050 -999.25  1.7410  1.6940 -999.25  143.66  1.8036  1.8077  6.8681  0.0010  101.88  0.5400  143.66 -999.25  1.7410  1.6940 -999.25 -999.25  1.6940  1.7410  1.8077  92.383  0.5131 
  1266.000  103.91  6.8840  0.5060  0.5580  0.0010 -999.25  1.7420  1.6790 -999.25  141.97  1.8151  1.7904  6.8370  0.0006  97.814  0.5260  141.97 -999.25  1.7420  1.6790 -999.25 -999.25  1.6790  1.7420  1.7904  88.588  0.4981 
  1266.500  98.926  6.8450  0.5170  0.5400  0.0010 -999.25  1.7430  1.6800 -999.25  138.68  1.7970  1.7811  6.8176  0.0004  94.973  0.5030  138.68 -999.25  1.7430  1.6800 -999.25 -999.25  1.6800  1.7430  1.7811  85.947  0.4733 
  1267.000  96.138  6.8250  0.5270  0.5260  0.0000 -999.25  1.7760  1.7120 -999.25  135.89  1.7805  1.7846  6.7984  0.0021  92.164  0.5110  135.89 -999.25  1.7760  1.7120 -999.25 -999.25  1.7120  1.7760  1.7846  83.341  0.4819 
  1267.500  93.151  6.8060  0.5260  0.5030  0.0010 -999.25  1.7770  1.6820 -999.25  134.60  1.7821  1.7819  6.7864  0.0047  89.821  0.5140  134.60 -999.25  1.7770  1.6820 -999.25 -999.25  1.6820  1.7770  1.7819  81.183  0.4851 
  1268.000  90.563  6.7860  0.5220  0.5110  0.0040 -999.25  1.7450  1.6670 -999.25  135.00  1.7887  1.7663  6.7870  0.0053  87.921  0.5060  135.00 -999.25  1.7450  1.6670 -999.25 -999.25  1.6670  1.7450  1.7663  79.468  0.4765 
  1268.500  88.573  6.7870  0.5330  0.5140  0.0060 -999.25  1.7300  1.6370 -999.25  134.11  1.7706  1.7502  6.7870  0.0036  86.359  0.4950  134.11 -999.25  1.7300  1.6370 -999.25 -999.25  1.6370  1.7300  1.7502  78.056  0.4647 
  1269.000  86.783  6.7870  0.5400  0.5060  0.0040 -999.25  1.6840  1.6080 -999.25  131.52  1.7590  1.7325  6.7870  0.0020  85.385  0.4950  131.52 -999.25  1.6840  1.6080 -999.25 -999.25  1.6080  1.6840  1.7325  77.175  0.4647 
  1269.500  85.590  6.7870  0.5550  0.4950  0.0030 -999.25  1.6690  1.5800 -999.25  131.22  1.7343  1.7315  6.7975 -0.0010  84.931  0.5040  131.22 -999.25  1.6690  1.5800 -999.25 -999.25  1.5800  1.6690  1.7315  76.798  0.4744 
  1270.000  84.998  6.7870  0.5580  0.4950  0.0000 -999.25  1.6700  1.5660 -999.25  131.83  1.7293  1.7370  6.8279 -0.0017  84.933  0.5040  131.83 -999.25  1.6700  1.5660 -999.25 -999.25  1.5660  1.6700  1.7370  76.894  0.4744 
  1270.500  84.801  6.8180  0.5540  0.5040 -0.0030 -999.25  1.6850  1.5800 -999.25  134.11  1.7359  1.7392  6.8675  0.0016  85.715  0.5080  134.11 -999.25  1.6850  1.5800 -999.25 -999.25  1.5800  1.6850  1.7392  77.726  0.4787 
  1271.000  85.203  6.8480  0.5520  0.5040  0.0010 -999.25  1.7330  1.6020 -999.25  137.90  1.7392  1.7382  6.9215  0.0027  87.674  0.5120  137.90 -999.25  1.7330  1.6020 -999.25 -999.25  1.6020  1.7330  1.7382  79.674  0.4830 
  1271.500  86.802  6.9090  0.5520  0.5080  0.0030 -999.25  1.7490  1.6250 -999.25  139.29  1.7392  1.7359  6.9672  0.0017  91.291  0.5080  139.29 -999.25  1.7490  1.6250 -999.25 -999.25  1.6250  1.7490  1.7359  83.113  0.4787 
  1272.000  89.598  6.9490  0.5540  0.5120  0.0020 -999.25  1.7970  1.7010 -999.25  138.98  1.7359  1.7422  7.0090  0.0001  96.536  0.5020  138.98 -999.25  1.7970  1.7010 -999.25 -999.25  1.7010  1.7970  1.7422  88.035  0.4722 
  1272.500  95.185  7.0090  0.5540  0.5080  0.0010 -999.25  1.8650  1.7330 -999.25  137.77  1.7359  1.7578  6.9979 -0.0034  101.83  0.5030  137.77 -999.25  1.8650  1.7330 -999.25 -999.25  1.7330  1.8650  1.7578  92.818  0.4733 
  1273.000  99.776  7.0090  0.5410  0.5020 -0.0020 -999.25  1.8990  1.7650 -999.25  136.46  1.7574  1.7595  6.9589 -0.0067  108.39  0.5160  136.46 -999.25  1.8990  1.7650 -999.25 -999.25  1.7650  1.8990  1.7595  98.652  0.4873 
  1273.500  106.96  6.9700  0.5400  0.5030 -0.0070 -999.25  1.9340  1.8220 -999.25  134.25  1.7590  1.7637  6.9303 -0.0030  113.32  0.5260  134.25 -999.25  1.9340  1.8220 -999.25 -999.25  1.8220  1.9340  1.7637  103.02  0.4981 
  1274.000  112.15  6.9300  0.5390  0.5160 -0.0060 -999.25  2.0070  1.8820 -999.25  134.34  1.7607  1.7748  6.9310  0.0050  117.62  0.5200  134.34 -999.25  2.0070  1.8820 -999.25 -999.25  1.8820  2.0070  1.7748  106.93  0.4916 
  1274.500  116.54  6.9310  0.5320  0.5260  0.0050 -999.25  2.0440  1.9170 -999.25  138.13  1.7722  1.7858  6.9363  0.0047  120.53  0.5350  138.13 -999.25  2.0440  1.9170 -999.25 -999.25  1.9170  2.0440  1.7858  109.60  0.5078 
  1275.000  120.73  6.9310  0.5260  0.5200  0.0050 -999.25  2.0820  1.9340 -999.25  139.02  1.7821  1.7993  6.9568  0.0033  119.36  0.5680  139.02 -999.25  2.0820  1.9340 -999.25 -999.25  1.9340  2.0820  1.7993  108.62  0.5434 
  1275.500  119.94  6.9520  0.5170  0.5350  0.0040 -999.25  2.1010  1.9700 -999.25  138.51  1.7970  1.8092  6.9673  0.0008  111.45  0.5950  138.51 -999.25  2.1010  1.9700 -999.25 -999.25  1.9700  2.1010  1.8092  101.47  0.5725 
  1276.000  117.54  6.9720  0.5110  0.5680  0.0010 -999.25  2.1400  2.0440 -999.25  130.51  1.8069  1.8149  6.9477 -0.0009  89.593  0.5490  130.51 -999.25  2.1400  2.0440 -999.25 -999.25  2.0440  2.1400  1.8149  81.504  0.5229 
  1276.500  91.428  6.9520  0.5050  0.5950  0.0000 -999.25  2.2200  2.1010 -999.25  124.61  1.8168  1.8060  6.9200 -0.0046  81.708  0.4950  124.61 -999.25  2.2200  2.1010 -999.25 -999.25  2.1010  2.2200  1.8060  74.249  0.4647 
  1277.000  83.257  6.9330  0.5100  0.5490 -0.0040 -999.25  2.3680  2.3900 -999.25  109.22  1.8085  1.7980  6.8566 -0.0072  74.968  0.4420  109.22 -999.25  2.3680  2.3900 -999.25 -999.25  2.3900  2.3680  1.7980  67.951  0.4077 
  1277.500  76.083  6.8730  0.5170  0.4950 -0.0070 -999.25  2.3460  2.5250 -999.25  106.12  1.7970  1.8032  6.7880 -0.0076  71.020  0.3890  106.12 -999.25  2.3460  2.5250 -999.25 -999.25  2.5250  2.3460  1.8032  64.194  0.3508 
