~Version Information
VERS.                     2.0: CWLS log ASCII Standard Version 2.00
WRAP.                      NO: One line per depth step
~Well Information Block
#MNEM.UNIT                               Data Type  Information
#---------                               ---------  -----------
STRT.FT                                    90.0000:
STOP.FT                                  2000.0000:
STEP.FT                                     0.5000:
NULL.                 -999.25                     :
COMP.                                             :COMPANY            
WELL.     LL 76-30 OR MUDDY CREEK 76-30           :WELL               
FLD .                                             :FIELD              
CTRY.                                             :COUNTRY            
STAT.                                             :STATE              
LOC .                                             :LOCATION           
UWI .                                             :UNIQUE WELL ID     
SRVC.                                             :Service company    
DATE.                                             :LOG DATE           
~Curve Information
#MNEM.UNIT           API CODE  Curve Description
#---------           --------  -----------------
DEPT.FT                      :   1 DEPTH
GR  .GAPI                    :   2
CALI.IN                      :   3
DPHI.PU-S                    :   4
NPHI.PU-S                    :   5
DRHO.G/C3                    :   6
SP  .MV                      :   7
ILD .OHMM                    :   8
ILM .OHMM                    :   9
SFLU.OHMM                    :  10
DT  .US/F                    :  11
RHOB.G/C3                    :  12
ROBS.G/C3                    :  13
CALS.IN                      :  14
DRHS.G/C3                    :  15
GRS .GAPI                    :  16
NPHS.PU-S                    :  17
DTS .US/F                    :  18
SBL .MV                      :  19
RD  .OHMM                    :  20
RM  .OHMM                    :  21
RS  .OHMM                    :  22
SFLU.OHMM                    :  23
ILMC.OHMM                    :  24
ILDC.OHMM                    :  25
ROBC.G/C3                    :  26
GRC .GAPI                    :  27
NPHC.PU-S                    :  28
~A
# ...
  1152.000  53.164 -999.25 -999.25 -999.25 -999.25 -30.160  2.2690  2.5320  2.4410 -999.25 -999.25 -999.25 -999.25 -999.25  48.792 -999.25 -999.25 -14.160  2.2690  2.5320  2.4410  2.4410  2.5320  2.2690 -999.25  48.792 -999.25 
  1152.500  51.376 -999.25 -999.25 -999.25 -999.25 -30.550  2.2480  2.5090  2.5320 -999.25 -999.25 -999.25 -999.25 -999.25  46.008 -999.25 -999.25 -14.550  2.2480  2.5090  2.5320  2.5320  2.5090  2.2480 -999.25  46.008 -999.25 
  1153.000  48.792 -999.25 -999.25 -999.25 -999.25 -31.531  2.2270  2.4640  2.6750 -999.25 -999.25 -999.25 -999.25 -999.25  44.620 -999.25 -999.25 -15.531  2.2270  2.4640  2.6750  2.6750  2.4640  2.2270 -999.25  44.620 -999.25 
  1153.500  46.008 -999.25 -999.25 -999.25 -999.25 -32.119  2.2070  2.3970  2.6750 -999.25 -999.25 -999.25 -999.25 -999.25  44.230 -999.25 -999.25 -16.119  2.2070  2.3970  2.6750  2.6750  2.3970  2.2070 -999.25  44.230 -999.25 
  1154.000  44.620 -999.25 -999.25 -999.25 -999.25 -31.917  2.1280  2.3530  2.4190 -999.25 -999.25 -999.25 -999.25 -999.25  44.636 -999.25 -999.25 -15.917  2.1280  2.3530  2.4190  2.4190  2.3530  2.1280 -999.25  44.636 -999.25 
  1154.500  44.230 -999.25 -999.25 -999.25 -999.25 -31.912  2.0890  2.2690  2.1670 -999.25 -999.25 -999.25 -999.25 -999.25  45.244 -999.25 -999.25 -15.912  2.0890  2.2690  2.1670  2.1670  2.2690  2.0890 -999.25  45.244 -999.25 
  1155.000  44.636 -999.25 -999.25 -999.25 -999.25 -31.513  2.0140  2.2690  2.0700 -999.25 -999.25 -999.25 -999.25 -999.25  45.649 -999.25 -999.25 -15.513  2.0140  2.2690  2.0700  2.0700  2.2690  2.0140 -999.25  45.649 -999.25 
  1155.500  45.244 -999.25 -999.25 -999.25 -999.25 -31.312  1.9770  2.2690  2.0700 -999.25 -999.25 -999.25 -999.25 -999.25  44.859 -999.25 -999.25 -15.312  1.9770  2.2690  2.0700  2.0700  2.2690  1.9770 -999.25  44.859 -999.25 
  1156.000  45.649 -999.25 -999.25 -999.25 -999.25 -31.702  1.9410  2.2690  2.1280 -999.25 -999.25 -999.25 -999.25 -999.25  44.070 -999.25 -999.25 -15.702  1.9410  2.2690  2.1280  2.1280  2.2690  1.9410 -999.25  44.070 -999.25 
  1156.500  44.859 -999.25 -999.25 -999.25 -999.25 -31.894  1.9410  2.2480  2.2070 -999.25 -999.25 -999.25 -999.25 -999.25  43.081 -999.25 -999.25 -15.894  1.9410  2.2480  2.2070  2.2070  2.2480  1.9410 -999.25  43.081 -999.25 
  1157.000  44.070 -999.25 -999.25 -999.25 -999.25 -31.693  1.9410  2.2270  2.2270 -999.25 -999.25 -999.25 -999.25 -999.25  42.092 -999.25 -999.25 -15.693  1.9410  2.2270  2.2270  2.2270  2.2270  1.9410 -999.25  42.092 -999.25 
  1157.500  43.081 -999.25 -999.25 -999.25 -999.25 -30.899  1.9240  2.2270  2.2070 -999.25 -999.25 -999.25 -999.25 -999.25  41.502 -999.25 -999.25 -14.899  1.9240  2.2270  2.2070  2.2070  2.2270  1.9240 -999.25  41.502 -999.25 
  1158.000  42.092 -999.25 -999.25 -999.25 -999.25 -31.092  1.9240  2.2270  2.1280 -999.25 -999.25 -999.25 -999.25 -999.25  41.910 -999.25 -999.25 -15.092  1.9240  2.2270  2.1280  2.1280  2.2270  1.9240 -999.25  41.910 -999.25 
  1158.500  41.502 -999.25 -999.25 -999.25 -999.25 -31.285  1.9410  2.2270  2.0700 -999.25 -999.25 -999.25 -999.25 -999.25  42.915 -999.25 -999.25 -15.285  1.9410  2.2270  2.0700  2.0700  2.2270  1.9410 -999.25  42.915 -999.25 
  1159.000  41.910 -999.25 -999.25 -999.25 -999.25 -31.675  1.9240  2.2270  2.0320 -999.25 -999.25 -999.25 -999.25 -999.25  43.920 -999.25 -999.25 -15.675  1.9240  2.2270  2.0320  2.0320  2.2270  1.9240 -999.25  43.920 -999.25 
  1159.500  42.915 -999.25 -999.25 -999.25 -999.25 -32.262  1.9240  2.2270  2.0700 -999.25 -999.25 -999.25 -999.25 -999.25  43.329 -999.25 -999.25 -16.262  1.9240  2.2270  2.0700  2.0700  2.2270  1.9240 -999.25  43.329 -999.25 
  1160.000  43.920 -999.25 -999.25 -999.25 -999.25 -32.258  1.9240  2.2270  2.1280 -999.25 -999.25 -999.25 -999.25 -999.25  41.343 -999.25 -999.25 -16.258  1.9240  2.2270  2.1280  2.1280  2.2270  1.9240 -999.25  41.343 -999.25 
  1160.500  43.329 -999.25 -999.25 -999.25 -999.25 -32.154  1.9410  2.2480  2.1470 -999.25 -999.25 -999.25 -999.25 -999.25  39.756 -999.25 -999.25 -16.154  1.9410  2.2480  2.1470  2.1470  2.2480  1.9410 -999.25  39.756 -999.25 
  1161.000  41.343 -999.25 -999.25 -999.25 -999.25 -32.051  1.9590  2.2480  2.1670 -999.25 -999.25 -999.25 -999.25 -999.25  39.565 -999.25 -999.25 -16.051  1.9590  2.2480  2.1670  2.1670  2.2480  1.9590 -999.25  39.565 -999.25 
  1161.500  39.756 -999.25 -999.25 -999.25 -999.25 -30.469  1.9770  2.2480  2.1870 -999.25 -999.25 -999.25 -999.25 -999.25  40.370 -999.25 -999.25 -14.469  1.9770  2.2480  2.1870  2.1870  2.2480  1.9770 -999.25  40.370 -999.25 
  1162.000  39.565 -999.25 -999.25 -999.25 -999.25 -29.676  1.9770  2.2480  2.1870 -999.25 -999.25 -999.25  7.0820 -999.25  42.173 -999.25 -999.25 -13.676  1.9770  2.2480  2.1870  2.1870  2.2480  1.9770 -999.25  38.769 -999.25 
  1162.500  40.370 -999.25 -999.25 -999.25 -999.25 -29.671  1.9770  2.2480  2.1670 -999.25 -999.25 -999.25  7.0840 -999.25  44.773 -999.25 -999.25 -13.671  1.9770  2.2480  2.1670  2.1670  2.2480  1.9770 -999.25  41.163 -999.25 
  1163.000  42.173  7.0820 -999.25 -999.25 -999.25 -29.667  1.9860  2.2480  2.1280 -999.25 -999.25 -999.25  7.0850 -999.25  45.578 -999.25 -999.25 -13.667  1.9860  2.2480  2.1280  2.1280  2.2480  1.9860 -999.25  41.904 -999.25 
  1163.500  44.773  7.0840 -999.25 -999.25 -999.25 -29.662  1.9950  2.2480  2.1370 -999.25 -999.25 -999.25  7.0860 -999.25  43.991 -999.25 -999.25 -13.662  1.9950  2.2480  2.1370  2.1370  2.2480  1.9950 -999.25  40.447 -999.25 
  1164.000  45.578  7.0850 -999.25 -999.25 -999.25 -29.066  2.0140  2.2480  2.1470 -999.25 -999.25 -999.25  7.0870 -999.25  42.603 -999.25 -999.25 -13.066  2.0140  2.2480  2.1470  2.1470  2.2480  2.0140 -999.25  39.172 -999.25 
  1164.500  43.991  7.0860 -999.25 -999.25 -999.25 -28.864  2.0140  2.2690  2.2890 -999.25 -999.25 -999.25  7.0880 -999.25  42.810 -999.25 -999.25 -12.864  2.0140  2.2690  2.2890  2.2890  2.2690  2.0140 -999.25  39.364 -999.25 
  1165.000  42.603  7.0870 -999.25 -999.25 -999.25 -29.057  2.0140  2.2890  2.2890 -999.25 -999.25 -999.25  7.0890 -999.25  43.417 -999.25 -999.25 -13.057  2.0140  2.2890  2.2890  2.2890  2.2890  2.0140 -999.25  39.924 -999.25 
  1165.500  42.810  7.0880 -999.25 -999.25 -999.25 -29.052  2.0320  2.3110  2.2690 -999.25 -999.25 -999.25  7.0900 -999.25  43.624 -999.25 -999.25 -13.052  2.0320  2.3110  2.2690  2.2690  2.3110  2.0320 -999.25  40.116 -999.25 
  1166.000  43.417  7.0890 -999.25 -999.25 -999.25 -29.245  2.0320  2.3110  2.1470 -999.25 -999.25 -999.25  7.0910 -999.25  42.635 -999.25 -999.25 -13.245  2.0320  2.3110  2.1470  2.1470  2.3110  2.0320 -999.25  39.208 -999.25 
  1166.500  43.624  7.0900 -999.25 -999.25 -999.25 -28.649  2.0320  2.3320  2.1870 -999.25 -999.25 -999.25  7.0930 -999.25  41.446 -999.25 -999.25 -12.649  2.0320  2.3320  2.1870  2.1870  2.3320  2.0320 -999.25  38.118 -999.25 
  1167.000  42.635  7.0910 -999.25 -999.25 -999.25 -27.856  2.0510  2.3530  2.2270 -999.25 -999.25 -999.25  7.0940 -999.25  42.053 -999.25 -999.25 -11.856  2.0510  2.3530  2.2270  2.2270  2.3530  2.0510 -999.25  38.678 -999.25 
  1167.500  41.446  7.0930 -999.25 -999.25 -999.25 -27.259  2.0700  2.3750  2.2270 -999.25 -999.25 -999.25  7.0950 -999.25  43.855 -999.25 -999.25 -11.259  2.0700  2.3750  2.2270  2.2270  2.3750  2.0700 -999.25  40.337 -999.25 
  1168.000  42.053  7.0940 -999.25 -999.25 -999.25 -27.058  2.0700  2.3970  2.2890 -999.25 -999.25 -999.25  7.0970 -999.25  45.059 -999.25 -999.25 -11.058  2.0700  2.3970  2.2890  2.2890  2.3970  2.0700 -999.25  41.447 -999.25 
  1168.500  43.855  7.0950 -999.25 -999.25 -999.25 -27.250  2.0510  2.3970  2.3110 -999.25 -999.25 -999.25  7.0980 -999.25  43.273 -999.25 -999.25 -11.250  2.0510  2.3970  2.3110  2.3110  2.3970  2.0510 -999.25  39.806 -999.25 
  1169.000  45.059  7.0970 -999.25 -999.25 -999.25 -27.049  2.0700  2.3320  2.3110 -999.25 -999.25 -999.25  7.0990 -999.25  41.087 -999.25 -999.25 -11.049  2.0700  2.3320  2.3110  2.3110  2.3320  2.0700 -999.25  37.797 -999.25 
  1169.500  43.273  7.0980 -999.25 -999.25 -999.25 -25.663  2.0700  2.3110  2.3110 -999.25 -999.25 -999.25  7.1000 -999.25  42.092 -999.25 -999.25 -9.6630  2.0700  2.3110  2.3110  2.3110  2.3110  2.0700 -999.25  38.723 -999.25 
