~Version Information
VERS.                     2.0: CWLS log ASCII Standard Version 2.00
WRAP.                      NO: One line per depth step
~Well Information Block
#MNEM.UNIT                               Data Type  Information
#---------                               ---------  -----------
STRT.FT                                    90.0000:
STOP.FT                                  2000.0000:
STEP.FT                                     0.5000:
NULL.                 -999.25                     :
COMP.                                             :COMPANY            
WELL.     LL 76-30 OR MUDDY CREEK 76-30           :WELL               
FLD .                                             :FIELD              
CTRY.                                             :COUNTRY            
STAT.                                             :STATE              
LOC .                                             :LOCATION           
UWI .                                             :UNIQUE WELL ID     
SRVC.                                             :Service company    
DATE.                                             :LOG DATE           
~Curve Information
#MNEM.UNIT           API CODE  Curve Description
#---------           --------  -----------------
DEPT.FT                      :   1 DEPTH
GR  .GAPI                    :   2
CALI.IN                      :   3
DPHI.PU-S                    :   4
NPHI.PU-S                    :   5
DRHO.G/C3                    :   6
SP  .MV                      :   7
ILD .OHMM                    :   8
ILM .OHMM                    :   9
SFLU.OHMM                    :  10
DT  .US/F                    :  11
RHOB.G/C3                    :  12
ROBS.G/C3                    :  13
CALS.IN                      :  14
DRHS.G/C3                    :  15
GRS .GAPI                    :  16
NPHS.PU-S                    :  17
DTS .US/F                    :  18
SBL .MV                      :  19
RD  .OHMM                    :  20
RM  .OHMM                    :  21
RS  .OHMM                    :  22
SFLU.OHMM                    :  23
ILMC.OHMM                    :  24
ILDC.OHMM                    :  25
ROBC.G/C3                    :  26
GRC .GAPI                    :  27
NPHC.PU-S                    :  28
~A
# ...
  1530.000  126.52  7.0850  0.4510  0.5320  0.0160 -999.25  1.4020  1.4150 -999.25  146.54  1.9059  1.8934  7.0707  0.0160  120.84  0.5390  142.85 -999.25  1.4020  1.4150 -999.25 -999.25  1.4150  1.4020  1.8934  110.47  0.5121 
  1530.500  118.96  7.0660  0.4610  0.5520  0.0160 -999.25  1.4160  1.4030 -999.25  142.85  1.8894  1.8597  7.0069  0.0078  102.00  0.5190  140.25 -999.25  1.4160  1.4030 -999.25 -999.25  1.4030  1.4160  1.8597  93.008  0.4905 
  1531.000  96.290  6.9870  0.4850  0.5390  0.0050 -999.25  1.3900  1.3770 -999.25  140.25  1.8498  1.8522  6.9431  0.0035  91.259  0.4920  138.95 -999.25  1.3900  1.3770 -999.25 -999.25  1.3770  1.3900  1.8522  83.004  0.4615 
  1531.500  89.533  6.9280  0.4830  0.5190  0.0030 -999.25  1.3780  1.3650 -999.25  138.95  1.8531  1.8677  6.9295  0.0074  88.804  0.4830  140.15 -999.25  1.3780  1.3650 -999.25 -999.25  1.3650  1.3780  1.8677  80.727  0.4518 
  1532.000  88.549  6.9300  0.4710  0.4920  0.0090 -999.25  1.3530  1.3530 -999.25  140.15  1.8729  1.8753  6.9300  0.0215  88.261  0.4960  143.04 -999.25  1.3530  1.3530 -999.25 -999.25  1.3530  1.3530  1.8753  80.235  0.4658 
  1532.500  88.159  6.9300  0.4690  0.4830  0.0260 -999.25  1.3410  1.3410 -999.25  143.04  1.8762  1.8640  6.9748  0.0260  87.436  0.5230  145.44 -999.25  1.3410  1.3410 -999.25 -999.25  1.3410  1.3410  1.8640  79.628  0.4948 
  1533.000  87.174  6.9910  0.4790  0.4960  0.0260 -999.25  1.3290  1.3290 -999.25  145.44  1.8597  1.8054  7.0647  0.0158  85.874  0.5240  145.24 -999.25  1.3290  1.3290 -999.25 -999.25  1.3290  1.3290  1.8054  78.485  0.4959 
  1533.500  85.393  7.0920  0.5240  0.5230  0.0120 -999.25  1.3290  1.3290 -999.25  145.24  1.7854  1.7722  7.2518  0.0055  85.545  0.5120  143.64 -999.25  1.3290  1.3290 -999.25 -999.25  1.3290  1.3290  1.7722  78.760  0.4830 
  1534.000  85.602  7.3120  0.5350  0.5240  0.0030 -999.25  1.3170  1.3170 -999.25  143.64  1.7673  1.7589  7.5281 -0.0028  89.062  0.4980  141.14 -999.25  1.3170  1.3170 -999.25 -999.25  1.3170  1.3170  1.7589  82.874  0.4680 
  1534.500  90.389  7.6110  0.5420  0.5120 -0.0050 -999.25  1.3170  1.3290 -999.25  141.14  1.7557  1.7581  7.8123 -0.0072  95.118  0.4870  140.84 -999.25  1.3170  1.3290 -999.25 -999.25  1.3290  1.3170  1.7581  89.461  0.4562 
  1535.000  96.966  7.8910  0.5400  0.4980 -0.0080 -999.25  1.3180  1.3300 -999.25  140.84  1.7590  1.7684  8.0484 -0.0073  101.81  0.4880  143.14 -999.25  1.3180  1.3300 -999.25 -999.25  1.3300  1.3180  1.7684  96.593  0.4573 
  1535.500  103.74  8.1110  0.5320  0.4870 -0.0070 -999.25  1.3300  1.3550 -999.25  143.14  1.7722  1.7945  8.0832 -0.0042  108.99  0.5410  146.33 -999.25  1.3300  1.3550 -999.25 -999.25  1.3550  1.3300  1.7945  103.53  0.5144 
  1536.000  111.12  8.0720  0.5130  0.4880 -0.0030 -999.25  1.3550  1.3670 -999.25  146.33  1.8036  1.8141  7.9318 -0.0002  112.39  0.5390  147.43 -999.25  1.3550  1.3670 -999.25 -999.25  1.3670  1.3550  1.8141  106.17  0.5122 
  1536.500  112.92  7.8740  0.5040  0.5410  0.0010 -999.25  1.3680  1.3680 -999.25  147.43  1.8184  1.8207  7.6782  0.0024  108.58  0.5320  147.63 -999.25  1.3680  1.3680 -999.25 -999.25  1.3680  1.3680  1.8207  101.61  0.5046 
  1537.000  106.76  7.5960  0.5020  0.5390  0.0030 -999.25  1.3550  1.3430 -999.25  147.63  1.8217  1.8159  7.4572  0.0051  94.212  0.5140  147.93 -999.25  1.3550  1.3430 -999.25 -999.25  1.3430  1.3550  1.8159  87.430  0.4852 
  1537.500  88.857  7.3980  0.5070  0.5320  0.0060 -999.25  1.3310  1.3190 -999.25  147.93  1.8135  1.8111  7.3569  0.0102  85.534  0.4940  150.17 -999.25  1.3310  1.3190 -999.25 -999.25  1.3190  1.3310  1.8111  79.072  0.4637 
  1538.000  84.091  7.3390  0.5090  0.5140  0.0120 -999.25  1.2600  1.2710 -999.25  150.17  1.8102  1.8033  7.3397  0.0169  79.956  0.4870  150.97 -999.25  1.2600  1.2710 -999.25 -999.25  1.2710  1.2600  1.8033  73.866  0.4561 
  1538.500  78.129  7.3400  0.5150  0.4940  0.0190 -999.25  1.2370  1.2150 -999.25  150.97  1.8003  1.7877  7.3407  0.0149  75.390  0.4920  152.07 -999.25  1.2370  1.2150 -999.25 -999.25  1.2150  1.2370  1.7877  69.650  0.4615 
  1539.000  74.159  7.3410  0.5260  0.4870  0.0130 -999.25  1.1930  1.1820 -999.25  152.07  1.7821  1.7595  7.3417  0.0027  73.620  0.5060  153.07 -999.25  1.1930  1.1820 -999.25 -999.25  1.1820  1.1930  1.7595  68.017  0.4766 
  1539.500  73.373  7.3420  0.5460  0.4920 -0.0020 -999.25  1.1610  1.1610 -999.25  153.07  1.7491  1.7254  7.3161 -0.0068  72.974  0.5020  153.46 -999.25  1.1610  1.1610 -999.25 -999.25  1.1610  1.1610  1.7254  67.354  0.4723 
  1540.000  72.788  7.3040  0.5670  0.5060 -0.0090 -999.25  1.1500  1.1500 -999.25  153.46  1.7145  1.7032  7.2504 -0.0090  72.253  0.4970  151.64 -999.25  1.1500  1.1500 -999.25 -999.25  1.1500  1.1500  1.7032  66.519  0.4669 
  1540.500  72.000  7.2250  0.5770  0.5020 -0.0090 -999.25  1.1500  1.1720 -999.25  151.64  1.6980  1.6991  7.1183 -0.0090  69.992  0.4910  149.82 -999.25  1.1500  1.1720 -999.25 -999.25  1.1720  1.1500  1.6991  64.105  0.4604 
  1541.000  69.027  7.0670  0.5760  0.4970 -0.0090 -999.25  1.1610  1.2160 -999.25  149.82  1.6996  1.7029  7.0408 -0.0070  69.166  0.4950  147.82 -999.25  1.1610  1.2160 -999.25 -999.25  1.2160  1.1610  1.7029  63.155  0.4647 
  1541.500  69.234  7.0280  0.5730  0.4910 -0.0060 -999.25  1.2270  1.2730 -999.25  147.82  1.7046  1.7079  7.0287 -0.0047  73.362  0.5060  146.42 -999.25  1.2270  1.2730 -999.25 -999.25  1.2730  1.2270  1.7079  66.954  0.4765 
  1542.000  75.414  7.0290  0.5700  0.4950 -0.0040 -999.25  1.2850  1.3090 -999.25  146.42  1.7095  1.7128  7.0297 -0.0040  77.404  0.5160  145.42 -999.25  1.2850  1.3090 -999.25 -999.25  1.3090  1.2850  1.7128  70.645  0.4873 
  1542.500  78.409  7.0300  0.5670  0.5060 -0.0040 -999.25  1.3210  1.3580 -999.25  145.42  1.7145  1.7177  7.0174 -0.0047  80.388  0.5100  146.42 -999.25  1.3210  1.3580 -999.25 -999.25  1.3580  1.3210  1.7177  73.333  0.4808 
  1543.000  81.404  7.0110  0.5640  0.5160 -0.0050 -999.25  1.3830  1.3960 -999.25  146.42  1.7194  1.7237  6.9591 -0.0057  85.725  0.5000  148.29 -999.25  1.3830  1.3960 -999.25 -999.25  1.3960  1.3830  1.7237  78.021  0.4701 
  1543.500  87.981  6.9320  0.5600  0.5100 -0.0060 -999.25  1.4350  1.4350 -999.25  148.29  1.7260  1.7432  6.9327 -0.0067  98.389  0.4920  150.16 -999.25  1.4350  1.4350 -999.25 -999.25  1.4350  1.4350  1.7432  89.452  0.4615 
  1544.000  103.91  6.9330  0.5440  0.5000 -0.0070 -999.25  1.4760  1.4620 -999.25  150.16  1.7524  1.7953  6.9856 -0.0057  110.77  0.4920  152.06 -999.25  1.4760  1.4620 -999.25 -999.25  1.4620  1.4760  1.7953  100.92  0.4615 
  1544.500  114.47  7.0140  0.5040  0.4920 -0.0050 -999.25  1.5170  1.4630 -999.25  152.06  1.8184  1.8376  7.0534  0.0008  124.37  0.5220  153.95 -999.25  1.5170  1.4630 -999.25 -999.25  1.4630  1.5170  1.8376  113.62  0.4938 
  1545.000  129.80  7.0750  0.4860  0.4920  0.0040 -999.25  1.5460  1.4630 -999.25  153.95  1.8481  1.8672  7.1649  0.0104  127.25  0.5270  154.55 -999.25  1.5460  1.4630 -999.25 -999.25  1.4630  1.5460  1.8672  116.76  0.4992 
  1545.500  125.83  7.2150  0.4680  0.5220  0.0140 -999.25  1.5460  1.4630 -999.25  154.55  1.8778  1.8862  7.2540  0.0204  121.01  0.5220  153.45 -999.25  1.5460  1.4630 -999.25 -999.25  1.4630  1.5460  1.8862  111.42  0.4938 
  1546.000  118.28  7.2760  0.4600  0.5270  0.0240 -999.25  1.5530  1.4630 -999.25  153.45  1.8910  1.8596  7.3020  0.0208  114.24  0.5160  149.91 -999.25  1.5530  1.4630 -999.25 -999.25  1.4630  1.5530  1.8596  105.39  0.4873 
  1546.500  111.92  7.3170  0.4900  0.5220  0.0190 -999.25  1.5610  1.4640 -999.25  149.91  1.8415  1.8155  7.3050  0.0158  101.62  0.5160  147.41 -999.25  1.5610  1.4640 -999.25 -999.25  1.4640  1.5610  1.8155  93.756  0.4873 
  1547.000  95.613  7.2980  0.5150  0.5160  0.0140 -999.25  1.5470  1.4640 -999.25  147.41  1.8003  1.7744  7.2610  0.0102  89.996  0.5140  144.11 -999.25  1.5470  1.4640 -999.25 -999.25  1.4640  1.5470  1.7744  82.888  0.4852 
  1547.500  86.667  7.2390  0.5400  0.5160  0.0080 -999.25  1.5330  1.4640 -999.25  144.11  1.7590  1.7539  7.1404  0.0043  84.065  0.5030  143.11 -999.25  1.5330  1.4640 -999.25 -999.25  1.4640  1.5330  1.7539  77.061  0.4733 
