~Version Information
VERS.                     2.0: CWLS log ASCII Standard Version 2.00
WRAP.                     YES: Multiple lines per depth step
~Well Information Block
#MNEM.UNIT                               Data Type  Information
#---------                               ---------  -----------
STRT.FT                                   800.0000:
STOP.FT                                  5530.0000:
STEP.FT                                     0.5000:
NULL.                 -999.25                     :
COMP.                                             :COMPANY            
WELL.     SANTIAGO B 73-29                        :WELL               
FLD .                                             :FIELD              
CTRY.                                             :COUNTRY            
STAT.                                             :STATE              
LOC .                                             :LOCATION           
UWI .                                             :UNIQUE WELL ID     
SRVC.                                             :Service company    
DATE.                                             :LOG DATE           
~Curve Information
#MNEM.UNIT           API CODE  Curve Description
#---------           --------  -----------------
DEPT.FT                      :   1 DEPTH
SP  .MV                      :   2
GR  .GAPI                    :   3
ILD .OHMM                    :   4
ILM .OHMM                    :   5
SFL .OHMM                    :   6
DT  .US/F                    :   7
CALI.IN                      :   8
KSCI.                        :   9
PSCI.                        :  10
OSCI.                        :  11
WSCI.                        :  12
GR  .GAPI                    :  13
RHOB.G/C3                    :  14
NPHI.PU-S                    :  15
DRHO.G/C3                    :  16
SBL .MV                      :  17
GRS .GAPI                    :  18
RD  .OHMM                    :  19
RM  .OHMM                    :  20
RS  .OHMM                    :  21
R0BS.G/C3                    :  22
DRHS.G/C3                    :  23
GRS .GAPI                    :  24
NPHS.PU-S                    :  25
DTS .US/F                    :  26
CALS.IN                      :  27
SFLC.OHMM                    :  28
ILMC.OHMM                    :  29
ILDC.OHMM                    :  30
R0BC.G/C3                    :  31
GRC .GAPI                    :  32
NPHC.PU-S                    :  33
~A
# ...
  1771.500 
 -35.588  107.88  5.3320  4.2380  4.0480  104.19  9.6890 -999.25 -999.25 
 -999.25 -999.25 -999.25 -999.25 -999.25 -999.25 -11.588  107.88  5.3320 
  4.2380  4.0480 -999.25 -999.25 -999.25 -999.25  102.30  9.6680  4.3636 
  4.2616  5.3260 -999.25 -999.25 -999.25 
  1772.000 
 -34.606  110.84  5.7890  4.3560  4.3160  102.30  9.6680 -999.25 -999.25 
 -999.25 -999.25 -999.25 -999.25 -999.25 -999.25 -10.606  110.84  5.7890 
  4.3560  4.3160 -999.25 -999.25 -999.25 -999.25  100.41  9.6670  4.6490 
  4.3810  5.7819 -999.25 -999.25 -999.25 
  1772.500 
 -33.823  110.43  6.0040  4.4770  4.6010  100.41  9.6670 -999.25 -999.25 
 -999.25 -999.25 -999.25 -999.25 -999.25 -999.25 -9.8230  110.43  6.0040 
  4.4770  4.6010 -999.25 -999.25 -999.25 -999.25  99.116  9.6770  4.9536 
  4.5036  5.9964 -999.25 -999.25 -999.25 
  1773.000 
 -33.833  108.84  6.7010  5.1820  5.0410  99.116  9.6770 -999.25 -999.25 
 -999.25 -999.25 -999.25 -999.25 -999.25 -999.25 -9.8330  108.84  6.7010 
  5.1820  5.0410 -999.25 -999.25 -999.25 -999.25  100.02  9.6860  5.4233 
  5.2179  6.6916 -999.25 -999.25 -999.25 
  1773.500 
 -34.037  104.28  7.2760  5.9460  5.5250  100.02  9.6860 -999.25 -999.25 
 -999.25 -999.25 -999.25 -999.25 -999.25 -999.25 -10.037  104.28  7.2760 
  5.9460  5.5250 -999.25 -999.25 -999.25 -999.25  97.727  9.6250  5.9293 
  5.9911  7.2646 -999.25 -999.25 -999.25 
  1774.000 
 -34.046  100.51  8.4250  7.0120  6.1100  97.727  9.6250 -999.25 -999.25 
 -999.25 -999.25 -999.25 -999.25 -999.25 -999.25 -10.046  100.51  8.4250 
  7.0120  6.1100 -999.25 -999.25 -999.25 -999.25  94.940  9.6050  6.5469 
  7.0737  8.4096 -999.25 -999.25 -999.25 
  1774.500 
 -34.647  96.739  8.9820  7.9720  6.8830  94.940  9.6050 -999.25 -999.25 
 -999.25 -999.25 -999.25 -999.25 -999.25 -999.25 -10.647  96.739  8.9820 
  7.9720  6.8830 -999.25 -999.25 -999.25 -999.25  92.850  9.6040  7.3659 
  8.0518  8.9645 -999.25 -999.25 -999.25 
  1775.000 
 -35.447  95.345  9.9330  9.2300  7.6120  92.850  9.6040 -999.25 -999.25 
 -999.25 -999.25 -999.25 -999.25 -999.25 -999.25 -11.447  95.345  9.9330 
  9.2300  7.6120 -999.25 -999.25 -999.25 -999.25  92.255  9.6230  8.1420 
  9.3389  9.9118 -999.25 -999.25 -999.25 
  1775.500 
 -37.831  87.615  10.984  10.785  8.4180  92.255  9.6230 -999.25 -999.25 
 -999.25 -999.25 -999.25 -999.25 -999.25 -999.25 -13.831  87.615  10.984 
  10.785  8.4180 -999.25 -999.25 -999.25 -999.25  89.867  9.6620  9.0053 
  10.939  10.958 -999.25 -999.25 -999.25 
  1776.000 
 -41.205  83.251  11.710  11.604  9.1410  89.867  9.6620 -999.25 -999.25 
 -999.25 -999.25 -999.25 -999.25 -999.25 -999.25 -17.205  83.251  11.710 
  11.604  9.1410 -999.25 -999.25 -999.25 -999.25  91.265  9.6610  9.7711 
  11.782  11.681 -999.25 -999.25 -999.25 
  1776.500 
 -44.976  80.272  12.034  12.257  10.108  91.265  9.6610 -999.25 -999.25 
 -999.25 -999.25 -999.25 -999.25 -999.25 -999.25 -20.976  80.272  12.034 
  12.257  10.108 -999.25 -999.25 -999.25 -999.25  101.13  9.6600  10.795 
  12.456  12.003 -999.25 -999.25 -999.25 
  1777.000 
 -46.170  78.086  12.254  12.595  10.975  101.13  9.6600 -999.25 -999.25 
 -999.25 -999.25 -999.25 -999.25 -999.25 -999.25 -22.170  78.086  12.254 
  12.595  10.975 -999.25 -999.25 -999.25 -999.25  102.73  9.6990  11.726 
  12.811  12.223 -999.25 -999.25 -999.25 
  1777.500 
 -47.762  75.702  12.477  12.593  11.701  102.73  9.6990 -999.25 -999.25 
 -999.25 -999.25 -999.25 -999.25 -999.25 -999.25 -23.762  75.702  12.477 
  12.593  11.701 -999.25 -999.25 -999.25 -999.25  95.658  9.6980  12.490 
  12.809  12.445 -999.25 -999.25 -999.25 
  1778.000 
 -48.564  73.516  12.247  12.705  11.698  95.658  9.6980 -999.25 -999.25 
 -999.25 -999.25 -999.25 -999.25 -999.25 -999.25 -24.564  73.516  12.247 
  12.705  11.698 -999.25 -999.25 -999.25 -999.25  94.565  9.6780  12.480 
  12.922  12.215 -999.25 -999.25 -999.25 
  1778.500 
 -49.364  72.318  11.802  12.701  10.867  94.565  9.6780 -999.25 -999.25 
 -999.25 -999.25 -999.25 -999.25 -999.25 -999.25 -25.364  72.318  11.802 
  12.701  10.867 -999.25 -999.25 -999.25 -999.25  95.266  9.6570  11.597 
  12.914  11.772 -999.25 -999.25 -999.25 
  1779.000 
 -50.164  72.114  11.585  12.698  10.281  95.266  9.6570 -999.25 -999.25 
 -999.25 -999.25 -999.25 -999.25 -999.25 -999.25 -26.164  72.114  11.585 
  12.698  10.281 -999.25 -999.25 -999.25 -999.25  96.664  9.6560  10.976 
  12.911  11.557 -999.25 -999.25 -999.25 
  1779.500 
 -50.765  73.293  11.266  12.577  10.092  96.664  9.6560 -999.25 -999.25 
 -999.25 -999.25 -999.25 -999.25 -999.25 -999.25 -26.765  73.293  11.266 
  12.577  10.092 -999.25 -999.25 -999.25 -999.25  95.871  9.6360  10.770 
  12.782  11.239 -999.25 -999.25 -999.25 
  1780.000 
 -50.971  74.673  10.957  12.461  9.9970  95.871  9.6360 -999.25 -999.25 
 -999.25 -999.25 -999.25 -999.25 -999.25 -999.25 -26.971  74.673  10.957 
  12.461  9.9970 -999.25 -999.25 -999.25 -999.25  95.275  9.6550  10.676 
  12.666  10.932 -999.25 -999.25 -999.25 
  1780.500 
 -51.377  74.267  10.854  12.007  9.9030  95.275  9.6550 -999.25 -999.25 
 -999.25 -999.25 -999.25 -999.25 -999.25 -999.25 -27.377  74.267  10.854 
  12.007  9.9030 -999.25 -999.25 -999.25 -999.25  91.690  9.7130  10.594 
  12.206  10.830 -999.25 -999.25 -999.25 
  1781.000 
 -51.187  73.865  10.852  11.894  9.8990  91.690  9.7130 -999.25 -999.25 
 -999.25 -999.25 -999.25 -999.25 -999.25 -999.25 -27.187  73.865  10.852 
  11.894  9.8990 -999.25 -999.25 -999.25 -999.25  87.707  9.7320  10.596 
  12.092  10.828 -999.25 -999.25 -999.25 
  1781.500 
 -50.797  73.659  10.848  11.783  9.8070  87.707  9.7320 -999.25 -999.25 
 -999.25 -999.25 -999.25 -999.25 -999.25 -999.25 -26.797  73.659  10.848 
  11.783  9.8070 -999.25 -999.25 -999.25 -999.25  85.818  9.7310  10.498 
  11.977  10.824 -999.25 -999.25 -999.25 
  1782.000 
 -50.410  73.450  10.846  11.779  9.8040  85.818  9.7310 -999.25 -999.25 
 -999.25 -999.25 -999.25 -999.25 -999.25 -999.25 -26.410  73.450  10.846 
  11.779  9.8040 -999.25 -999.25 -999.25 -999.25  85.721  9.6910  10.482 
  11.967  10.821 -999.25 -999.25 -999.25 
  1782.500 
 -50.417  73.643  10.843  11.776  9.7120  85.721  9.6910 -999.25 -999.25 
 -999.25 -999.25 -999.25 -999.25 -999.25 -999.25 -26.417  73.643  10.843 
  11.776  9.7120 -999.25 -999.25 -999.25 -999.25  85.823  9.7300  10.397 
  11.970  10.819 -999.25 -999.25 -999.25 
  1783.000 
 -50.426  73.634  10.840  11.774  9.8890  85.823  9.7300 -999.25 -999.25 
 -999.25 -999.25 -999.25 -999.25 -999.25 -999.25 -26.426  73.634  10.840 
  11.774  9.8890 -999.25 -999.25 -999.25 -999.25  86.225  9.7490  10.590 
  11.970  10.816 -999.25 -999.25 -999.25 
  1783.500 
 -50.036  73.822  10.738  11.770  10.162  86.225  9.7490 -999.25 -999.25 
 -999.25 -999.25 -999.25 -999.25 -999.25 -999.25 -26.036  73.822  10.738 
  11.770  10.162 -999.25 -999.25 -999.25 -999.25  86.826  9.7280  10.874 
  11.963  10.714 -999.25 -999.25 -999.25 
  1784.000 
 -50.044  73.620  10.687  11.660  10.254  86.826  9.7280 -999.25 -999.25 
 -999.25 -999.25 -999.25 -999.25 -999.25 -999.25 -26.044  73.620  10.687 
  11.660  10.254 -999.25 -999.25 -999.25 -999.25  87.725  9.7270  10.971 
  11.849  10.663 -999.25 -999.25 -999.25 
  1784.500 
 -50.646  73.216  10.636  11.340  10.064  87.725  9.7270 -999.25 -999.25 
 -999.25 -999.25 -999.25 -999.25 -999.25 -999.25 -26.646  73.216  10.636 
  11.340  10.064 -999.25 -999.25 -999.25 -999.25  89.024  9.7070  10.763 
  11.516  10.613 -999.25 -999.25 -999.25 
  1785.000 
 -50.852  74.000  10.437  11.131  9.6980  89.024  9.7070 -999.25 -999.25 
 -999.25 -999.25 -999.25 -999.25 -999.25 -999.25 -26.852  74.000  10.437 
  11.131  9.6980 -999.25 -999.25 -999.25 -999.25  89.526  9.6860  10.368 
  11.298  10.414 -999.25 -999.25 -999.25 
  1785.500 
 -50.860  75.180  10.825  11.230  9.4330  89.526  9.6860 -999.25 -999.25 
 -999.25 -999.25 -999.25 -999.25 -999.25 -999.25 -26.860  75.180  10.825 
  11.230  9.4330 -999.25 -999.25 -999.25 -999.25  89.131  9.6760  10.085 
  11.399  10.800 -999.25 -999.25 -999.25 
