~Version Information
VERS.                     2.0: CWLS log ASCII Standard Version 2.00
WRAP.                     YES: Multiple lines per depth step
~Well Information Block
#MNEM.UNIT                               Data Type  Information
#---------                               ---------  -----------
STRT.FT                                   850.0000:
STOP.FT                                  6800.0000:
STEP.FT                                     0.5000:
NULL.                 -999.25                     :
COMP.                                             :COMPANY            
WELL.     SANTIAGO D #26-27                       :WELL               
FLD .                                             :FIELD              
CTRY.                                             :COUNTRY            
STAT.                                             :STATE              
LOC .                                             :LOCATION           
UWI .                                             :UNIQUE WELL ID     
SRVC.                                             :Service company    
DATE.                                             :LOG DATE           
~Curve Information
#MNEM.UNIT           API CODE  Curve Description
#---------           --------  -----------------
DEPT.FT                      :   1 DEPTH
DCAL.IN                      :   2
DGR .GAPI                    :   3
NPHI.PU-S                    :   4
DPHI.PU-S                    :   5
DRHO.G/C3                    :   6
AGR .GAPI                    :   7
ACAL.IN                      :   8
DT  .US/F                    :   9
GR  .GAPI                    :  10
SP  .MV                      :  11
ILM .OHMM                    :  12
ILD .OHMM                    :  13
SFLU.OHMM                    :  14
RHOB.G/C3                    :  15
RS  .OHMM                    :  16
RM  .OHMM                    :  17
RD  .OHMM                    :  18
GRS .GAPI                    :  19
SBL .MV                      :  20
ROBS.G/C3                    :  21
DRHS.G/C3                    :  22
CALS.IN                      :  23
GRS .GAPI                    :  24
NPHS.PU-S                    :  25
CALS.IN                      :  26
GRS .GAPI                    :  27
SFLU.OHMM                    :  28
ILMC.OHMM                    :  29
ILDC.OHMM                    :  30
ROBC.G/C3                    :  31
GRC .GAPI                    :  32
NPHC.PU-S                    :  33
~A
# ...
  6693.500 
  9.9550 -999.25  0.2770  0.1960  0.0200  65.366  12.610 -999.25 -999.25 
  25.548  4.2410  4.3430  5.3660  2.3266  5.3660  4.2410  4.3430 -999.25 
  33.548  2.3250  0.0080  10.022 -999.25  0.2740 -999.25 -999.25  5.8039 
  4.2825  4.3384  2.3325 -999.25  0.2875 
  6694.000 
  9.9510 -999.25  0.2740  0.1960  0.0280  65.490  12.611 -999.25 -999.25 
  26.434  4.1510  4.1590  5.0540  2.3266  5.0540  4.1510  4.1590 -999.25 
  34.434  2.3266  0.0200  9.9550 -999.25  0.2750 -999.25 -999.25  5.4591 
  4.1891  4.1546  2.3337 -999.25  0.2886 
  6694.500 
  9.9590 -999.25  0.2750  0.2010  0.0270  65.496  12.612 -999.25 -999.25 
  26.490  4.0720  4.0940  4.4960  2.3184  4.4960  4.0720  4.0940 -999.25 
  34.490  2.3266  0.0280  9.9510 -999.25  0.2770 -999.25 -999.25  4.8602 
  4.1086  4.0897  2.3336 -999.25  0.2911 
  6695.000 
  9.9520 -999.25  0.2770  0.2190  0.0190  65.501  12.612 -999.25 -999.25 
  26.188  4.0520  4.0600  4.1960  2.2887  4.1960  4.0520  4.0600 -999.25 
  34.188  2.3184  0.0270  9.9590 -999.25  0.2830 -999.25 -999.25  4.5393 
  4.0884  4.0558  2.3255 -999.25  0.2985 
  6695.500 
  9.6600 -999.25  0.2830  0.2400 -0.0020  65.389  12.605 -999.25 -999.25 
  25.847  4.0330  4.0400  4.4370  2.2540  4.4370  4.0330  4.0400 -999.25 
  33.847  2.2887  0.0190  9.9520 -999.25  0.2940 -999.25 -999.25  4.7971 
  4.0689  4.0359  2.2957 -999.25  0.3122 
  6696.000 
  8.8960 -999.25  0.2940  0.2510 -0.0060  65.276  12.605 -999.25 -999.25 
  25.860  4.0280  4.0430  4.7880  2.2359  4.7880  4.0280  4.0430 -999.25 
  33.860  2.2540 -0.0020  9.6600 -999.25  0.3060 -999.25 -999.25  5.1342 
  4.0570  4.0383  2.2590 -999.25  0.3267 
  6696.500 
  7.6860 -999.25  0.3060  0.2510 -0.0070  65.262  12.610 -999.25 -999.25 
  25.875  4.0380  4.0460  5.2150  2.2359  5.2150  4.0380  4.0460 -999.25 
  33.875  2.2359 -0.0060  8.8960 -999.25  0.3150 -999.25 -999.25  5.4726 
  4.0495  4.0397  2.2359 -999.25  0.3365 
  6697.000 
  7.7300 -999.25  0.3150  0.2510 -0.0080  65.247  12.611 -999.25 -999.25 
  25.059  4.0420  4.0710  5.4430  2.2359  5.4430  4.0420  4.0710 -999.25 
  33.059  2.2359 -0.0070  7.6860 -999.25  0.3220 -999.25 -999.25  5.5162 
  4.0365  4.0622  2.2359 -999.25  0.3428 
  6697.500 
  7.8320 -999.25  0.3220  0.2460 -0.0080  65.312  12.607 -999.25 -999.25 
  24.639  4.0300  4.0960  5.5390  2.2441  5.5390  4.0300  4.0960 -999.25 
  32.639  2.2359 -0.0080  7.7300 -999.25  0.3230 -999.25 -999.25  5.6182 
  4.0249  4.0871  2.2359 -999.25  0.3442 
  6698.000 
  7.9150 -999.25  0.3230  0.2260 -0.0070  65.377  12.600 -999.25 -999.25 
  25.247  4.0250  4.1380  5.3520  2.2771  5.3520  4.0250  4.1380 -999.25 
  33.247  2.2441 -0.0080  7.8320 -999.25  0.3160 -999.25 -999.25  5.4489 
  4.0208  4.1292  2.2441 -999.25  0.3355 
  6698.500 
  8.2030 -999.25  0.3160  0.1960 -0.0060  65.561  12.598 -999.25 -999.25 
  26.491  4.0430  4.1710  4.6920  2.3266  4.6920  4.0430  4.1710 -999.25 
  34.491  2.2771 -0.0070  7.9150 -999.25  0.3040 -999.25 -999.25  4.8032 
  4.0394  4.1622  2.2771 -999.25  0.3206 
  6699.000 
  8.7470 -999.25  0.3040  0.1710 -0.0040  65.744  12.597 -999.25 -999.25 
  27.062  4.0830  4.2280  4.2520  2.3679  4.2520  4.0830  4.2280 -999.25 
  35.062  2.3266 -0.0060  8.2030 -999.25  0.2960 -999.25 -999.25  4.3964 
  4.0819  4.2196  2.3266 -999.25  0.3112 
  6699.500 
  9.3110 -999.25  0.2960  0.1540 -0.0020  65.831  12.600 -999.25 -999.25 
  27.155  4.2240  4.3180  4.2700  2.3959  4.2700  4.2240  4.3180 -999.25 
  35.155  2.3679 -0.0040  8.7470 -999.25  0.2910 -999.25 -999.25  4.4779 
  4.2328  4.3105  2.3679 -999.25  0.3061 
  6700.000 
  9.5120 -999.25  0.2910  0.1420  0.0060  65.875  12.602 -999.25 -999.25 
  26.973  4.4830  4.5250  4.4580  2.4157  4.4580  4.4830  4.5250 -999.25 
  34.973  2.3959 -0.0020  9.3110 -999.25  0.2910 -999.25 -999.25  4.7408 
  4.5090  4.5182  2.3983 -999.25  0.3072 
  6700.500 
  9.4880 -999.25  0.2910  0.1270  0.0290 -999.25 -999.25 -999.25 -999.25 
  26.758  4.7920  4.8280  5.3110  2.4405  5.3110  4.7920  4.8280 -999.25 
  34.758  2.4157  0.0060  9.5120 -999.25  0.2940 -999.25 -999.25  5.6665 
  4.8283  4.8208  2.4196 -999.25  0.3113 
  6701.000 
  9.4870 -999.25  0.2940  0.1210  0.0660 -999.25 -999.25 -999.25 -999.25 
  24.645  5.0190  5.1030  6.4210  2.4504  6.4210  5.0190  5.1030 -999.25 
  32.645  2.4405  0.0290  9.4880 -999.25  0.2970 -999.25 -999.25  6.8325 
  5.0579  5.0949  2.4442 -999.25  0.3150 
  6701.500 
  9.5920 -999.25  0.2970  0.1320  0.0820 -999.25 -999.25 -999.25 -999.25 
  23.680  5.1900  5.3060  7.9220  2.4322  7.9220  5.1900  5.3060 -999.25 
  31.680  2.4504  0.0660  9.4870 -999.25  0.2990 -999.25 -999.25  8.4114 
  5.2316  5.2972  2.4541 -999.25  0.3175 
  6702.000 
  9.6340 -999.25  0.2990  0.1700  0.0820 -999.25 -999.25 -999.25 -999.25 
  23.149  5.2400  5.3960  9.3690  2.3695  9.3690  5.2400  5.3960 -999.25 
  31.149  2.4322  0.0820  9.5920 -999.25  0.3000 -999.25 -999.25  9.9573 
  5.2866  5.3873  2.4367 -999.25  0.3190 
  6702.500 
  9.6410 -999.25  0.3000  0.2080  0.0800 -999.25 -999.25 -999.25 -999.25 
 -999.25  5.2230  5.2810  9.3730  2.3068  9.3730  5.2230  5.2810 -999.25 
 -999.25  2.3695  0.0820  9.6340 -999.25  0.3010 -999.25 -999.25  9.9741 
  5.2709  5.2728  2.3743 -999.25  0.3203 
  6703.000 
  9.6210 -999.25  0.3010  0.2330  0.0720 -999.25 -999.25 -999.25 -999.25 
 -999.25  5.0730  5.0830  8.0490  2.2656  8.0490  5.0730  5.0830 -999.25 
 -999.25  2.3068  0.0800  9.6410 -999.25  0.3020 -999.25 -999.25  8.5846 
  5.1184  5.0755  2.3116 -999.25  0.3216 
  6703.500 
  9.6000 -999.25  0.3020  0.2480  0.0650 -999.25 -999.25 -999.25 -999.25 
 -999.25  4.7680  4.8830  5.5330  2.2408  5.5330  4.7680  4.8830 -999.25 
 -999.25  2.2656  0.0720  9.6210 -999.25  0.3020 -999.25 -999.25  5.9184 
  4.8075  4.8760  2.2702 -999.25  0.3215 
  6704.000 
  9.5990 -999.25  0.3020  0.2570  0.0580 -999.25 -999.25 -999.25 -999.25 
 -999.25  4.6230  4.6910  4.6310  2.2260  4.6310  4.6230  4.6910 -999.25 
 -999.25  2.2408  0.0650  9.6000 -999.25  0.3020 -999.25 -999.25  4.9597 
  4.6594  4.6845  2.2453 -999.25  0.3215 
  6704.500 
  9.5940 -999.25  0.3020  0.2590  0.0540 -999.25 -999.25 -999.25 -999.25 
 -999.25  4.4990  4.5570  4.5740  2.2227  4.5740  4.4990  4.5570 -999.25 
 -999.25  2.2260  0.0580  9.5990 -999.25  0.3020 -999.25 -999.25  4.8992 
  4.5335  4.5508  2.2305 -999.25  0.3215 
  6705.000 
  9.5970 -999.25  0.3020  0.2570  0.0580 -999.25 -999.25 -999.25 -999.25 
 -999.25  4.4190  4.8710  4.8800  2.2260  4.8800  4.4190  4.8710 -999.25 
 -999.25  2.2227  0.0540  9.5940 -999.25  0.3020 -999.25 -999.25  5.2227 
  4.4521  4.8639  2.2271 -999.25  0.3215 
  6705.500 
  9.6000 -999.25  0.3020  0.2550  0.0630 -999.25 -999.25 -999.25 -999.25 
 -999.25  4.3640  5.0270  5.0000  2.2293  5.0000  4.3640  5.0270 -999.25 
 -999.25  2.2260  0.0580  9.5970 -999.25  0.3020 -999.25 -999.25  5.3502 
  4.3964  5.0195  2.2305 -999.25  0.3215 
  6706.000 
  9.5950 -999.25  0.3020  0.2520  0.0640 -999.25 -999.25 -999.25 -999.25 
 -999.25  4.3340  5.0120  5.0300  2.2342  5.0300  4.3340  5.0120 -999.25 
 -999.25  2.2293  0.0630  9.6000 -999.25  0.3020 -999.25 -999.25  5.3824 
  4.3660  5.0045  2.2338 -999.25  0.3215 
  6706.500 
  9.6020 -999.25  0.3020  0.2530  0.0610 -999.25 -999.25 -999.25 -999.25 
 -999.25  4.3350  4.9940  4.9680  2.2326  4.9680  4.3350  4.9940 -999.25 
 -999.25  2.2342  0.0640  9.5950 -999.25 -999.25 -999.25 -999.25  5.3161 
  4.3669  4.9866  2.2387 -999.25 -999.25 
  6707.000 
 -999.25 -999.25 -999.25 -999.25 -999.25 -999.25 -999.25 -999.25 -999.25 
 -999.25  4.3450  4.9690  4.9420 -999.25  4.9420  4.3450  4.9690 -999.25 
 -999.25  2.2326  0.0610  9.6020 -999.25 -999.25 -999.25 -999.25  5.2895 
  4.3772  4.9617  2.2371 -999.25 -999.25 
  6707.500 
 -999.25 -999.25 -999.25 -999.25 -999.25 -999.25 -999.25 -999.25 -999.25 
 -999.25  4.3470  4.9440  4.8720 -999.25  4.8720  4.3470  4.9440 -999.25 
 -999.25 -999.25 -999.25 -999.25 -999.25 -999.25 -999.25 -999.25  4.8720 
  4.3470  4.9440 -999.25 -999.25 -999.25 
