~Version Information
VERS.                     2.0: CWLS log ASCII Standard Version 2.00
WRAP.                     YES: Multiple lines per depth step
~Well Information Block
#MNEM.UNIT                               Data Type  Information
#---------                               ---------  -----------
STRT.FT                                   100.0000:
STOP.FT                                  3000.0000:
STEP.FT                                     0.5000:
NULL.                 -999.25                     :
COMP.                                             :COMPANY            
WELL.     LOS LOBOS 51X-30                        :WELL               
FLD .                                             :FIELD              
CTRY.                                             :COUNTRY            
STAT.                                             :STATE              
LOC .                                             :LOCATION           
UWI .                                             :UNIQUE WELL ID     
SRVC.                                             :Service company    
DATE.                                             :LOG DATE           
~Curve Information
#MNEM.UNIT           API CODE  Curve Description
#---------           --------  -----------------
DEPT.FT                      :   1 DEPTH
GR  .GAPI                    :   2
CALI.IN                      :   3
DPHI.PU-S                    :   4
NPHI.PU-S                    :   5
DRHO.G/C3                    :   6
DT  .US/F                    :   7
ROP .                        :   8
GAS .                        :   9
CGAS.                        :  10
C1R .                        :  11
C2R .                        :  12
C3R .                        :  13
SP  .MV                      :  14
ILD .OHMM                    :  15
ILM .OHMM                    :  16
SFLU.OHMM                    :  17
GRS .GAPI                    :  18
CALS.IN                      :  19
ROBS.G/C3                    :  20
NPHS.PU-S                    :  21
DROS.G/C3                    :  22
DTS .US/F                    :  23
SBL .MV                      :  24
 RD .OHMM                    :  25
RM  .OHMM                    :  26
RS  .OHMM                    :  27
SFLU.OHMM                    :  28
ILMC.OHMM                    :  29
ILDC.OHMM                    :  30
ROBC.G/C3                    :  31
GRC .GAPI                    :  32
NPHC.PU-S                    :  33
~A
# ...
  1738.500 
  35.646  7.3230  0.4000  0.0060 -999.25 -999.25  62.665  19.298  50.552 
  4.9606  1.5826  0.3272 -39.921  8.8050  8.4790  7.6410  37.779  7.3240 
  1.8745 -0.0580 -999.25 -999.25 -19.921  8.8050  8.4790  7.6410  7.6410 
  8.4790  8.8050  1.8745  35.261 -0.0697 
  1739.000 
  35.639  7.3230  0.4390 -0.0160 -999.25 -999.25  62.838  17.239  50.893 
  4.9572  1.5818  0.3263 -39.964  8.8680  8.6510  7.3800  40.554  7.3240 
  1.8250  1.1300 -999.25 -999.25 -19.964  8.8680  8.6510  7.3800  7.3800 
  8.6510  8.8680  1.8250  37.852  1.1386 
  1739.500 
  37.779  7.3240  0.4700 -0.0580 -999.25 -999.25  64.361  15.296  51.693 
  4.9541  1.5810  0.3255 -40.006  8.7380  9.2380  7.3130  40.706  7.3240 
  1.8019  1.1220 -999.25 -999.25 -20.006  8.7380  9.2380  7.3130  7.3130 
  9.2380  8.7380  1.8019  37.993  1.1301 
  1740.000 
  40.554  7.3240  0.5000  1.1300 -999.25 -999.25  79.809  15.647  52.357 
  5.1552  1.5802  0.3247 -40.367  8.6090  9.4420  7.2330  38.950  7.3240 
  1.7788 -999.25 -999.25 -999.25 -20.367  8.6090  9.4420  7.2330  7.2330 
  9.4420  8.6090  1.7788  36.354 -999.25 
  1740.500 
  40.706  7.3240  0.5140  1.1220 -999.25 -999.25  79.674  16.706  52.830 
  5.1512  1.5794  0.3239 -40.688  8.7510  9.1700  7.0760  37.273  7.3240 
  1.7689 -999.25 -999.25 -999.25 -20.688  8.7510  9.1700  7.0760  7.0760 
  9.1700  8.7510  1.7689  34.789 -999.25 
  1741.000 
  38.950  7.3240  0.5280  1.1310 -999.25 -999.25  79.578  17.724  53.071 
  5.1471  1.5786  0.3231 -40.611  9.0080  8.4930  6.8600  36.153  7.3240 
  1.7607  1.1400 -999.25 -999.25 -20.611  9.0080  8.4930  6.8600  6.8600 
  8.4930  9.0080  1.7607  33.744  1.1493 
  1741.500 
  37.273  7.3240  0.5340 -999.25 -999.25 -999.25  79.482  18.646  52.898 
  5.1430  1.5778  0.3222 -40.733  9.0560  8.2780  6.6500  34.954  7.3240 
  1.7673  1.1400 -999.25 -999.25 -20.733  9.0560  8.2780  6.6500  6.6500 
  8.2780  9.0560  1.7673  32.625  1.1493 
  1742.000 
  36.153  7.3240  0.5390  1.1400 -999.25 -999.25  79.386  19.459  52.636 
  5.1389  1.5770  0.3214 -40.735  8.9390  8.2030  6.9220  33.277  7.3250 
  1.7871 -0.0490 -999.25 -999.25 -20.735  8.9390  8.2030  6.9220  6.9220 
  8.2030  8.9390  1.7871  31.061 -0.0623 
  1742.500 
  34.954  7.3240  0.5350  1.1400 -999.25 -999.25  79.290  20.328  52.164 
  5.1348  1.5761  0.3206 -40.379  8.6960  8.2030  6.9720  31.680  7.3250 
  1.7953 -0.0400 -999.25 -999.25 -20.379  8.6960  8.2030  6.9720  6.9720 
  8.2030  8.6960  1.7953  29.570 -0.0548 
  1743.000 
  33.277  7.3250  0.5230 -0.0490 -999.25 -999.25  79.194  21.226  51.554 
  5.1307  1.5753  0.3198 -39.943  8.1710  8.1720  6.9720  31.832  7.3250 
  1.7590 -0.0480 -999.25 -999.25 -19.943  8.1710  8.1720  6.9720  6.9720 
  8.1720  8.1710  1.7590  29.712 -0.0614 
  1743.500 
  31.680  7.3250  0.5180 -0.0400 -999.25 -999.25  79.098  21.862  51.369 
  5.1266  1.5745  0.3189 -39.547  8.1700  8.1420  6.9850  33.017  7.3250 
  1.7491  1.1400 -999.25 -999.25 -19.547  8.1700  8.1420  6.9850  6.9850 
  8.1420  8.1700  1.7491  30.818  1.1493 
  1744.000 
  31.832  7.3250  0.5400 -0.0480 -999.25 -999.25  79.002  21.941  51.330 
  5.1207  1.5737  0.3181 -39.350  8.4720  8.1270  6.9970  33.726  7.3250 
  1.7392  1.1320 -999.25 -999.25 -19.350  8.4720  8.1270  6.9970  6.9970 
  8.1270  8.4720  1.7392  31.480  1.1407 
  1744.500 
  33.017  7.3250  0.5460  1.1400 -999.25 -999.25  78.906  21.880  51.436 
  5.3560  1.5732  0.3173 -39.472  8.4550  8.0820  6.9840  34.434  7.3250 
  1.7491  1.1240 -999.25 -999.25 -19.472  8.4550  8.0820  6.9840  6.9840 
  8.0820  8.4550  1.7491  32.141  1.1322 
  1745.000 
  33.726  7.3250  0.5520  1.1320 -999.25 -999.25  53.994  21.825  51.678 
  5.3545  1.7901  0.3165 -39.594  8.4540  8.0530  6.9580  34.268  7.3250 
  1.7590  1.1200 -999.25 -999.25 -19.594  8.4540  8.0530  6.9580  6.9580 
  8.0530  8.4540  1.7590  31.986  1.1279 
  1745.500 
  34.434  7.3250  0.5460  1.1240 -999.25 -999.25  53.783  21.794  51.919 
  5.3534  1.7899  0.3157 -39.517  8.5920  8.1110  6.9580  34.340  7.3260 
  1.8036  1.1270 -999.25 -999.25 -19.517  8.5920  8.1110  6.9580  6.9580 
  8.1110  8.5920  1.8036  32.054  1.1354 
  1746.000 
  34.268  7.3250  0.5400  1.1200 -999.25 -999.25  53.571  22.207  52.159 
  5.3523  1.7898  0.3148 -39.519  9.3270  8.1710  6.9200  36.003  7.3260 
  1.8234 -0.0580 -999.25 -999.25 -19.519  9.3270  8.1710  6.9200  6.9200 
  8.1710  9.3270  1.8234  33.607 -0.0697 
  1746.500 
  34.340  7.3260  0.5130  1.1270 -999.25 -999.25  53.360  22.541  52.398 
  5.3512  1.7897  0.3140 -39.760  11.716  8.2150  6.9070  38.540  7.3260 
  1.8217 -0.0230 -999.25 -999.25 -19.760  11.716  8.2150  6.9070  6.9070 
  8.2150  11.716  1.8217  35.975 -0.0406 
  1747.000 
  36.003  7.3260  0.5010 -0.0580 -999.25 -999.25  53.149  23.012  52.736 
  5.3501  1.7895  0.3132 -39.882  11.822  8.2300  6.8940  40.600  7.3260 
  1.7590 -0.0010 -999.25 -999.25 -19.882  11.822  8.2300  6.8940  6.8940 
  8.2300  11.822  1.7590  37.898 -0.0220 
  1747.500 
  38.540  7.3260  0.5020 -0.0230 -999.25 -999.25  52.938  23.427  53.077 
  5.3491  1.7894  0.3124 -39.964  10.808  8.2750  6.8810  41.229  7.3610 
  1.6221  0.0430 -999.25 -999.25 -19.964  10.808  8.2750  6.8810  6.8810 
  8.2750  10.808  1.6221  38.539  0.0158 
  1748.000 
  40.600  7.3260  0.5400 -0.0010 -999.25 -999.25  52.726  21.847  53.340 
  5.3480  1.7892  0.3116 -39.967  10.439  8.3350  6.8560  42.494  7.3810 
  1.6501  0.0400 -999.25 -999.25 -19.967  10.439  8.3350  6.8560  6.8560 
  8.3350  10.439  1.6501  39.754  0.0132 
  1748.500 
  41.229  7.3610  0.6230  0.0430 -999.25 -999.25  52.515  20.474  53.590 
  5.3469  1.7891  0.3107 -40.089  10.096  8.2890  6.8430  46.622  7.4200 
  1.7607  0.0340 -999.25 -999.25 -20.089  10.096  8.2890  6.8430  6.8430 
  8.2890  10.096  1.7607  43.684  0.0080 
  1749.000 
  42.494  7.3810  0.6060  0.0400 -999.25 -999.25  52.304  20.220  53.912 
  5.3458  1.7890  0.3099 -40.131  9.7525  8.2590  6.8560  56.632  7.4440 
  1.8382  0.0280 -0.2690 -999.25 -20.131  9.7525  8.2590  6.8560  6.8560 
  8.2590  9.7525  1.8382  53.114  0.0028 
  1749.500 
  46.622  7.4200  0.5390  0.0340 -999.25 -999.25  52.093  20.288  54.234 
  5.3448  1.7888  0.6663 -39.774  9.4092  8.2890  6.8430  63.938  7.4950 
  1.9570  0.0360  0.0050 -999.25 -19.774  9.4092  8.2890  6.8430  6.8430 
  8.2890  9.4092  1.9570  60.089  0.0097 
  1750.000 
  56.632  7.4440  0.4920  0.0280 -0.2690  150.01  51.882  20.348  54.556 
  5.3437  1.7887  0.6667 -39.099  9.0659  8.3190  6.8430  70.688  7.5780 
  1.6848  0.0440  0.0350  150.01 -19.099  9.0659  8.3190  6.8430  6.8430 
  8.3190  9.0659  1.6848  66.652  0.0167 
  1750.500 
  63.938  7.4950  0.4200  0.0360  0.0050  151.78  51.671  20.448  54.877 
  5.3426  1.7886  0.6671 -999.25  8.7226  1609.5 -999.25  71.633  7.7410 
  1.6468  0.0350  0.0160  151.78 -999.25  8.7226  1609.5 -999.25 -999.25 
  1609.5  8.7226  1.6468  68.844  0.0095 
  1751.000 
  70.688  7.5780  0.5850  0.0440  0.0350  175.38  71.761  20.701  55.197 
  5.3415  1.7884  0.6675 -999.25  8.3793  1719.0 -999.25  71.148  8.0380 
  1.6221  0.0370 -0.0020  175.38 -999.25  8.3793  1719.0 -999.25 -999.25 
  1719.0  8.3793  1.6221  69.199  0.0114 
  1751.500 
  71.633  7.7410  0.6080  0.0350  0.0160  178.10  71.577  20.954  55.540 
  5.3405  1.7883  0.6679 -999.25  8.0360  1836.0 -999.25  70.582  8.5390 
  1.6452  0.0610 -0.0020  178.10 -999.25  8.0360  1836.0 -999.25 -999.25 
  1836.0  8.0360  1.6452  69.992  0.0329 
  1752.000 
  71.148  8.0380  0.6230  0.0370 -0.0020  180.86  71.393  21.239  55.890 
  5.3394  1.7881  0.6682 -999.25  7.6927  1946.1 -999.25  70.176  9.2940 
  1.6402  0.0860  0.0030  180.86 -999.25  7.6927  1946.1 -999.25 -999.25 
  1946.1  7.6927  1.6425  71.533  0.0558 
  1752.500 
  70.582  8.5390  0.6090  0.0610 -0.0020  181.16  71.208  21.547  56.261 
  5.3383  1.7880  0.6686 -999.25  7.3494  977.56 -999.25  70.088  9.6270 
  1.6270  0.1230  0.0050  181.16 -999.25  7.3494  977.56 -999.25 -999.25 
  977.56  7.3494  1.6317  72.272  0.0902 
