~Version Information
VERS.                     2.0: CWLS log ASCII Standard Version 2.00
WRAP.                      NO: One line per depth step
~Well Information Block
#MNEM.UNIT                               Data Type  Information
#---------                               ---------  -----------
STRT.FT                                   318.0000:
STOP.FT                                  2700.0000:
STEP.FT                                     0.5000:
NULL.                 -999.25                     :
COMP.                                             :COMPANY            
WELL.     LOS LOBOS 82X-30                        :WELL               
FLD .                                             :FIELD              
CTRY.                                             :COUNTRY            
STAT.                                             :STATE              
LOC .                                             :LOCATION           
UWI .                                             :UNIQUE WELL ID     
SRVC.                                             :Service company    
DATE.                                             :LOG DATE           
~Curve Information
#MNEM.UNIT           API CODE  Curve Description
#---------           --------  -----------------
DEPT.FT                      :   1 DEPTH
SP  .MV                      :   2
ILD .OHMM                    :   3
ILM .OHMM                    :   4
SFLU.OHMM                    :   5
CALI.IN                      :   6
GR  .GAPI                    :   7
NPHI.PU-S                    :   8
DPHI.PU-S                    :   9
DRHO.G/C3                    :  10
CALI.IN                      :  11
DT  .US/F                    :  12
SBL .MV                      :  13
RS  .OHMM                    :  14
RM  .OHMM                    :  15
RD  .OHMM                    :  16
DTS .US/F                    :  17
CALS.IN                      :  18
RHOB.G/C3                    :  19
ROBS.G/C3                    :  20
DROS.G/C3                    :  21
CALS.IN                      :  22
GRS .GAPI                    :  23
NPHS.PU-S                    :  24
SFLU.OHMM                    :  25
ILMC.OHMM                    :  26
ILDC.OHMM                    :  27
ROBC.G/C3                    :  28
GRC .GAPI                    :  29
NPHC.PU-S                    :  30
~A
# ...
  2050.500 -5.4920  2.2830  2.2400  2.1170  7.2950  67.894  0.5460  0.4160  0.0040  6.8990  135.34 -6.4525  2.1170  2.2400  2.2830  135.10  6.8942  1.9636  1.9618  0.0062  7.2894  69.599  0.5460  2.1883  2.2373  2.2800  1.9618  65.531  0.5439 
  2051.000 -5.8880  2.2690  2.2470  2.1210  7.3090  67.072  0.5600  0.4090  0.0070  6.9020  135.73 -6.8354  2.1210  2.2470  2.2690  135.60  6.9010  1.9752  1.9709  0.0059  7.3038  68.092  0.5600  2.1929  2.2443  2.2660  1.9709  64.151  0.5597 
  2051.500 -6.7970  2.2570  2.2530  2.1210  7.3410  70.959  0.5720  0.4030  0.0100  6.9040  135.62 -7.7312  2.1210  2.2530  2.2570  135.66  6.9033  1.9851  1.9814  0.0089  7.3292  67.267  0.5720  2.1940  2.2504  2.2541  1.9814  63.442  0.5732 
  2052.000 -6.9550  2.2450  2.2570  2.1210  7.3570  69.154  0.5740  0.3980  0.0150  6.9020  134.15 -7.8761  2.1210  2.2570  2.2450  134.64  6.9027  1.9933  1.9903  0.0132  7.3511  70.051  0.5740  2.1950  2.2544  2.2421  1.9903  66.129  0.5754 
  2052.500 -6.7970  2.2330  2.2610  2.1250  7.3740  67.582  0.5620  0.3940  0.0210  6.8970  133.72 -7.7049  2.1250  2.2610  2.2330  133.86  6.8986  1.9999  1.9975  0.0188  7.3678  69.570  0.5620  2.1997  2.2585  2.2302  1.9975  65.720  0.5620 
  2053.000 -6.5590  2.2250  2.2640  2.1450  7.3900  67.360  0.5570  0.3970  0.0270  6.8910  133.51 -7.4537  2.1450  2.2640  2.2250  133.57  6.8930  1.9950  1.9968  0.0248  7.3842  67.939  0.5570  2.2203  2.2615  2.2222  1.9968  64.224  0.5564 
  2053.500 -6.3210  2.2170  2.2670  2.1640  7.4060  67.997  0.5560  0.4080  0.0290  6.8890  133.26 -7.2026  2.1640  2.2670  2.2170  133.34  6.8896  1.9768  1.9834  0.0283  7.4002  67.410  0.5560  2.2400  2.2645  2.2142  1.9834  63.766  0.5553 
  2054.000 -6.2810  2.2090  2.2700  2.1960  7.4380  68.634  0.5550  0.4180  0.0030  6.8880  133.22 -7.1494  2.1960  2.2700  2.2090  133.23  6.8883  1.9603  1.9663  0.0125  7.4264  67.857  0.5550  2.2731  2.2676  2.2063  1.9663  64.260  0.5541 
  2054.500 -6.5180  2.2070  2.2680  2.2090  7.4550  68.844  0.5410  0.4220 -0.0050  6.8870  134.79 -7.3733  2.2090  2.2680  2.2070  134.29  6.8873  1.9537  1.9561 -0.0021  7.4488  68.496  0.5410  2.2871  2.2657  2.2043  1.9561  64.926  0.5384 
  2055.000 -7.1500  2.2050  2.2670  2.1750  7.4710  69.053  0.5320  0.4110  0.0140  6.8930  136.75 -7.9921  2.1750  2.2670  2.2050  136.14  6.8911  1.9719  1.9653  0.0071  7.4652  68.799  0.5320  2.2539  2.2647  2.2023  1.9653  65.258  0.5283 
  2055.500 -7.4670  2.2030  2.2660  2.1410  7.4680  67.760  0.5370  0.3990  0.0410  6.9230  138.22 -8.2959  2.1410  2.2660  2.2030  137.77  6.9137  1.9917  1.9845  0.0313  7.4691  69.009  0.5370  2.2201  2.2637  2.2003  1.9845  65.467  0.5340 
  2056.000 -7.2680  2.2010  2.2620  2.0870  7.4760  66.466  0.5320  0.4000  0.0560  6.9810  138.63 -8.0838  2.0870  2.2620  2.2010  138.50  6.9633  1.9900  1.9906  0.0506  7.4731  68.027  0.5320  2.1663  2.2597  2.1983  1.9906  64.546  0.5283 
  2056.500 -7.0310  2.1950  2.2580  2.0530  7.4850  65.218  0.5160  0.4150  0.0490  6.9920  137.70 -7.8336  2.0530  2.2580  2.1950  137.98  6.9887  1.9653  1.9741  0.0515  7.4818  66.728  0.5160  2.1327  2.2558  2.1923  1.9741  63.337  0.5104 
  2057.000 -6.7930  2.1890  2.2540  2.1300  7.4970  64.993  0.5050  0.4210  0.0290  7.0020  135.95 -7.5825  2.1300  2.2540  2.1890  136.47  6.9990  1.9554  1.9589  0.0362  7.4927  65.467  0.5050  2.2101  2.2518  2.1864  1.9589  62.168  0.4980 
  2057.500 -6.4360  2.1830  2.2480  2.1690  7.5170  65.672  0.5060  0.4180  0.0200  7.0130  134.77 -7.2123  2.1690  2.2480  2.1830  135.12  7.0098  1.9603  1.9585  0.0232  7.5099  65.037  0.5060  2.2499  2.2459  2.1804  1.9585  61.804  0.4992 
  2058.000 -6.1580  2.1770  2.2430  2.2250  7.5330  66.351  0.5290  0.4130  0.0260  7.0110  134.24 -6.9212  2.2250  2.2430  2.1770  134.40  7.0116  1.9686  1.9656  0.0239  7.5273  65.541  0.5290  2.3067  2.2409  2.1744  1.9656  62.328  0.5250 
  2058.500 -6.1980  2.1700  2.2370  2.2660  7.5540  67.428  0.5310  0.4040  0.0320  7.0090  133.77 -6.9480  2.2660  2.2370  2.1700  133.91  7.0096  1.9834  1.9781  0.0299  7.5465  66.223  0.5310  2.3486  2.2350  2.1674  1.9781  63.026  0.5273 
  2059.000 -6.5930  2.1630  2.2310  2.2790  7.5620  68.505  0.5250  0.3960  0.0300  6.9960  133.36 -7.3298  2.2790  2.2310  2.1630  133.48  6.9997  1.9966  1.9919  0.0307  7.5592  67.228  0.5250  2.3623  2.2290  2.1605  1.9919  64.016  0.5205 
  2059.500 -7.1070  2.1560  2.2250  2.2910  7.5700  70.492  0.5030  0.3920  0.0270  6.9830  133.23 -7.8307  2.2910  2.2250  2.1560  133.27  6.9867  2.0032  2.0009  0.0281  7.5672  68.309  0.5030  2.3747  2.2231  2.1535  2.0009  65.066  0.4958 
  2060.000 -7.4040  2.1490  2.2210  2.3100  7.5670  71.450  0.4890  0.3900  0.0290  6.9040  133.24 -8.1145  2.3100  2.2210  2.1490  133.23  6.9259  2.0065  2.0053  0.0283  7.5681  70.137  0.4890  2.3937  2.2191  2.1465  2.0053  66.810  0.4801 
  2060.500 -7.7010  2.1530  2.2170  2.3290  7.5160  72.092  0.4940  0.3880  0.0380  6.8550  133.92 -8.3984  2.3290  2.2170  2.1530  133.73  6.8684  2.0098  2.0086  0.0348  7.5339  71.282  0.4940  2.4110  2.2150  2.1505  2.0086  67.805  0.4857 
  2061.000 -7.6410  2.1570  2.2130  2.3000  7.4650  69.023  0.5130  0.3870  0.0430  6.8420  134.83 -8.3252  2.3000  2.2130  2.1570  134.58  6.8455  2.0115  2.0109  0.0413  7.4828  71.982  0.5130  2.3795  2.2109  2.1544  2.0109  68.326  0.5070 
  2061.500 -7.5820  2.1610  2.2170  2.2300  7.3910  64.297  0.5330  0.3870  0.0480  6.8430  135.78 -8.2531  2.2300  2.2170  2.1610  135.52  6.8427  2.0115  2.0115  0.0463  7.4168  69.540  0.5330  2.3065  2.2147  2.1584  2.0115  65.828  0.5294 
  2062.000 -7.1050  2.1650  2.2300  2.1730  7.3360  64.074  0.5360  0.3860  0.0520  6.8440  135.70 -7.7629  2.1730  2.2300  2.1650  135.72  6.8437  2.0131  2.0125  0.0506  7.3551  65.077  0.5360  2.2469  2.2275  2.1623  2.0125  61.444  0.5328 
  2062.500 -7.3420  2.1690  2.2420  2.1400  7.3410  64.872  0.5400  0.3860  0.0490  6.8610  135.63 -7.9867  2.1400  2.2420  2.1690  135.65  6.8566  2.0131  2.0131  0.0500  7.3393  64.110  0.5400  2.2134  2.2394  2.1663  2.0131  60.490  0.5372 
  2063.000 -7.8170  2.1740  2.2460  2.1070  7.3610  65.591  0.5230  0.3850  0.0470  6.8800  135.04 -8.4486  2.1070  2.2460  2.1740  135.19  6.8751  2.0148  2.0142  0.0477  7.3541  64.746  0.5230  2.1812  2.2435  2.1713  2.0142  61.128  0.5182 
  2063.500 -8.2520  2.1790  2.2500  2.0840  7.3810  63.155  0.5030  0.3860  0.0420  6.9090  134.99 -8.8704  2.0840  2.2500  2.1790  135.00  6.9016  2.0131  2.0137  0.0437  7.3741  65.480  0.5030  2.1591  2.2475  2.1763  2.0137  61.873  0.4957 
  2064.000 -7.8150  2.1840  2.2520  2.0990  7.3870  63.796  0.4950  0.3860  0.0420  6.9360  133.96 -8.4203  2.0990  2.2520  2.1840  134.22  6.9292  2.0131  2.0131  0.0420  7.3849  63.524  0.4950  2.1745  2.2495  2.1813  2.0131  60.052  0.4867 
  2064.500 -7.3800  2.1900  2.2550  2.1320  7.3940  64.757  0.5060  0.3950  0.0410  6.9580  133.44 -7.9721  2.1320  2.2550  2.1900  133.57  6.9526  1.9983  2.0033  0.0413  7.3916  63.701  0.5060  2.2077  2.2525  2.1873  2.0033  60.237  0.4991 
  2065.000 -7.1420  2.1940  2.2510  2.1660  7.3860  63.820  0.5360  0.4040  0.0410  6.9640  132.91 -7.7209  2.1660  2.2510  2.1940  133.04  6.9625  1.9834  1.9885  0.0410  7.3887  64.618  0.5360  2.2414  2.2485  2.1913  1.9885  61.097  0.5328 
  2065.500 -6.9250  2.1980  2.2460  2.1940  7.3790  62.484  0.5450  0.4210  0.0330  6.9670  132.39 -7.4908  2.1940  2.2460  2.1980  132.51  6.9663  1.9554  1.9649  0.0357  7.3814  63.952  0.5450  2.2690  2.2435  2.1953  1.9649  60.448  0.5429 
  2066.000 -6.7070  2.2050  2.2380  2.1940  7.4190  60.839  0.5430  0.4280  0.0280  6.9700  133.01 -7.2596  2.1940  2.2380  2.2050  132.86  6.9693  1.9438  1.9477  0.0297  7.4054  62.668  0.5430  2.2701  2.2356  2.2023  1.9477  59.294  0.5407 
  2066.500 -6.3490  2.2110  2.2340  2.1900  7.4950  63.218  0.5420  0.4310  0.0340  6.9830  133.60 -6.8885  2.1900  2.2340  2.2110  133.46  6.9800  1.9389  1.9405  0.0320  7.4692  61.060  0.5420  2.2690  2.2318  2.2083  1.9405  57.926  0.5396 
