~Version Information
VERS.                     2.0: CWLS log ASCII Standard Version 2.00
WRAP.                     YES: Multiple lines per depth step
~Well Information Block
#MNEM.UNIT                               Data Type  Information
#---------                               ---------  -----------
STRT.FT                                   800.0000:
STOP.FT                                  5530.0000:
STEP.FT                                     0.5000:
NULL.                 -999.25                     :
COMP.                                             :COMPANY            
WELL.     SANTIAGO B 73-29                        :WELL               
FLD .                                             :FIELD              
CTRY.                                             :COUNTRY            
STAT.                                             :STATE              
LOC .                                             :LOCATION           
UWI .                                             :UNIQUE WELL ID     
SRVC.                                             :Service company    
DATE.                                             :LOG DATE           
~Curve Information
#MNEM.UNIT           API CODE  Curve Description
#---------           --------  -----------------
DEPT.FT                      :   1 DEPTH
SP  .MV                      :   2
GR  .GAPI                    :   3
ILD .OHMM                    :   4
ILM .OHMM                    :   5
SFL .OHMM                    :   6
DT  .US/F                    :   7
CALI.IN                      :   8
KSCI.                        :   9
PSCI.                        :  10
OSCI.                        :  11
WSCI.                        :  12
GR  .GAPI                    :  13
RHOB.G/C3                    :  14
NPHI.PU-S                    :  15
DRHO.G/C3                    :  16
SBL .MV                      :  17
GRS .GAPI                    :  18
RD  .OHMM                    :  19
RM  .OHMM                    :  20
RS  .OHMM                    :  21
R0BS.G/C3                    :  22
DRHS.G/C3                    :  23
GRS .GAPI                    :  24
NPHS.PU-S                    :  25
DTS .US/F                    :  26
CALS.IN                      :  27
SFLC.OHMM                    :  28
ILMC.OHMM                    :  29
ILDC.OHMM                    :  30
R0BC.G/C3                    :  31
GRC .GAPI                    :  32
NPHC.PU-S                    :  33
~A
# ...
  5193.500 
 -26.455  100.57  2.6310  2.9390  3.0480  80.167  7.9030 -999.25 -999.25 
 -999.25 -999.25  102.14  1.9290  0.3810 -0.0160 -10.388  100.57  2.6310 
  2.9390  3.0480  1.9670 -0.0050  107.44  0.3758  79.691  7.9518  3.1856 
  2.9377  2.6285  1.9670  104.72  0.3519 
  5194.000 
 -24.887  103.93  2.6300  3.0750  3.1460  78.478  7.9220 -999.25 -999.25 
 -999.25 -999.25  106.68  1.9350  0.3860 -0.0110 -8.8393  103.93  2.6300 
  3.0750  3.1460  1.9650  0.0010  111.63  0.3843  80.161  7.9573  3.2853 
  3.0736  2.6275  1.9650  108.83  0.3613 
  5194.500 
 -24.306  108.67  2.6530  3.2180  3.2470  78.186  7.9400 -999.25 -999.25 
 -999.25 -999.25  111.02  1.9390  0.3800 -0.0090 -8.2774  108.67  2.6530 
  3.2180  3.2470  1.9640  0.0020  115.84  0.3821  78.360  7.9557  3.3875 
  3.2165  2.6504  1.9640  112.92  0.3588 
  5195.000 
 -25.713  111.82  2.7000  3.4600  3.8270  80.484  7.9580 -999.25 -999.25 
 -999.25 -999.25  115.16  1.9420  0.3870 -0.0100 -9.7035  111.82  2.7000 
  3.4600  3.8270  1.9680  0.0010  120.88  0.3846  77.643  8.0063  3.9784 
  3.4585  2.6974  1.9680  118.08  0.3617 
  5195.500 
 -26.121  113.00  2.7740  3.5540  4.0050  79.992  7.9570 -999.25 -999.25 
 -999.25 -999.25  120.69  1.9460  0.3820 -0.0110 -10.131  113.00  2.7740 
  3.5540  4.0050  1.9770  0.0000  122.66  0.3837  77.716  8.0317  4.1608 
  3.5525  2.7712  1.9770  119.94  0.3607 
  5196.000 
 -25.146  113.18  2.8500  3.5520  4.3470  77.507  7.9550 -999.25 -999.25 
 -999.25 -999.25  122.66  1.9620  0.3720 -0.0100 -9.1746  113.18  2.8500 
  3.5520  4.3470  1.9860  0.0000  122.63  0.3754  77.262  7.9644  4.4992 
  3.5502  2.8470  1.9860  119.59  0.3514 
  5196.500 
 -24.171  111.38  2.9280  3.5510  5.2690  77.713  8.0330 -999.25 -999.25 
 -999.25 -999.25  122.65  1.9670  0.3760 -0.0050 -8.2187  111.38  2.9280 
  3.5510  5.2690  2.0000  0.0000  122.23  0.3746  76.702  7.8897  5.4163 
  3.5489  2.9248  2.0000  118.83  0.3505 
  5197.000 
 -23.991  109.38  3.0080  3.5490  5.3630  77.718  8.0310 -999.25 -999.25 
 -999.25 -999.25  122.24  1.9650  0.3780  0.0010 -8.0578  109.38  3.0080 
  3.5490  5.3630  2.0090 -0.0010  121.26  0.3773  76.472  7.8419  5.5036 
  3.5466  3.0046  2.0090  117.66  0.3535 
  5197.500 
 -23.608  110.36  3.0620  3.5470  4.9800  77.027  7.9300 -999.25 -999.25 
 -999.25 -999.25  121.25  1.9640  0.3800  0.0020 -7.6939  110.36  3.0620 
  3.5470  4.9800  2.0090  0.0000  121.05  0.3793  76.577  7.8273  5.1186 
  3.5446  3.0585  2.0090  117.38  0.3557 
  5198.000 
 -22.831  113.51  3.0890  3.4490  4.4590  76.535  7.8690 -999.25 -999.25 
 -999.25 -999.25  121.04  1.9680  0.3830  0.0010 -6.9359  113.51  3.0890 
  3.4490  4.4590  2.0090  0.0040  121.95  0.3820  76.981  7.8389  4.5981 
  3.4468  3.0854  2.0090  118.32  0.3587 
  5198.500 
 -24.234  115.08  3.0870  3.4000  4.0280  76.440  7.8280 -999.25 -999.25 
 -999.25 -999.25  122.01  1.9770  0.3840  0.0000 -8.3580  115.08  3.0870 
  3.4000  4.0280  2.0140  0.0100  122.55  0.3837  76.955  7.8703  4.1684 
  3.3980  3.0834  2.0140  119.05  0.3606 
  5199.000 
 -25.241  116.25  3.0570  3.3520  3.8110  76.646  7.8270 -999.25 -999.25 
 -999.25 -999.25  122.60  1.9860  0.4040  0.0000 -9.3841  116.25  3.0570 
  3.3520  3.8110  2.0290  0.0160  123.12  0.3973  76.927  7.8956  3.9523 
  3.3501  3.0535  2.0290  119.73  0.3759 
  5199.500 
 -24.664  115.64  3.0280  3.2280  3.6050  77.150  7.8450 -999.25 -999.25 
 -999.25 -999.25  123.19  2.0000  0.4120  0.0000 -8.8262  115.64  3.0280 
  3.2280  3.6050  2.0470  0.0240  123.01  0.4093  78.095  7.9147  3.7462 
  3.2263  3.0246  2.0470  119.71  0.3893 
  5200.000 
 -24.482  115.43  2.9990  3.1970  3.4090  76.857  7.8830 -999.25 -999.25 
 -999.25 -999.25  122.98  2.0090  0.4280 -0.0010 -8.6632  115.43  2.9990 
  3.1970  3.4090  2.0560  0.0310  124.61  0.4227  79.797  7.9337  3.5497 
  3.1954  2.9957  2.0560  121.36  0.4043 
  5200.500 
 -24.690  117.40  2.9700  3.1240  3.2250  76.962  7.9020 -999.25 -999.25 
 -999.25 -999.25  124.94  2.0090  0.4320  0.0000 -8.8903  117.40  2.9700 
  3.1240  3.2250  2.0540  0.0330  129.62  0.4307  80.966  7.9260  3.3631 
  3.1225  2.9667  2.0540  126.20  0.4132 
  5201.000 
 -24.896  119.77  2.9410  3.0510  3.0790  78.662  7.9210 -999.25 -999.25 
 -999.25 -999.25  130.77  2.0090  0.4350  0.0040 -9.1154  119.77  2.9410 
  3.0510  3.0790  2.0520  0.0300  133.22  0.4340  81.602  7.9183  3.2149 
  3.0495  2.9378  2.0520  129.67  0.4170 
  5201.500 
 -25.899  122.73  2.8850  2.9390  2.9940  80.362  7.9400 -999.25 -999.25 
 -999.25 -999.25  133.93  2.0140  0.4230  0.0100 -10.137  122.73  2.8850 
  2.9390  2.9940  2.0280  0.0260  135.25  0.4270  82.307  7.9301  3.1296 
  2.9377  2.8819  2.0280  131.71  0.4091 
  5202.000 
 -27.098  123.52  2.8580  2.8310  2.8840  81.265  7.9190 -999.25 -999.25 
 -999.25 -999.25  135.70  2.0290  0.4160  0.0160 -11.356  123.52  2.8580 
  2.8310  2.8840  2.0030  0.0190  134.26  0.4183  83.447  7.9360  3.0185 
  2.8298  2.8550  2.0030  130.78  0.3994 
  5202.500 
 -28.495  120.33  2.8300  2.7530  2.7530  81.769  7.9180 -999.25 -999.25 
 -999.25 -999.25  133.71  2.0470  0.4110  0.0240 -12.772  120.33  2.8300 
  2.7530  2.7530  1.9810  0.0130  133.01  0.4126  83.477  7.9616  2.8870 
  2.7519  2.8271  1.9810  129.70  0.3931 
  5203.000 
 -29.895  117.75  2.7510  2.7010  2.7010  82.572  7.9360 -999.25 -999.25 
 -999.25 -999.25  132.71  2.0560  0.4080  0.0310 -14.191  117.75  2.7510 
  2.7010  2.7010  1.9610 -0.0070  131.38  0.4090  82.413  8.0131  2.8370 
  2.7001  2.7483  1.9610  128.37  0.3890 
  5203.500 
 -30.695  114.37  2.7000  2.6510  2.7500  83.875  7.9360 -999.25 -999.25 
 -999.25 -999.25  130.72  2.0540  0.4000  0.0330 -15.010  114.37  2.7000 
  2.6510  2.7500  1.9120 -0.0170  126.58  0.4026  82.130  8.0448  2.8886 
  2.6502  2.6974  1.9120  123.84  0.3819 
  5204.000 
 -31.300  113.57  2.6620  2.6020  2.7740  83.283  7.9740 -999.25 -999.25 
 -999.25 -999.25  124.28  2.0520  0.3920  0.0300 -15.634  113.57  2.6620 
  2.6020  2.7740  1.9080 -0.0150  122.81  0.3946  81.932  8.0375  2.9126 
  2.6012  2.6595  1.9080  120.12  0.3729 
  5204.500 
 -32.301  115.74  2.6250  2.5650  2.7220  81.992  8.0320 -999.25 -999.25 
 -999.25 -999.25  121.90  2.0280  0.3820  0.0260 -16.654  115.74  2.6250 
  2.5650  2.7220  1.9090 -0.0150  121.08  0.3852  83.562  8.0033  2.8578 
  2.5642  2.6225  1.9090  118.26  0.3624 
  5205.000 
 -32.114  114.93  2.5520  2.5280  2.6960  82.197  8.0510 -999.25 -999.25 
 -999.25 -999.25  120.50  2.0030  0.3730  0.0190 -16.486  114.93  2.5520 
  2.5280  2.6960  1.9190 -0.0150  119.38  0.3759  85.891  7.9622  2.8292 
  2.5271  2.5496  1.9190  116.41  0.3520 
  5205.500 
 -31.131  113.73  2.4810  2.5270  2.6700  81.805  8.0310 -999.25 -999.25 
 -999.25 -999.25  118.51  1.9810  0.3550  0.0130 -15.522  113.73  2.4810 
  2.5270  2.6700  1.9170 -0.0150  117.98  0.3608  86.131  7.9219  2.8006 
  2.5260  2.4787  1.9170  114.85  0.3350 
  5206.000 
 -31.341  112.93  2.4340  2.5260  2.6190  84.402  7.9900 -999.25 -999.25 
 -999.25 -999.25  117.52  1.9610  0.3540 -0.0070 -15.751  112.93  2.4340 
  2.5260  2.6190  1.9030 -0.0190  117.31  0.3543  83.138  7.8947  2.7475 
  2.5249  2.4318  1.9030  114.07  0.3278 
  5206.500 
 -33.133  113.12  2.3880  2.5130  2.6420  86.600  7.9490 -999.25 -999.25 
 -999.25 -999.25  117.11  1.9120  0.3610 -0.0170 -17.562  113.12  2.3880 
  2.5130  2.6420  1.8800 -0.0250  118.25  0.3588  82.444  7.9009  2.7712 
  2.5120  2.3859  1.8800  115.02  0.3327 
  5207.000 
 -34.927  114.50  2.3550  2.5000  2.6650  85.909  7.9090 -999.25 -999.25 
 -999.25 -999.25  119.47  1.9080  0.3660 -0.0150 -19.375  114.50  2.3550 
  2.5000  2.6650  1.8690 -0.0280  121.64  0.3644  82.601  7.9199  2.7955 
  2.4990  2.3529  1.8690  118.40  0.3391 
  5207.500 
 -35.135  114.68  2.3210  2.5100  2.7130  81.830  7.8880 -999.25 -999.25 
 -999.25 -999.25  124.21  1.9090  0.3700 -0.0150 -19.602  114.68  2.3210 
  2.5100  2.7130  1.8780 -0.0210  124.80  0.3687  83.088  8.0058  2.8488 
  2.5092  2.3190  1.8780  121.91  0.3439 
