~Version Information
VERS.                     2.0: CWLS log ASCII Standard Version 2.00
WRAP.                      NO: One line per depth step
~Well Information Block
#MNEM.UNIT                               Data Type  Information
#---------                               ---------  -----------
STRT.FT                                   318.0000:
STOP.FT                                  2700.0000:
STEP.FT                                     0.5000:
NULL.                 -999.25                     :
COMP.                                             :COMPANY            
WELL.     LOS LOBOS 82X-30                        :WELL               
FLD .                                             :FIELD              
CTRY.                                             :COUNTRY            
STAT.                                             :STATE              
LOC .                                             :LOCATION           
UWI .                                             :UNIQUE WELL ID     
SRVC.                                             :Service company    
DATE.                                             :LOG DATE           
~Curve Information
#MNEM.UNIT           API CODE  Curve Description
#---------           --------  -----------------
DEPT.FT                      :   1 DEPTH
SP  .MV                      :   2
ILD .OHMM                    :   3
ILM .OHMM                    :   4
SFLU.OHMM                    :   5
CALI.IN                      :   6
GR  .GAPI                    :   7
NPHI.PU-S                    :   8
DPHI.PU-S                    :   9
DRHO.G/C3                    :  10
CALI.IN                      :  11
DT  .US/F                    :  12
SBL .MV                      :  13
RS  .OHMM                    :  14
RM  .OHMM                    :  15
RD  .OHMM                    :  16
DTS .US/F                    :  17
CALS.IN                      :  18
RHOB.G/C3                    :  19
ROBS.G/C3                    :  20
DROS.G/C3                    :  21
CALS.IN                      :  22
GRS .GAPI                    :  23
NPHS.PU-S                    :  24
SFLU.OHMM                    :  25
ILMC.OHMM                    :  26
ILDC.OHMM                    :  27
ROBC.G/C3                    :  28
GRC .GAPI                    :  29
NPHC.PU-S                    :  30
~A
# ...
  2677.500 -19.753  3.4710  3.8550  3.7100  6.4990  108.31  0.4830  0.5100  0.0130  6.6080 -999.25 -17.753  3.7100  3.8550  3.4710 -999.25  6.6100  1.8085  1.8085 -0.0010  6.4790  108.31  0.4536  3.6831  3.8409  3.4629  1.8085  98.414  0.4397 
  2678.000 -20.577  3.6290  4.0480  4.0520  6.4920  109.88  0.4730  0.5150  0.0070  6.6060 -999.25 -18.577  4.0520  4.0480  3.6290 -999.25  6.6080  1.8003  1.8514 -0.0020  6.4670  109.88  0.4745  4.0077  4.0324  3.6201  1.8514  99.783  0.4631 
  2678.500 -21.745  4.0380  4.2510  4.4260  6.4860  107.34  0.4420  0.5180  0.0030  6.6040 -999.25 -19.745  4.4260  4.2510  4.0380 -999.25  6.6060  1.7953  1.9125  0.0040  6.4760  107.34  0.4811  4.3641  4.2338  4.0270  1.9125  97.513  0.4705 
  2679.000 -21.559  4.4210  4.4840  5.4360  6.4790  104.95  0.4190  0.5100 -0.0010  6.6030 -999.25 -19.559  5.4360  4.4840  4.4210 -999.25  6.6040  1.8085  1.9719  0.0190  6.4850  104.95  0.4825  5.3216  4.4650  4.4079  1.9719  95.386  0.4721 
  2679.500 -19.707  4.6260  4.7290  6.1860  6.4670  105.77  0.4020  0.4840 -0.0020  6.5990 -999.25 -17.707  6.1860  4.7290  4.6260 -999.25  6.6030  1.8514  1.9900  0.0290  6.4970  105.77  0.4717  6.0308  4.7080  4.6116  1.9900  96.185  0.4600 
  2680.000 -16.344  5.0740  5.1310  6.1320  6.4760  106.60  0.4060  0.4470  0.0040  6.5960 -999.25 -14.344  6.1320  5.1310  5.0740 -999.25  6.5990  1.9125  2.0115  0.0390  6.5080  106.60  0.4413  5.9820  5.1064  5.0568  2.0115  96.981  0.4258 
  2680.500 -13.658  5.2710  5.4860  6.0790  6.4850  107.69  0.4310  0.4110  0.0190  6.5920 -999.25 -11.658  6.0790  5.4860  5.2710 -999.25  6.5960  1.9719  2.0197  0.0450  6.4600  107.69  0.4186  5.9233  5.4572  5.2522  2.0197  97.761  0.4004 
  2681.000 -13.034  5.6980  5.6880  4.8340  6.4970  107.68  0.4840  0.4000  0.0290  6.5890 -999.25 -11.034  4.8340  5.6880  5.6980 -999.25  6.5920  1.9900  2.0230  0.0470  6.4650  107.68  0.4021  4.7495  5.6571  5.6761  2.0230  97.771  0.3819 
  2681.500 -13.165  6.0590  5.8970  4.6840  6.5080  110.91  0.5340  0.3870  0.0390  6.5850 -999.25 -11.165  4.6840  5.8970  6.0590 -999.25  6.5890  2.0115  2.0197  0.0490  6.4710  110.91  0.4062  4.6082  5.8639  6.0343  2.0197  100.73  0.3865 
  2682.000 -15.124  6.1890  6.6590  5.8600  6.4600  114.70  0.5280  0.3820  0.0450  6.5860 -999.25 -13.124  5.8600  6.6590  6.1890 -999.25  6.5850  2.0197  1.9488  0.0400  6.4840  114.70  0.4310  5.7214  6.6171  6.1633  1.9488  104.24  0.4143 
  2682.500 -19.145  6.1870  6.9920  8.6430  6.4650  114.85  0.4730  0.3800  0.0470  6.5870 -999.25 -17.145  8.6430  6.9920  6.1870 -999.25  6.5860  2.0230  1.9207  0.0280  6.4970  114.85  0.4835  8.3414  6.9462  6.1613  1.9207  104.43  0.4733 
  2683.000 -21.577  6.0600  7.0130  10.125  6.4710  111.67  0.3900  0.3820  0.0490  6.5860 -999.25 -19.577  10.125  7.0130  6.0600 -999.25  6.5870  2.0197  1.9174  0.0230  6.5200  111.67  0.5340  9.7559  6.9675  6.0355  1.9174  101.65  0.5299 
  2683.500 -20.718  5.7230  6.7340  10.457  6.4840  110.23  0.3430  0.4250  0.0400  6.5850 -999.25 -18.718  10.457  6.7340  5.7230 -999.25  6.5860  1.9488  1.9125  0.0260  6.5300  110.23  0.5280  10.074  6.6923  5.7012  1.9125  100.39  0.5232 
  2684.000 -18.666  5.1820  5.9440  7.5230  6.4970  108.80  0.3270  0.4420  0.0280  6.5880 -999.25 -16.666  7.5230  5.9440  5.1820 -999.25  6.5850  1.9207  1.9042  0.0300  6.5390  108.80  0.4730  7.2962  5.9116  5.1641  1.9042  99.126  0.4615 
  2684.500 -16.930  4.5830  5.1040  5.0210  6.5200  109.42  0.3330  0.4440  0.0230  6.5910 -999.25 -14.930  5.0210  5.1040  4.5830 -999.25  6.5880  1.9174  1.8514  0.0270  6.5250  109.42  0.3900  4.9350  5.0799  4.5690  1.8514  99.628  0.3684 
  2685.000 -14.880  3.9860  4.3920  3.9860  6.5300  110.04  0.3290  0.4470  0.0260  6.5940 -999.25 -12.880  3.9860  4.3920  3.9860 -999.25  6.5910  1.9125  1.8250  0.0110  6.5100  110.04  0.3430  3.9494  4.3740  3.9754  1.8250  100.12  0.3125 
  2685.500 -13.741  3.6560  3.8690  3.3010  6.5390  107.73  0.3330  0.4520  0.0300  6.5960 -999.25 -11.741  3.3010  3.8690  3.6560 -999.25  6.5940  1.9042  1.8085  0.0050  6.4940  107.73  0.3270  3.2936  3.8549  3.6470  1.8085  97.952  0.2949 
  2686.000 -13.911  3.4400  3.5550  2.9190  6.5250  107.80  0.3590  0.4840  0.0270  6.5990 -999.25 -11.911  2.9190  3.5550  3.4400 -999.25  6.5960  1.8514  1.7970  0.0000  6.4780  107.80  0.3330  2.9261  3.5430  3.4320  1.7970  97.943  0.3015 
  2686.500 -14.955  3.2730  3.4010  2.8490  6.5100  109.29  0.3600  0.5000  0.0110  6.5960 -999.25 -12.955  2.8490  3.4010  3.2730 -999.25  6.5990  1.8250  1.8267  0.0060  6.4410  109.29  0.3290  2.8564  3.3898  3.2657  1.8267  99.127  0.2971 
  2687.000 -16.136  3.2470  3.3310  3.6430  6.4940  107.78  0.3420  0.5100  0.0050  6.5930 -999.25 -14.136  3.6430  3.3310  3.2470 -999.25  6.5960  1.8085  1.8564  0.0100  6.4250  107.78  0.3330  3.6141  3.3202  3.2398  1.8564  97.685  0.3015 
  2687.500 -17.316  3.2690  3.3910  4.2840  6.4780  106.27  0.3290  0.5170  0.0000  6.5940 -999.25 -15.316  4.2840  3.3910  3.2690 -999.25  6.5930  1.7970  1.9009  0.0140  6.4280  106.27  0.3590  4.2237  3.3798  3.2617  1.9009  96.328  0.3336 
  2688.000 -18.922  3.3190  3.5920  5.0830  6.4410  104.59  0.3250  0.4990  0.0060  6.5950 -999.25 -16.922  5.0830  3.5920  3.3190 -999.25  6.5940  1.8267  1.9207  0.0140  6.4280  104.59  0.3600  4.9797  3.5794  3.3115  1.9207  94.808  0.3347 
  2688.500 -18.616  3.3690  3.7180  5.3180  6.4250  107.15  0.3320  0.4810  0.0100  6.5920 -999.25 -16.616  5.3180  3.7180  3.3690 -999.25  6.5950  1.8564  1.9323  0.0130  6.4410  107.15  0.3420  5.2034  3.7046  3.3613  1.9323  97.188  0.3114 
  2689.000 -16.566  3.4790  3.8480  4.9950  6.4280  109.71  0.3390  0.4540  0.0140  6.5890 -999.25 -14.566  4.9950  3.8480  3.4790 -999.25  6.5920  1.9009  1.9570  0.0070  6.4540  109.71  0.3290  4.9003  3.8338  3.4708  1.9570  99.572  0.2971 
  2689.500 -15.070  3.5380  3.8310  4.2120  6.4280  110.65  0.3460  0.4420  0.0140  6.5880 -999.25 -13.070  4.2120  3.8310  3.5380 -999.25  6.5890  1.9207  2.0032  0.0080  6.5010  110.65  0.3250  4.1637  3.8172  3.5296  2.0032  100.64  0.2927 
  2690.000 -13.930  3.5980  3.7320  3.8780  6.4410  111.59  0.3410  0.4350  0.0130  6.5870 -999.25 -11.930  3.8780  3.7320  3.5980 -999.25  6.5880  1.9323  2.0626  0.0200  6.5160  111.59  0.3320  3.8471  3.7190  3.5893  2.0626  101.56  0.3004 
  2690.500 -13.070  3.6150  3.6820  3.5700  6.4540  111.73  0.3350  0.4200  0.0070  6.5870 -999.25 -11.070  3.5700  3.6820  3.6150 -999.25  6.5870  1.9570  2.1847  0.0470  6.4580  111.73  0.3390  3.5476  3.6690  3.6062  2.1847  101.42  0.3081 
  2691.000 -12.922  3.5930  3.5870  3.0160  6.5010  111.88  0.3310  0.3920  0.0080  6.5880 -999.25 -10.922  3.0160  3.5870  3.5930 -999.25  6.5870  2.0032  2.1946  0.0630  6.4010  111.88  0.3460  3.0136  3.5743  3.5842  2.1946  101.29  0.3190 
  2691.500 -14.127  3.5780  3.5850  2.8380  6.5160  111.89  0.3360  0.3560  0.0200  6.5870 -999.25 -12.127  2.8380  3.5850  3.5780 -999.25  6.5880  2.0626  2.1484  0.0660  6.3320  111.89  0.3410  2.8385  3.5718  3.5691  2.1484  100.98  0.3102 
  2692.000 -14.854  3.5500  3.5830  2.9250  6.4580  111.91  0.3350  0.2820  0.0470  6.5860 -999.25 -12.854  2.9250  3.5830  3.5500 -999.25  6.5870  2.1847  2.0709  0.0390  6.3320  111.91  0.3350  2.9217  3.5699  3.5413  2.0709  101.00  0.3036 
  2692.500 -14.924  3.5290  3.5810  3.8520  6.4010  111.93  0.3320  0.2760  0.0630 -999.25 -999.25 -12.924  3.8520  3.5810  3.5290 -999.25  6.5860  2.1946  1.9702  0.0180  6.3510  111.93  0.3310  3.8056  3.5680  3.5204  1.9702  101.10  0.2992 
  2693.000 -14.993  3.5200  3.5650  4.2260  6.3320  112.03  0.3290  0.3040  0.0660 -999.25 -999.25 -12.993  4.2260  3.5650  3.5200 -999.25 -999.25  2.1484  1.9455  0.0120  6.3700  112.03  0.3360  4.1620  3.5522  3.5115  1.9455  101.29  0.3047 
  2693.500 -15.066  3.5440  3.5250  4.5690  6.3320  112.14  0.3310  0.3510  0.0390 -999.25 -999.25 -13.066  4.5690  3.5250  3.5440 -999.25 -999.25  2.0709  1.9438  0.0050  6.3700  112.14  0.3350  4.4864  3.5125  3.5354  1.9438  101.38  0.3036 
