~Version Information
VERS.                     2.0: CWLS log ASCII Standard Version 2.00
WRAP.                     YES: Multiple lines per depth step
~Well Information Block
#MNEM.UNIT                               Data Type  Information
#---------                               ---------  -----------
STRT.FT                                   850.0000:
STOP.FT                                  6800.0000:
STEP.FT                                     0.5000:
NULL.                 -999.25                     :
COMP.                                             :COMPANY            
WELL.     SANTIAGO D #26-27                       :WELL               
FLD .                                             :FIELD              
CTRY.                                             :COUNTRY            
STAT.                                             :STATE              
LOC .                                             :LOCATION           
UWI .                                             :UNIQUE WELL ID     
SRVC.                                             :Service company    
DATE.                                             :LOG DATE           
~Curve Information
#MNEM.UNIT           API CODE  Curve Description
#---------           --------  -----------------
DEPT.FT                      :   1 DEPTH
DCAL.IN                      :   2
DGR .GAPI                    :   3
NPHI.PU-S                    :   4
DPHI.PU-S                    :   5
DRHO.G/C3                    :   6
AGR .GAPI                    :   7
ACAL.IN                      :   8
DT  .US/F                    :   9
GR  .GAPI                    :  10
SP  .MV                      :  11
ILM .OHMM                    :  12
ILD .OHMM                    :  13
SFLU.OHMM                    :  14
RHOB.G/C3                    :  15
RS  .OHMM                    :  16
RM  .OHMM                    :  17
RD  .OHMM                    :  18
GRS .GAPI                    :  19
SBL .MV                      :  20
ROBS.G/C3                    :  21
DRHS.G/C3                    :  22
CALS.IN                      :  23
GRS .GAPI                    :  24
NPHS.PU-S                    :  25
CALS.IN                      :  26
GRS .GAPI                    :  27
SFLU.OHMM                    :  28
ILMC.OHMM                    :  29
ILDC.OHMM                    :  30
ROBC.G/C3                    :  31
GRC .GAPI                    :  32
NPHC.PU-S                    :  33
~A
# ...
  4402.500 
  10.963  73.646  0.2990  0.1730  0.1550  64.619  12.164  96.018  66.684 
 -44.898  2.8110  2.9860  2.3380  2.3646  2.3380  2.8110  2.9860  66.684 
 -7.6639  2.1900  0.0573  11.357  68.094  0.3111  12.303  68.428  2.6081 
  2.8306  2.9856  2.2062  74.154  0.3039 
  4403.000 
  11.081  72.330  0.3080  0.2030  0.1400  68.428  12.303  98.475  66.490 
 -45.289  2.8380  2.9650  2.1970  2.3151  2.1970  2.8380  2.9650  66.490 
 -8.0557  2.1864  0.0534  11.407  66.381  0.3257  12.489  72.871  2.4517 
  2.8583  2.9646  2.2030  72.392  0.3211 
  4403.500 
  11.199  71.094  0.3200  0.2400  0.0970  72.871  12.489  103.69  62.377 
 -45.443  2.8380  2.9490  2.2180  2.2540  2.2180  2.8380  2.9490  62.377 
 -8.2105  2.2247  0.0573  11.461  65.274  0.3471  12.584  75.886  2.4770 
  2.8587  2.9487  2.2416  71.296  0.3499 
  4404.000 
  11.313  69.105  0.3430  0.2670  0.0620  75.886  12.584  107.16  59.293 
 -45.161  2.8390  2.9390  2.2880  2.2095  2.2880  2.8390  2.9390  59.293 
 -7.9294  2.2546  0.0702  11.503  65.071  0.3598  12.640  76.242  2.5571 
  2.8600  2.9387  2.2718  71.161  0.3654 
  4404.500 
  11.388  67.393  0.3600  0.2870  0.0540  76.242  12.640  105.91  58.822 
 -44.721  2.8450  2.9290  2.3870  2.1765  2.3870  2.8450  2.9290  58.822 
 -7.4902  2.2660  0.0844  11.538  65.415  0.3550  12.759  71.759  2.6698 
  2.8663  2.9287  2.2833  71.610  0.3597 
  4405.000 
  11.419  65.721  0.3590  0.2770  0.0530  71.759  12.759  103.25  59.738 
 -44.399  2.8450  2.9350  2.4770  2.1930  2.4770  2.8450  2.9350  59.738 
 -7.1690  2.2678  0.0923  11.559  65.837  0.3378  12.794  67.513  2.7720 
  2.8664  2.9347  2.2853  72.115  0.3356 
  4405.500 
  11.486  65.000  0.3410  0.2460  0.0600  67.513  12.794  100.75  62.118 
 -44.078  2.8410  2.9200  2.5410  2.2441  2.5410  2.8410  2.9200  62.118 
 -6.8489  2.2605  0.0879  11.551  66.232  0.3256  12.790  65.212  2.8438 
  2.8623  2.9197  2.2779  72.532  0.3211 
  4406.000 
  11.513  65.111  0.3260  0.2360  0.0760  65.212  12.790  98.714  64.499 
 -43.796  2.8410  2.9150  2.5460  2.2606  2.5460  2.8410  2.9150  64.499 
 -6.5677  2.2550  0.0746  11.502  67.012  0.3269  12.759  66.441  2.8473 
  2.8620  2.9147  2.2722  73.281  0.3225 
  4406.500 
  11.552  65.578  0.3240  0.2310  0.0890  66.441  12.759  98.635  65.097 
 -43.713  2.8160  2.9110  2.5240  2.2689  2.5240  2.8160  2.9110  65.097 
 -6.4855  2.2645  0.0707  11.403  68.842  0.3408  12.739  68.186  2.8184 
  2.8360  2.9106  2.2811  75.067  0.3390 
  4407.000 
  11.563  65.967  0.3390  0.2320  0.0940  68.186  12.739  99.983  65.616 
 -43.867  2.8010  2.9160  2.5710  2.2672  2.5710  2.8010  2.9160  65.616 
 -6.6404  2.2832  0.0826  11.280  71.736  0.3487  12.699  68.741  2.8659 
  2.8199  2.9156  2.2990  77.944  0.3516 
  4407.500 
  11.546  66.357  0.3490  0.2380  0.0850  68.741  12.699  101.69  66.373 
 -44.138  2.7770  2.9220  2.6530  2.2573  2.6530  2.7770  2.9220  66.373 
 -6.9122  2.2911  0.0981  11.155  73.587  0.3459  12.624  70.367  2.9519 
  2.7948  2.9215  2.3061  79.661  0.3481 
  4408.000 
  11.482  67.300  0.3470  0.2400  0.0700  70.367  12.624  102.30  67.764 
 -44.213  2.7720  2.9440  2.7170  2.2540  2.7170  2.7720  2.9440  67.764 
 -6.9880  2.2808  0.1012  11.017  72.346  0.3385  12.548  73.819  3.0167 
  2.7888  2.9434  2.2949  77.997  0.3357 
  4408.500 
  11.370  69.473  0.3400  0.2310  0.0710  73.819  12.548  101.39  70.738 
 -44.208  2.7230  2.9720  2.7080  2.2689  2.7080  2.7230  2.9720  70.738 
 -6.9839  2.2454  0.0902  10.937  70.481  0.3301  12.485  75.445  3.0029 
  2.7387  2.9713  2.2590  75.802  0.3257 
  4409.000 
  11.246  72.596  0.3300  0.2190  0.0870  75.445  12.485  100.38  72.247 
 -44.165  2.7080  3.0060  2.5870  2.2887  2.5870  2.7080  3.0060  72.247 
 -6.9417  2.2203  0.0776  11.103  70.474  0.3305  12.528  76.079  2.8760 
  2.7246  3.0054  2.2350  76.173  0.3263 
  4409.500 
  11.123  73.936  0.3310  0.2170  0.1020  76.079  12.528  101.41  72.965 
 -44.121  2.7240  3.0390  2.5270  2.2920  2.5270  2.7240  3.0390  72.965 
 -6.8985  2.2108  0.0734  11.307  72.098  0.3263  12.619  75.920  2.8178 
  2.7421  3.0385  2.2268  78.399  0.3216 
  4410.000 
  10.983  71.828  0.3270  0.2260  0.1010  75.920  12.619  102.94  73.326 
 -44.433  2.7440  3.0730  2.4150  2.2771  2.4150  2.7440  3.0730  73.326 
 -7.2114  2.2095  0.0738  11.361  73.827  0.3211  12.734  75.483  2.6945 
  2.7627  3.0726  2.2258  80.408  0.3156 
  4410.500 
  10.923  70.076  0.3210  0.2510  0.0870  75.483  12.734  100.86  73.568 
 -44.863  2.7850  3.1600  2.3630  2.2359  2.3630  2.7850  3.1600  73.568 
 -7.6422  2.2067  0.0732  11.364  75.443  0.3231  12.667  75.761  2.6364 
  2.8043  3.1595  2.2230  82.173  0.3180 
  4411.000 
  11.152  70.584  0.3220  0.2630  0.0750  75.761  12.667  99.767  73.414 
 -45.017  2.8690  3.2540  2.3420  2.2161  2.3420  2.8690  3.2540  73.414 
 -7.7970  2.2103  0.0688  11.367  76.376  0.3339  12.588  78.260  2.6129 
  2.8895  3.2535  2.2267  83.196  0.3307 
  4411.500 
  11.346  72.479  0.3330  0.2670  0.0730  78.260  12.588  103.16  71.360 
 -45.092  2.9870  3.3390  2.3420  2.2095  2.3420  2.9870  3.3390  71.360 
 -7.8729  2.2210  0.0697  11.428  77.172  0.3429  12.611  79.132  2.6151 
  3.0097  3.3385  2.2377  84.212  0.3415 
  4412.000 
  11.365  74.136  0.3430  0.2670  0.0740  79.132  12.611  105.24  68.395 
 -44.889  3.1960  3.4960  2.4040  2.2095  2.4040  3.1960  3.4960  68.395 
 -7.6707  2.2299  0.0718  11.545  77.485  0.3417  12.699  77.902  2.6892 
  3.2230  3.4956  2.2473  84.838  0.3402 
  4412.500 
  11.364  75.713  0.3420  0.2690  0.0730  77.902  12.699  102.98  68.202 
 -44.529  3.4590  3.7000  2.5820  2.2062  2.5820  3.4590  3.7000  68.202 
 -7.3115  2.2397  0.0613  11.570  77.367  0.3375  12.714  74.370  2.8908 
  3.4909  3.6996  2.2573  84.769  0.3352 
  4413.000 
  11.367  76.499  0.3380  0.2660  0.0680  74.370  12.714  99.609  70.740 
 -44.088  3.7150  3.9820  2.7280  2.2111  2.7280  3.7150  3.9820  70.740 
 -6.8714  2.2646  0.0465  11.470  75.230  0.3294  12.683  73.735  3.0506 
  3.7506  3.9814  2.2816  82.193  0.3255 
  4413.500 
  11.438  77.283  0.3300  0.2590  0.0700  73.735  12.683  92.871  74.625 
 -44.005  4.0710  4.3000  3.0280  2.2227  3.0280  4.0710  4.3000  74.625 
 -6.7892  2.3081  0.0569  11.142  71.795  0.3184  12.520  77.980  3.3692 
  4.1092  4.2988  2.3230  77.692  0.3122 
  4414.000 
  11.560  77.514  0.3190  0.2540  0.0720  77.980  12.520  84.984  76.609 
 -44.277  4.4210  4.7650  3.4110  2.2309  3.4110  4.4210  4.7650  76.609 
 -7.0620  2.3271  0.0673  10.872  67.285  0.3064  12.492  81.867  3.7774 
  4.4616  4.7631  2.3404  72.224  0.2979 
  4414.500 
  11.571  77.348  0.3070  0.2480  0.0600  81.867  12.492  76.879  75.664 
 -44.826  4.7830  5.1270  3.8340  2.2408  3.8340  4.7830  5.1270  75.664 
 -7.6118  2.3345  0.0671  10.723  61.415  0.2915  12.496  82.819  4.2330 
  4.8277  5.1245  2.3468  65.622  0.2806 
  4415.000 
  11.459  75.002  0.2920  0.2320  0.0450  82.819  12.496  64.552  73.372 
 -45.416  5.2800  5.3880  4.3430  2.2672  4.3430  5.2800  5.3880  73.372 
 -8.2027  2.3571  0.0506  10.703  55.416  0.2737  12.484  82.065  4.7915 
  5.3340  5.3852  2.3692  59.176  0.2604 
  4415.500 
  11.114  71.507  0.2740  0.2050  0.0580  82.065  12.484  63.680  70.328 
 -45.689  5.6710  5.5790  4.8470  2.3118  4.8470  5.6710  5.5790  70.328 
 -8.4765  2.4160  0.0363  10.702  49.376  0.2568  12.460  76.510  5.3459 
  5.7333  5.5760  2.4281  52.724  0.2415 
  4416.000 
  10.855  66.980  0.2570  0.1950  0.0680  76.510  12.460  64.572  67.402 
 -45.605  6.5180  5.8520  5.4290  2.3283  5.4290  6.5180  5.8520  67.402 
 -8.3933  2.4730  0.0231  10.690  44.790  0.2360  12.385  70.320  5.9845 
  6.6000  5.8487  2.4851  47.809  0.2186 
  4416.500 
  10.716  61.106  0.2360  0.1910  0.0670  70.320  12.385  67.783  62.734 
 -45.482  7.0520  6.0380  6.1720  2.3349  6.1720  7.0520  6.0380  62.734 
 -8.2712  2.4833  0.0130  10.669  46.090  0.2044  12.170  65.956  6.7980 
  7.1472  6.0344  2.4952  49.165  0.1844 
