~Version Information
VERS.                     2.0: CWLS log ASCII Standard Version 2.00
WRAP.                     YES: Multiple lines per depth step
~Well Information Block
#MNEM.UNIT                               Data Type  Information
#---------                               ---------  -----------
STRT.FT                                   800.0000:
STOP.FT                                  5530.0000:
STEP.FT                                     0.5000:
NULL.                 -999.25                     :
COMP.                                             :COMPANY            
WELL.     SANTIAGO B 73-29                        :WELL               
FLD .                                             :FIELD              
CTRY.                                             :COUNTRY            
STAT.                                             :STATE              
LOC .                                             :LOCATION           
UWI .                                             :UNIQUE WELL ID     
SRVC.                                             :Service company    
DATE.                                             :LOG DATE           
~Curve Information
#MNEM.UNIT           API CODE  Curve Description
#---------           --------  -----------------
DEPT.FT                      :   1 DEPTH
SP  .MV                      :   2
GR  .GAPI                    :   3
ILD .OHMM                    :   4
ILM .OHMM                    :   5
SFL .OHMM                    :   6
DT  .US/F                    :   7
CALI.IN                      :   8
KSCI.                        :   9
PSCI.                        :  10
OSCI.                        :  11
WSCI.                        :  12
GR  .GAPI                    :  13
RHOB.G/C3                    :  14
NPHI.PU-S                    :  15
DRHO.G/C3                    :  16
SBL .MV                      :  17
GRS .GAPI                    :  18
RD  .OHMM                    :  19
RM  .OHMM                    :  20
RS  .OHMM                    :  21
R0BS.G/C3                    :  22
DRHS.G/C3                    :  23
GRS .GAPI                    :  24
NPHS.PU-S                    :  25
DTS .US/F                    :  26
CALS.IN                      :  27
SFLC.OHMM                    :  28
ILMC.OHMM                    :  29
ILDC.OHMM                    :  30
R0BC.G/C3                    :  31
GRC .GAPI                    :  32
NPHC.PU-S                    :  33
~A
# ...
   843.500 
 -54.959  70.091  11.411  10.798  7.9720  153.47  10.583 -999.25 -999.25 
 -999.25 -999.25 -999.25 -999.25 -999.25 -999.25 -30.959  70.091  11.411 
  10.798  7.9720 -999.25 -999.25 -999.25 -999.25  152.87  10.584  8.7505 
  11.067  11.394 -999.25 -999.25 -999.25 
   844.000 
 -55.557  70.681  11.306  10.947  8.0440  154.27  10.583 -999.25 -999.25 
 -999.25 -999.25 -999.25 -999.25 -999.25 -999.25 -31.557  70.681  11.306 
  10.947  8.0440 -999.25 -999.25 -999.25 -999.25  153.47  10.583  8.8291 
  11.224  11.290 -999.25 -999.25 -999.25 
   844.500 
 -56.947  71.073  11.253  11.099  7.9700  148.28  10.583 -999.25 -999.25 
 -999.25 -999.25 -999.25 -999.25 -999.25 -999.25 -32.947  71.073  11.253 
  11.099  7.9700 -999.25 -999.25 -999.25 -999.25  154.27  10.583  8.7481 
  11.384  11.237 -999.25 -999.25 -999.25 
   845.000 
 -58.337  71.663  11.200  11.098  7.9690  143.89  10.582 -999.25 -999.25 
 -999.25 -999.25 -999.25 -999.25 -999.25 -999.25 -34.337  71.663  11.200 
  11.098  7.9690 -999.25 -999.25 -999.25 -999.25  148.28  10.583  8.7470 
  11.383  11.184 -999.25 -999.25 -999.25 
   845.500 
 -59.133  71.659  11.199  11.097  7.9690  141.29  10.582 -999.25 -999.25 
 -999.25 -999.25 -999.25 -999.25 -999.25 -999.25 -35.133  71.659  11.199 
  11.097  7.9690 -999.25 -999.25 -999.25 -999.25  143.89  10.582  8.7468 
  11.381  11.183 -999.25 -999.25 -999.25 
   846.000 
 -59.533  71.655  11.198  11.198  8.0410  139.50  10.581 -999.25 -999.25 
 -999.25 -999.25 -999.25 -999.25 -999.25 -999.25 -35.533  71.655  11.198 
  11.198  8.0410 -999.25 -999.25 -999.25 -999.25  141.29  10.582  8.8256 
  11.488  11.182 -999.25 -999.25 -999.25 
   846.500 
 -59.933  71.651  11.094  10.992  7.9670  141.10  10.581 -999.25 -999.25 
 -999.25 -999.25 -999.25 -999.25 -999.25 -999.25 -35.933  71.651  11.094 
  10.992  7.9670 -999.25 -999.25 -999.25 -999.25  139.50  10.581  8.7444 
  11.271  11.078 -999.25 -999.25 -999.25 
   847.000 
 -60.531  71.449  11.092  10.692  7.8210  146.49  10.581 -999.25 -999.25 
 -999.25 -999.25 -999.25 -999.25 -999.25 -999.25 -36.531  71.449  11.092 
  10.692  7.8210 -999.25 -999.25 -999.25 -999.25  141.10  10.581  8.5846 
  10.956  11.076 -999.25 -999.25 -999.25 
   847.500 
 -60.535  71.445  11.092  10.400  7.8930  152.49  10.560 -999.25 -999.25 
 -999.25 -999.25 -999.25 -999.25 -999.25 -999.25 -36.535  71.445  11.092 
  10.400  7.8930 -999.25 -999.25 -999.25 -999.25  146.49  10.581  8.6634 
  10.649  11.076 -999.25 -999.25 -999.25 
   848.000 
 -60.539  71.640  11.091  9.7510  8.0380  148.70  10.560 -999.25 -999.25 
 -999.25 -999.25 -999.25 -999.25 -999.25 -999.25 -36.539  71.640  11.091 
  9.7510  8.0380 -999.25 -999.25 -999.25 -999.25  152.49  10.560  8.8170 
  9.9676  11.075 -999.25 -999.25 -999.25 
   848.500 
 -59.751  74.209  10.888  9.3980  7.8910  148.10  10.560 -999.25 -999.25 
 -999.25 -999.25 -999.25 -999.25 -999.25 -999.25 -35.751  74.209  10.888 
  9.3980  7.8910 -999.25 -999.25 -999.25 -999.25  148.70  10.560  8.6563 
  9.5991  10.873 -999.25 -999.25 -999.25 
   849.000 
 -57.775  74.799  10.787  8.6510  7.5360  150.50  10.559 -999.25 -999.25 
 -999.25 -999.25 -999.25 -999.25 -999.25 -999.25 -33.775  74.799  10.787 
  8.6510  7.5360 -999.25 -999.25 -999.25 -999.25  148.10  10.560  8.2680 
  8.8211  10.772 -999.25 -999.25 -999.25 
   849.500 
 -55.601  77.765  10.207  7.8900  6.8730  153.50  10.579 -999.25 -999.25 
 -999.25 -999.25 -999.25 -999.25 -999.25 -999.25 -31.601  77.765  10.207 
  7.8900  6.8730 -999.25 -999.25 -999.25 -999.25  150.50  10.559  7.5425 
  8.0312  10.193 -999.25 -999.25 -999.25 
   850.000 
 -53.031  79.147  9.6580  7.0650  5.9320  163.09  10.578 -999.25 -999.25 
 -999.25 -999.25 -999.25 -999.25 -999.25 -999.25 -29.031  79.147  9.6580 
  7.0650  5.9320 -999.25 -999.25 -999.25 -999.25  153.50  10.579  6.5162 
  7.1790  9.6460 -999.25 -999.25 -999.25 
   850.500 
 -49.668  80.332  9.0550  6.2680  4.8450  159.49  10.558 -999.25 -999.25 
 -999.25 -999.25 -999.25 -999.25 -999.25 -999.25 -25.668  80.332  9.0550 
  6.2680  4.8450 -999.25 -999.25 -999.25 -999.25  163.09  10.578  5.3255 
  6.3576  9.0444 -999.25 -999.25 -999.25 
   851.000 
 -46.503  81.120  8.2590  5.7700  4.4190  155.90  10.657 -999.25 -999.25 
 -999.25 -999.25 -999.25 -999.25 -999.25 -999.25 -22.503  81.120  8.2590 
  5.7700  4.4190 -999.25 -999.25 -999.25 -999.25  159.49  10.558  4.8565 
  5.8451  8.2501 -999.25 -999.25 -999.25 
   851.500 
 -45.517  81.711  6.9980  5.2140  4.2590  146.32  10.696 -999.25 -999.25 
 -999.25 -999.25 -999.25 -999.25 -999.25 -999.25 -21.517  81.711  6.9980 
  5.2140  4.2590 -999.25 -999.25 -999.25 -999.25  155.90  10.657  4.6917 
  5.2781  6.9920 -999.25 -999.25 -999.25 
   852.000 
 -44.927  82.302  6.4420  4.8440  3.9930  142.33  10.676 -999.25 -999.25 
 -999.25 -999.25 -999.25 -999.25 -999.25 -999.25 -20.927  82.302  6.4420 
  4.8440  3.9930 -999.25 -999.25 -999.25 -999.25  146.32  10.696  4.4032 
  4.9002  6.4371 -999.25 -999.25 -999.25 
   852.500 
 -44.733  85.464  5.7150  4.7120  3.9200  157.91  10.655 -999.25 -999.25 
 -999.25 -999.25 -999.25 -999.25 -999.25 -999.25 -20.733  85.464  5.7150 
  4.7120  3.9200 -999.25 -999.25 -999.25 -999.25  142.33  10.676  4.3210 
  4.7647  5.7111 -999.25 -999.25 -999.25 
   853.000 
 -45.530  86.253  5.5590  4.6680  4.0290  161.10  10.576 -999.25 -999.25 
 -999.25 -999.25 -999.25 -999.25 -999.25 -999.25 -21.530  86.253  5.5590 
  4.6680  4.0290 -999.25 -999.25 -999.25 -999.25  157.91  10.655  4.4388 
  4.7193  5.5552 -999.25 -999.25 -999.25 
   853.500 
 -46.721  87.437  5.5080  4.7110  4.1040  160.91  10.566 -999.25 -999.25 
 -999.25 -999.25 -999.25 -999.25 -999.25 -999.25 -22.721  87.437  5.5080 
  4.7110  4.1040 -999.25 -999.25 -999.25 -999.25  161.10  10.576  4.5134 
  4.7614  5.5041 -999.25 -999.25 -999.25 
   854.000 
 -46.923  87.829  5.3570  4.7540  4.1800  158.51  10.555 -999.25 -999.25 
 -999.25 -999.25 -999.25 -999.25 -999.25 -999.25 -22.923  87.829  5.3570 
  4.7540  4.1800 -999.25 -999.25 -999.25 -999.25  160.91  10.566  4.5956 
  4.8051  5.3533 -999.25 -999.25 -999.25 
   854.500 
 -46.927  87.627  5.3080  4.7530  4.2960  154.72  10.555 -999.25 -999.25 
 -999.25 -999.25 -999.25 -999.25 -999.25 -999.25 -22.927  87.627  5.3080 
  4.7530  4.2960 -999.25 -999.25 -999.25 -999.25  158.51  10.555  4.7215 
  4.8038  5.3043 -999.25 -999.25 -999.25 
   855.000 
 -47.327  87.029  5.4060  4.7530  4.4160  156.92  10.554 -999.25 -999.25 
 -999.25 -999.25 -999.25 -999.25 -999.25 -999.25 -23.327  87.029  5.4060 
  4.7530  4.4160 -999.25 -999.25 -999.25 -999.25  154.72  10.555  4.8529 
  4.8038  5.4022 -999.25 -999.25 -999.25 
   855.500 
 -47.529  84.253  5.4050  4.7310  4.4970  159.72  10.495 -999.25 -999.25 
 -999.25 -999.25 -999.25 -999.25 -999.25 -999.25 -23.529  84.253  5.4050 
  4.7310  4.4970 -999.25 -999.25 -999.25 -999.25  156.92  10.554  4.9415 
  4.7813  5.4012 -999.25 -999.25 -999.25 
   856.000 
 -48.128  82.863  5.4550  4.7090  4.4560  157.32  10.514 -999.25 -999.25 
 -999.25 -999.25 -999.25 -999.25 -999.25 -999.25 -24.128  82.863  5.4550 
  4.7090  4.4560 -999.25 -999.25 -999.25 -999.25  159.72  10.495  4.8901 
  4.7574  5.4509 -999.25 -999.25 -999.25 
   856.500 
 -48.527  83.453  5.4540  4.6220  4.4140  151.94  10.632 -999.25 -999.25 
 -999.25 -999.25 -999.25 -999.25 -999.25 -999.25 -24.527  83.453  5.4540 
  4.6220  4.4140 -999.25 -999.25 -999.25 -999.25  157.32  10.514  4.8462 
  4.6691  5.4500 -999.25 -999.25 -999.25 
   857.000 
 -49.125  83.647  5.4540  4.4960  4.2550  148.74  10.632 -999.25 -999.25 
 -999.25 -999.25 -999.25 -999.25 -999.25 -999.25 -25.125  83.647  5.4540 
  4.4960  4.2550 -999.25 -999.25 -999.25 -999.25  151.94  10.632  4.6847 
  4.5430  5.4503 -999.25 -999.25 -999.25 
   857.500 
 -49.921  84.831  5.3540  4.4960  4.1770  149.15  10.592 -999.25 -999.25 
 -999.25 -999.25 -999.25 -999.25 -999.25 -999.25 -25.921  84.831  5.3540 
  4.4960  4.1770 -999.25 -999.25 -999.25 -999.25  148.74  10.632  4.5991 
  4.5430  5.3504 -999.25 -999.25 -999.25 
