~Version Information
VERS.                     2.0: CWLS log ASCII Standard Version 2.00
WRAP.                     YES: Multiple lines per depth step
~Well Information Block
#MNEM.UNIT                               Data Type  Information
#---------                               ---------  -----------
STRT.FT                                   800.0000:
STOP.FT                                  5530.0000:
STEP.FT                                     0.5000:
NULL.                 -999.25                     :
COMP.                                             :COMPANY            
WELL.     SANTIAGO B 73-29                        :WELL               
FLD .                                             :FIELD              
CTRY.                                             :COUNTRY            
STAT.                                             :STATE              
LOC .                                             :LOCATION           
UWI .                                             :UNIQUE WELL ID     
SRVC.                                             :Service company    
DATE.                                             :LOG DATE           
~Curve Information
#MNEM.UNIT           API CODE  Curve Description
#---------           --------  -----------------
DEPT.FT                      :   1 DEPTH
SP  .MV                      :   2
GR  .GAPI                    :   3
ILD .OHMM                    :   4
ILM .OHMM                    :   5
SFL .OHMM                    :   6
DT  .US/F                    :   7
CALI.IN                      :   8
KSCI.                        :   9
PSCI.                        :  10
OSCI.                        :  11
WSCI.                        :  12
GR  .GAPI                    :  13
RHOB.G/C3                    :  14
NPHI.PU-S                    :  15
DRHO.G/C3                    :  16
SBL .MV                      :  17
GRS .GAPI                    :  18
RD  .OHMM                    :  19
RM  .OHMM                    :  20
RS  .OHMM                    :  21
R0BS.G/C3                    :  22
DRHS.G/C3                    :  23
GRS .GAPI                    :  24
NPHS.PU-S                    :  25
DTS .US/F                    :  26
CALS.IN                      :  27
SFLC.OHMM                    :  28
ILMC.OHMM                    :  29
ILDC.OHMM                    :  30
R0BC.G/C3                    :  31
GRC .GAPI                    :  32
NPHC.PU-S                    :  33
~A
# ...
  2395.000 
 -46.851  85.726  5.6570  5.7760  5.5160  101.49  10.008 -999.25 -999.25 
 -999.25 -999.25 -999.25 -999.25 -999.25 -999.25 -22.851  85.726  5.6570 
  5.7760  5.5160 -999.25 -999.25 -999.25 -999.25  101.75  10.002  5.9755 
  5.8317  5.6512 -999.25 -999.25 -999.25 
  2395.500 
 -46.247  84.548  5.7640  5.7780  5.2700  95.391  10.028 -999.25 -999.25 
 -999.25 -999.25 -999.25 -999.25 -999.25 -999.25 -22.247  84.548  5.7640 
  5.7780  5.2700 -999.25 -999.25 -999.25 -999.25  98.481  10.018  5.7132 
  5.8343  5.7580 -999.25 -999.25 -999.25 
  2396.000 
 -45.643  83.174  5.7660  5.6220  5.4200  84.092  10.049 -999.25 -999.25 
 -999.25 -999.25 -999.25 -999.25 -999.25 -999.25 -21.643  83.174  5.7660 
  5.6220  5.4200 -999.25 -999.25 -999.25 -999.25  89.832  10.038  5.8775 
  5.6760  5.7601 -999.25 -999.25 -999.25 
  2396.500 
 -45.433  83.780  5.7150  5.4710  5.6260  80.689  10.071 -999.25 -999.25 
 -999.25 -999.25 -999.25 -999.25 -999.25 -999.25 -21.433  83.780  5.7150 
  5.4710  5.6260 -999.25 -999.25 -999.25 -999.25  82.423  10.060  6.1024 
  5.5228  5.7093 -999.25 -999.25 -999.25 
  2397.000 
 -45.224  84.980  5.6650  5.1320  5.8390  80.485  10.053 -999.25 -999.25 
 -999.25 -999.25 -999.25 -999.25 -999.25 -999.25 -21.224  84.980  5.6650 
  5.1320  5.8390 -999.25 -999.25 -999.25 -999.25  80.589  10.062  6.3322 
  5.1776  5.6594 -999.25 -999.25 -999.25 
  2397.500 
 -44.613  85.187  5.5640  4.9040  5.7880  80.280  9.9940 -999.25 -999.25 
 -999.25 -999.25 -999.25 -999.25 -999.25 -999.25 -20.613  85.187  5.5640 
  4.9040  5.7880 -999.25 -999.25 -999.25 -999.25  80.385  10.024  6.2713 
  4.9447  5.5585 -999.25 -999.25 -999.25 
  2398.000 
 -43.213  85.394  5.4640  4.7280  5.3780  80.376  9.9950 -999.25 -999.25 
 -999.25 -999.25 -999.25 -999.25 -999.25 -999.25 -19.213  85.394  5.4640 
  4.7280  5.3780 -999.25 -999.25 -999.25 -999.25  80.327  9.9945  5.8260 
  4.7651  5.4586 -999.25 -999.25 -999.25 
  2398.500 
 -40.825  83.037  5.3170  4.5590  4.0830  80.672  9.9370 -999.25 -999.25 
 -999.25 -999.25 -999.25 -999.25 -999.25 -999.25 -16.825  83.037  5.3170 
  4.5590  4.0830 -999.25 -999.25 -999.25 -999.25  80.519  9.9669  4.4303 
  4.5929  5.3118 -999.25 -999.25 -999.25 
  2399.000 
 -38.835  82.651  5.1750  4.4770  3.7590  80.767  9.8790 -999.25 -999.25 
 -999.25 -999.25 -999.25 -999.25 -999.25 -999.25 -14.835  82.651  5.1750 
  4.4770  3.7590 -999.25 -999.25 -999.25 -999.25  80.718  9.9090  4.0767 
  4.5084  5.1699 -999.25 -999.25 -999.25 
  2399.500 
 -36.249  83.056  5.0360  4.3970  3.6580  76.765  9.8800 -999.25 -999.25 
 -999.25 -999.25 -999.25 -999.25 -999.25 -999.25 -12.249  83.056  5.0360 
  4.3970  3.6580 -999.25 -999.25 -999.25 -999.25  78.839  9.8795  3.9657 
  4.4267  5.0311 -999.25 -999.25 -999.25 
  2400.000 
 -34.257  83.461  4.9240  4.2020  3.6590  71.464  9.8610 -999.25 -999.25 
 -999.25 -999.25 -999.25 -999.25 -999.25 -999.25 -10.257  83.461  4.9240 
  4.2020  3.6590 -999.25 -999.25 -999.25 -999.25  74.219  9.8709  3.9660 
  4.2290  4.9193 -999.25 -999.25 -999.25 
  2400.500 
 -33.059  88.624  4.8140  4.0890  3.6950  67.561  9.8430 -999.25 -999.25 
 -999.25 -999.25 -999.25 -999.25 -999.25 -999.25 -9.0590  88.624  4.8140 
  4.0890  3.6950 -999.25 -999.25 -999.25 -999.25  69.595  9.8524  4.0031 
  4.1142  4.8095 -999.25 -999.25 -999.25 
  2401.000 
 -32.254  91.802  4.5600  4.0160  3.8000  69.355  9.8240 -999.25 -999.25 
 -999.25 -999.25 -999.25 -999.25 -999.25 -999.25 -8.2540  91.802  4.5600 
  4.0160  3.8000 -999.25 -999.25 -999.25 -999.25  68.417  9.8339  4.1140 
  4.0400  4.5559 -999.25 -999.25 -999.25 
  2401.500 
 -31.850  93.398  4.5200  3.9620  3.8540  84.045  9.8640 -999.25 -999.25 
 -999.25 -999.25 -999.25 -999.25 -999.25 -999.25 -7.8500  93.398  4.5200 
  3.9620  3.8540 -999.25 -999.25 -999.25 -999.25  76.345  9.8430  4.1727 
  3.9855  4.5160 -999.25 -999.25 -999.25 
  2402.000 
 -33.028  93.406  4.4820  3.9090  3.9080  87.539  9.9050 -999.25 -999.25 
 -999.25 -999.25 -999.25 -999.25 -999.25 -999.25 -9.0280  93.406  4.4820 
  3.9090  3.9080 -999.25 -999.25 -999.25 -999.25  85.703  9.8835  4.2343 
  3.9325  4.4781 -999.25 -999.25 -999.25 
  2402.500 
 -32.922  92.426  4.4030  3.8570  3.8750  87.135  9.9260 -999.25 -999.25 
 -999.25 -999.25 -999.25 -999.25 -999.25 -999.25 -8.9220  92.426  4.4030 
  3.8570  3.8750 -999.25 -999.25 -999.25 -999.25  87.348  9.9149  4.2018 
  3.8804  4.3993 -999.25 -999.25 -999.25 
  2403.000 
 -32.816  90.458  4.3260  3.8050  3.8060  87.530  9.9470 -999.25 -999.25 
 -999.25 -999.25 -999.25 -999.25 -999.25 -999.25 -8.8160  90.458  4.3260 
  3.8050  3.8060 -999.25 -999.25 -999.25 -999.25  87.321  9.9359  4.1296 
  3.8281  4.3225 -999.25 -999.25 -999.25 
  2403.500 
 -31.810  89.278  4.2890  3.5700  3.7380  94.922  9.9080 -999.25 -999.25 
 -999.25 -999.25 -999.25 -999.25 -999.25 -999.25 -7.8100  89.278  4.2890 
  3.5700  3.7380 -999.25 -999.25 -999.25 -999.25  91.004  9.9287  4.0558 
  3.5902  4.2855 -999.25 -999.25 -999.25 
  2404.000 
 -31.407  88.893  4.2520  3.4740  3.5710  99.915  9.9290 -999.25 -999.25 
 -999.25 -999.25 -999.25 -999.25 -999.25 -999.25 -7.4070  88.893  4.2520 
  3.4740  3.5710 -999.25 -999.25 -999.25 -999.25  97.261  9.9178  3.8754 
  3.4930  4.2486 -999.25 -999.25 -999.25 
  2404.500 
 -31.004  88.903  4.1780  3.3810  3.4750  95.113  10.049 -999.25 -999.25 
 -999.25 -999.25 -999.25 -999.25 -999.25 -999.25 -7.0040  88.903  4.1780 
  3.3810  3.4750 -999.25 -999.25 -999.25 -999.25  97.672  9.9851  3.7775 
  3.3998  4.1748 -999.25 -999.25 -999.25 
  2405.000 
 -29.801  89.705  4.1420  3.3510  3.3510  93.009  10.030 -999.25 -999.25 
 -999.25 -999.25 -999.25 -999.25 -999.25 -999.25 -5.8010  89.705  4.1420 
  3.3510  3.3510 -999.25 -999.25 -999.25 -999.25  94.133  10.040  3.6481 
  3.3701  4.1390 -999.25 -999.25 -999.25 
  2405.500 
 -29.791  90.507  4.1070  3.3530  3.2010  94.305  9.9910 -999.25 -999.25 
 -999.25 -999.25 -999.25 -999.25 -999.25 -999.25 -5.7910  90.507  4.1070 
  3.3530  3.2010 -999.25 -999.25 -999.25 -999.25  93.611  10.012  3.4842 
  3.3718  4.1040 -999.25 -999.25 -999.25 
  2406.000 
 -29.977  90.913  3.9970  3.4000  3.1730  91.702  9.9530 -999.25 -999.25 
 -999.25 -999.25 -999.25 -999.25 -999.25 -999.25 -5.9770  90.913  3.9970 
  3.4000  3.1730 -999.25 -999.25 -999.25 -999.25  93.101  9.9734  3.4514 
  3.4189  3.9941 -999.25 -999.25 -999.25 
  2406.500 
 -29.971  91.317  4.0010  3.4480  3.1460  91.497  9.9140 -999.25 -999.25 
 -999.25 -999.25 -999.25 -999.25 -999.25 -999.25 -5.9710  91.317  4.0010 
  3.4480  3.1460 -999.25 -999.25 -999.25 -999.25  91.607  9.9350  3.4197 
  3.4669  3.9980 -999.25 -999.25 -999.25 
  2407.000 
 -29.965  91.726  4.0400  3.5790  3.2060  91.993  9.9150 -999.25 -999.25 
 -999.25 -999.25 -999.25 -999.25 -999.25 -999.25 -5.9650  91.726  4.0400 
  3.5790  3.2060 -999.25 -999.25 -999.25 -999.25  91.725  9.9145  3.4828 
  3.5991  4.0369 -999.25 -999.25 -999.25 
  2407.500 
 -30.344  91.538  4.3510  3.7140  3.1770  91.789  9.9260 -999.25 -999.25 
 -999.25 -999.25 -999.25 -999.25 -999.25 -999.25 -6.3440  91.538  4.3510 
  3.7140  3.1770 -999.25 -999.25 -999.25 -999.25  91.900  9.9200  3.4520 
  3.7358  4.3474 -999.25 -999.25 -999.25 
  2408.000 
 -30.732  91.150  4.4350  4.1130  3.3280  89.786  9.9370 -999.25 -999.25 
 -999.25 -999.25 -999.25 -999.25 -999.25 -999.25 -6.7320  91.150  4.4350 
  4.1130  3.3280 -999.25 -999.25 -999.25 -999.25  90.874  9.9310  3.6152 
  4.1399  4.4313 -999.25 -999.25 -999.25 
  2408.500 
 -31.219  90.368  4.6460  4.3880  3.6500  89.482  9.9380 -999.25 -999.25 
 -999.25 -999.25 -999.25 -999.25 -999.25 -999.25 -7.2190  90.368  4.6460 
  4.3880  3.6500 -999.25 -999.25 -999.25 -999.25  89.648  9.9375  3.9620 
  4.4188  4.6420 -999.25 -999.25 -999.25 
  2409.000 
 -31.707  88.792  4.8230  4.6820  4.0780  104.97  9.9390 -999.25 -999.25 
 -999.25 -999.25 -999.25 -999.25 -999.25 -999.25 -7.7070  88.792  4.8230 
  4.6820  4.0780 -999.25 -999.25 -999.25 -999.25  96.512  9.9385  4.4222 
  4.7171  4.8187 -999.25 -999.25 -999.25 
