~Version Information
VERS.                     2.0: CWLS log ASCII Standard Version 2.00
WRAP.                     YES: Multiple lines per depth step
~Well Information Block
#MNEM.UNIT                               Data Type  Information
#---------                               ---------  -----------
STRT.FT                                   100.0000:
STOP.FT                                  3000.0000:
STEP.FT                                     0.5000:
NULL.                 -999.25                     :
COMP.                                             :COMPANY            
WELL.     LOS LOBOS 51X-30                        :WELL               
FLD .                                             :FIELD              
CTRY.                                             :COUNTRY            
STAT.                                             :STATE              
LOC .                                             :LOCATION           
UWI .                                             :UNIQUE WELL ID     
SRVC.                                             :Service company    
DATE.                                             :LOG DATE           
~Curve Information
#MNEM.UNIT           API CODE  Curve Description
#---------           --------  -----------------
DEPT.FT                      :   1 DEPTH
GR  .GAPI                    :   2
CALI.IN                      :   3
DPHI.PU-S                    :   4
NPHI.PU-S                    :   5
DRHO.G/C3                    :   6
DT  .US/F                    :   7
ROP .                        :   8
GAS .                        :   9
CGAS.                        :  10
C1R .                        :  11
C2R .                        :  12
C3R .                        :  13
SP  .MV                      :  14
ILD .OHMM                    :  15
ILM .OHMM                    :  16
SFLU.OHMM                    :  17
GRS .GAPI                    :  18
CALS.IN                      :  19
ROBS.G/C3                    :  20
NPHS.PU-S                    :  21
DROS.G/C3                    :  22
DTS .US/F                    :  23
SBL .MV                      :  24
 RD .OHMM                    :  25
RM  .OHMM                    :  26
RS  .OHMM                    :  27
SFLU.OHMM                    :  28
ILMC.OHMM                    :  29
ILDC.OHMM                    :  30
ROBC.G/C3                    :  31
GRC .GAPI                    :  32
NPHC.PU-S                    :  33
~A
# ...
  2637.500 
  115.73  7.3260  0.5590  0.5410  0.0030  141.81  117.52  9.4346  13.641 
  4.5670 -999.25 -999.25 -999.25  1.3630  1.2690 -999.25  112.14  7.3158 
  1.7248  0.4889  0.0013  143.13 -999.25  1.3630  1.2690 -999.25 -999.25 
  1.2690  1.3630  1.7248  105.89  0.4793 
  2638.000 
  122.46  7.3340  0.5610  0.5890  0.0040  143.70  117.07  9.0483  14.092 
  4.5648 -999.25 -999.25 -999.25  1.3000  1.2110 -999.25  116.65  7.3271 
  1.7272  0.5476  0.0031  143.46 -999.25  1.3000  1.2110 -999.25 -999.25 
  1.2110  1.3000  1.7272  110.20  0.5452 
  2638.500 
  127.22  7.3140  0.5660  0.6030  0.0070  143.34  116.61  8.6867  14.539 
  4.5627 -999.25 -999.25 -999.25  1.2410  1.1830 -999.25  123.08  7.3314 
  1.7233  0.5908  0.0044  142.50 -999.25  1.2410  1.1830 -999.25 -999.25 
  1.1830  1.2410  1.7233  116.29  0.5936 
  2639.000 
  129.12  7.2820  0.5710  0.5660  0.0030  142.06  116.15  8.4329  14.902 
  4.5606 -999.25 -999.25 -999.25  1.2080  1.1780 -999.25  127.45  7.3102 
  1.7151  0.5986  0.0065  141.58 -999.25  1.2080  1.1780 -999.25 -999.25 
  1.1780  1.2080  1.7151  120.31  0.6023 
  2639.500 
  131.18  7.2820  0.5740  0.5450  0.0010  141.31  115.69  8.2633  15.232 
  4.3774 -999.25 -999.25 -999.25  1.2030  1.1890 -999.25  129.35  7.2820 
  1.7073  0.5637  0.0028  141.03 -999.25  1.2030  1.1890 -999.25 -999.25 
  1.1890  1.2030  1.7073  121.96  0.5632 
  2640.000 
  135.14  7.3060  0.5740  0.5460  0.0000  140.86  115.23  8.1100  15.546 
  4.3810 -999.25 -999.25 -999.25  1.2010  1.2140 -999.25  131.59  7.2845 
  1.7029  0.5451  0.0009  140.63 -999.25  1.2010  1.2140 -999.25 -999.25 
  1.2140  1.2010  1.7029  124.08  0.5423 
  2640.500 
  141.96  7.3260  0.5740  0.5820  0.0000  140.47  92.818  7.9567  15.808 
  4.3864 -999.25 -999.25 -999.25  1.2490  1.2450 -999.25  135.78  7.3079 
  1.7029  0.5494  0.0000  138.74 -999.25  1.2490  1.2450 -999.25 -999.25 
  1.2450  1.2490  1.7029  128.17  0.5472 
  2641.000 
  145.60  7.3180  0.5700  0.5960  0.0010  137.43  74.409  7.7550  16.106 
  4.3918 -999.25 -999.25 -999.25  1.2870  1.2760 -999.25  142.27  7.3253 
  1.7035  0.5832  0.0001  135.76 -999.25  1.2870  1.2760 -999.25 -999.25 
  1.2760  1.2870  1.7035  134.39  0.5851 
  2641.500 
  146.40  7.2390  0.5630  0.5970  0.0020  134.38  74.238  7.5435  16.487 
  4.3972 -999.25 -999.25 -999.25  1.3390  1.3190 -999.25  145.66  7.3120 
  1.7104  0.5961  0.0011  134.52 -999.25  1.3390  1.3190 -999.25 -999.25 
  1.3190  1.3390  1.7104  137.52  0.5995 
  2642.000 
  147.19  7.1560  0.5560  0.5590  0.0020  134.65  74.067  7.3320  16.942 
  4.4026 -999.25 -999.25 -999.25  1.3820  1.3570 -999.25  146.45  7.2334 
  1.7218  0.5944  0.0020  135.49 -999.25  1.3820  1.3570 -999.25 -999.25 
  1.3570  1.3820  1.7218  137.80  0.5976 
  2642.500 
  152.18  7.1000  0.5530  0.5650  0.0000  136.32  73.895  7.1299  17.398 
  4.4080 -999.25 -999.25 -999.25  1.4500  1.4010 -999.25  147.48  7.1527 
  1.7329  0.5594  0.0019  136.87 -999.25  1.4500  1.4010 -999.25 -999.25 
  1.4010  1.4500  1.7329  138.29  0.5582 
  2643.000 
  154.95  7.0840  0.5470  0.5860 -0.0010  137.45  73.724  6.8406  17.838 
  4.4134 -999.25 -999.25 -999.25  1.5110  1.5000 -999.25  152.32  7.0992 
  1.7380  0.5661 -0.0001  136.83 -999.25  1.5110  1.5000 -999.25 -999.25 
  1.5000  1.5110  1.7380  142.49  0.5657 
  2643.500 
  149.09  7.0730  0.5400  0.6010  0.0000  136.11  73.553  6.8731  18.249 
  4.4187 -999.25 -999.25 -999.25  1.5510  1.5680 -999.25  154.71  7.0835 
  1.7479  0.5866 -0.0010  134.75 -999.25  1.5510  1.5680 -999.25 -999.25 
  1.5680  1.5510  1.7479  144.63  0.5888 
  2644.000 
  122.70  7.0730  0.5340  0.5400  0.0010  133.02  73.381  6.9461  18.659 
  4.2798 -999.25 -999.25 -999.25  1.5550  1.5870 -999.25  148.22  7.0730 
  1.7593  0.5990  0.0000  131.40 -999.25  1.5550  1.5870 -999.25 -999.25 
  1.5870  1.5550  1.7593  138.50  0.6026 
  2644.500 
  111.53  7.0800  0.5300  0.5100  0.0020  129.15  73.210  7.0950  19.069 
  4.2814 -999.25 -999.25 -999.25  1.5700  1.5990 -999.25  122.43  7.0732 
  1.7691  0.5393  0.0010  129.38 -999.25  1.5700  1.5990 -999.25 -999.25 
  1.5990  1.5700  1.7691  114.40  0.5357 
  2645.000 
  106.62  7.0800  0.5300  0.4850  0.0020  129.71  73.039  7.2792  19.325 
  4.2836 -999.25 -999.25 -999.25  1.5980  1.6300 -999.25  111.45  7.0800 
  1.7755  0.5096  0.0020  131.04 -999.25  1.5980  1.6300 -999.25 -999.25 
  1.6300  1.5980  1.7755  104.18  0.5024 
  2645.500 
  106.14  7.0840  0.5350  0.4790  0.0010  133.23  72.867  7.5162  19.514 
  4.2858 -999.25 -999.25 -999.25  1.6980  1.6890 -999.25  106.61  7.0800 
  1.7754  0.4850  0.0020  134.02 -999.25  1.6980  1.6890 -999.25 -999.25 
  1.6890  1.6980  1.7754  99.653  0.4748 
  2646.000 
  106.62  7.0920  0.5420  0.4820  0.0000  135.46  72.710  7.5234  19.521 
  4.2881 -999.25 -999.25 -999.25  1.8110  1.7790 -999.25  106.14  7.0840 
  1.7673  0.4790  0.0010  134.93 -999.25  1.8110  1.7790 -999.25 -999.25 
  1.7790  1.8110  1.7673  99.229  0.4681 
  2646.500 
  105.82  7.1320  0.5420  0.4840  0.0000  133.88  79.900  7.6782  19.532 
  4.2903 -999.25 -999.25 -999.25  1.9050  1.8810 -999.25  106.61  7.0919 
  1.7558  0.4820  0.0000  133.13 -999.25  1.9050  1.8810 -999.25 -999.25 
  1.8810  1.9050  1.7558  99.703  0.4714 
  2647.000 
  102.18  7.1640  0.5380  0.4830 -0.0010  131.48  79.652  7.9120  19.507 
  4.2926 -999.25 -999.25 -999.25  2.0510  2.0400 -999.25  105.84  7.1312 
  1.7557  0.4840  0.0000  130.50 -999.25  2.0510  2.0400 -999.25 -999.25 
  2.0400  2.0510  1.7557  99.149  0.4737 
  2647.500 
  98.217  7.2190  0.5260  0.4790 -0.0030  128.11  79.405  8.1875  19.462 
  4.2948 -999.25 -999.25 -999.25  2.2530  2.2940 -999.25  102.18  7.1640 
  1.7623  0.4830 -0.0010  127.31 -999.25  2.2530  2.2940 -999.25 -999.25 
  2.2940  2.2530  1.7623  95.855  0.4726 
  2648.000 
  89.105  7.2510  0.5090  0.4570 -0.0030  125.12  79.157  8.4486  19.758 
  4.2970 -999.25 -999.25 -999.25  2.4840  2.6140 -999.25  98.217  7.2190 
  1.7821  0.4790 -0.0030  124.64 -999.25  2.4840  2.6140 -999.25 -999.25 
  2.6140  2.4840  1.7821  92.357  0.4682 
  2648.500 
  86.331  7.2860  0.5010  0.4390 -0.0020  123.20  78.910  8.6025  20.040 
  4.2993 -999.25 -999.25 -999.25  2.6890  2.9240 -999.25  89.105  7.2510 
  1.8102  0.4570 -0.0030  123.04 -999.25  2.6890  2.9240 -999.25 -999.25 
  2.9240  2.6890  1.8102  83.903  0.4435 
  2649.000 
  87.124  7.3300  0.4930  0.4230  0.0020  122.49  78.662  8.5323  19.889 
  4.3015 -999.25 -999.25 -999.25  2.8220  3.0860 -999.25  86.331  7.2860 
  1.8234  0.4390 -0.0020  122.23 -999.25  2.8220  3.0860 -999.25 -999.25 
  3.0860  2.8220  1.8234  81.412  0.4233 
  2649.500 
  89.184  7.3540  0.4860  0.4050  0.0090  121.21  78.325  8.4605  19.763 
  4.3037 -999.25 -999.25 -999.25  2.9020  3.1160 -999.25  87.124  7.3300 
  1.8366  0.4230  0.0020  121.04 -999.25  2.9020  3.1160 -999.25 -999.25 
  3.1160  2.9020  1.8366  82.314  0.4054 
  2650.000 
  91.957  7.3500  0.4790  0.3960  0.0120  120.32  86.032  8.3879  19.675 
  4.3060 -999.25 -999.25 -999.25  2.9040  3.0450 -999.25  89.184  7.3540 
  1.8481  0.4050  0.0090  120.58 -999.25  2.9040  3.0450 -999.25 -999.25 
  3.0450  2.9040  1.8481  84.346  0.3853 
  2650.500 
  96.632  7.3100  0.4810  0.4040  0.0120  121.97  85.892  8.1518  19.586 
  4.3082 -999.25 -999.25 -999.25  2.8080  2.9330 -999.25  91.957  7.3500 
  1.8597  0.3960  0.0120  122.12 -999.25  2.8080  2.9330 -999.25 -999.25 
  2.9330  2.8080  1.8597  86.954  0.3752 
  2651.000 
  102.65  7.2670  0.4890  0.4330  0.0110  123.04  85.752  8.1572  19.498 
  4.3104 -999.25 -999.25 -999.25  2.6850  2.8570 -999.25  96.632  7.3100 
  1.8564  0.4040  0.0120  123.13 -999.25  2.6850  2.8570 -999.25 -999.25 
  2.8570  2.6850  1.8564  91.220  0.3841 
  2651.500 
  109.07  7.2510  0.4900  0.4500  0.0060  123.76  85.613  8.3566  19.399 
  4.3127 -999.25 -999.25 -999.25  2.5820  2.7330 -999.25  102.65  7.2670 
  1.8432  0.4330  0.0110  123.85 -999.25  2.5820  2.7330 -999.25 -999.25 
  2.7330  2.5820  1.8432  96.728  0.4166 
