~Version Information
VERS.                     2.0: CWLS log ASCII Standard Version 2.00
WRAP.                     YES: Multiple lines per depth step
~Well Information Block
#MNEM.UNIT                               Data Type  Information
#---------                               ---------  -----------
STRT.FT                                   850.0000:
STOP.FT                                  6800.0000:
STEP.FT                                     0.5000:
NULL.                 -999.25                     :
COMP.                                             :COMPANY            
WELL.     SANTIAGO D #26-27                       :WELL               
FLD .                                             :FIELD              
CTRY.                                             :COUNTRY            
STAT.                                             :STATE              
LOC .                                             :LOCATION           
UWI .                                             :UNIQUE WELL ID     
SRVC.                                             :Service company    
DATE.                                             :LOG DATE           
~Curve Information
#MNEM.UNIT           API CODE  Curve Description
#---------           --------  -----------------
DEPT.FT                      :   1 DEPTH
DCAL.IN                      :   2
DGR .GAPI                    :   3
NPHI.PU-S                    :   4
DPHI.PU-S                    :   5
DRHO.G/C3                    :   6
AGR .GAPI                    :   7
ACAL.IN                      :   8
DT  .US/F                    :   9
GR  .GAPI                    :  10
SP  .MV                      :  11
ILM .OHMM                    :  12
ILD .OHMM                    :  13
SFLU.OHMM                    :  14
RHOB.G/C3                    :  15
RS  .OHMM                    :  16
RM  .OHMM                    :  17
RD  .OHMM                    :  18
GRS .GAPI                    :  19
SBL .MV                      :  20
ROBS.G/C3                    :  21
DRHS.G/C3                    :  22
CALS.IN                      :  23
GRS .GAPI                    :  24
NPHS.PU-S                    :  25
CALS.IN                      :  26
GRS .GAPI                    :  27
SFLU.OHMM                    :  28
ILMC.OHMM                    :  29
ILDC.OHMM                    :  30
ROBC.G/C3                    :  31
GRC .GAPI                    :  32
NPHC.PU-S                    :  33
~A
# ...
  6316.500 
  11.947  62.432  0.4140  0.4640  0.0230  57.414  10.148  115.54  57.693 
 -55.424  1.8800  1.9440  2.0500  1.8844  2.0500  1.8800  1.9440  57.693 
 -21.377  1.8844  0.0230  11.947  62.432  0.4220  10.156  57.882  2.3150 
  1.8978  1.9440  1.9042  69.133  0.4877 
  6317.000 
  11.887  60.932  0.4220  0.4740  0.0210  57.138  10.049  115.79  57.348 
 -55.176  1.9700  1.9880  2.1840  1.8679  2.1840  1.9700  1.9880  57.348 
 -21.129  1.8679  0.0210  11.887  60.932  0.4220  10.081  57.226  2.4650 
  1.9892  1.9879  1.8873  67.361  0.4876 
  6317.500 
  11.761  60.615  0.4220  0.4770  0.0210  57.454  9.7730  114.72  57.758 
 -54.529  2.1020  2.0640  2.2540  1.8630  2.2540  2.1020  2.0640  57.758 
 -20.483  1.8630  0.0210  11.761  60.615  0.4190  9.8610  57.353  2.5386 
  2.1231  2.0639  1.8816  66.775  0.4833 
  6318.000 
  11.564  61.087  0.4190  0.4770  0.0190  57.811  9.5200  112.88  58.522 
 -53.762  2.2680  2.2470  2.3490  1.8630  2.3490  2.2680  2.2470  58.522 
 -19.717  1.8630  0.0190  11.564  61.087  0.4140  9.6004  57.698  2.6363 
  2.2912  2.2467  1.8805  66.921  0.4761 
  6318.500 
  11.445  61.833  0.4140  0.4720  0.0120  58.720  9.5200  111.07  59.566 
 -53.318  2.4070  2.3540  2.5160  1.8712  2.5160  2.4070  2.3540  59.566 
 -19.274  1.8712  0.0120  11.445  61.833  0.4000  9.5200  58.432  2.8179 
  2.4321  2.3536  1.8880  67.507  0.4573 
  6319.000 
  11.445  62.147  0.4000  0.4560  0.0100  60.262  9.5360  109.28  60.289 
 -52.592  2.5730  2.4710  2.8580  1.8976  2.8580  2.5730  2.4710  60.289 
 -18.549  1.8976  0.0100  11.445  62.147  0.3820  9.5309  59.775  3.2025 
  2.6017  2.4706  1.9144  67.850  0.4334 
  6319.500 
  11.469  63.879  0.3820  0.4350  0.0160  62.040  9.5640  108.47  61.570 
 -51.668  2.7560  2.6560  3.1700  1.9323  3.1700  2.7560  2.6560  61.570 
 -17.626  1.9323  0.0160  11.469  63.879  0.3670  9.5552  61.480  3.5554 
  2.7892  2.6555  1.9492  69.789  0.4136 
  6320.000 
  11.445  69.710  0.3670  0.4270  0.0260  63.542  9.5950  109.06  62.968 
 -50.825  2.9570  2.8660  3.3390  1.9455  3.3390  2.9570  2.8660  62.968 
 -16.783  1.9455  0.0260  11.445  69.710  0.3570  9.5853  63.071  3.7436 
  2.9950  2.8654  1.9623  76.107  0.4002 
  6320.500 
  11.358  71.088  0.3570  0.4220  0.0310  65.123  9.6190  109.58  64.484 
 -50.811  3.1560  3.1850  3.4850  1.9537  3.4850  3.1560  3.1850  64.484 
 -16.770  1.9537  0.0310  11.358  71.088  0.3630  9.6115  64.628  3.9002 
  3.1980  3.1842  1.9700  77.416  0.4080 
  6321.000 
  11.342  70.101  0.3630  0.4150  0.0140  65.519  9.6430  106.92  65.526 
 -51.116  3.4430  3.4810  4.0030  1.9653  4.0030  3.4430  3.4810  65.526 
 -17.076  1.9653  0.0140  11.342  70.101  0.3790  9.6355  65.396  4.4799 
  3.4928  3.4800  1.9814  76.306  0.4292 
  6321.500 
  11.366  66.197  0.3790  0.4030 -0.0050  63.504  9.6670  100.23  64.865 
 -51.459  3.6400  3.5410  4.6400  1.9851  4.6400  3.6400  3.5410  64.865 
 -17.420  1.9851 -0.0050  11.366  66.197  0.3810  9.6595  64.130  5.1978 
  3.6962  3.5400  2.0014  72.107  0.4319 
  6322.000 
  11.405  61.900  0.3810  0.3800  0.0000  57.104  9.6710  92.213  58.699 
 -51.368  3.7100  3.5300  5.8110  2.0230  5.8110  3.7100  3.5300  58.699 
 -17.330  2.0230  0.0000  11.405  61.900  0.3360  9.6698  59.087  6.5199 
  3.7692  3.5291  2.0396  67.502  0.3688 
  6322.500 
  11.464  54.608  0.3360  0.3430  0.0210  50.981  9.6630  87.747  51.503 
 -50.804  3.6650  3.4810  6.3040  2.0841  6.3040  3.6650  3.4810  51.503 
 -16.767  2.0841  0.0210  11.464  54.608  0.2950  9.6655  52.872  7.0859 
  3.7239  3.4802  2.1010  59.652  0.3164 
  6323.000 
  11.550  56.143  0.2950  0.3110  0.0410  49.085  9.6510  89.672  49.695 
 -50.393  3.5280  3.4000  5.6070  2.1369  5.6070  3.5280  3.4000  49.695 
 -16.356  2.1369  0.0410  11.550  56.143  0.2760  9.6547  49.669  6.3143 
  3.5841  3.3994  2.1543  61.480  0.2929 
  6323.500 
  11.633  61.540  0.2760  0.3190  0.0490  55.526  9.6150  98.364  54.102 
 -50.383  3.3590  3.3100  4.3290  2.1237  4.3290  3.3590  3.3100  54.102 
 -16.347  2.1237  0.0490  11.633  61.540  0.2970  9.6260  53.549  4.8801 
  3.4112  3.3095  2.1416  67.550  0.3193 
  6324.000 
  12.184  63.824  0.2970  0.3740  0.0370  63.191  9.5840  103.44  57.441 
 -50.647  3.1170  3.2100  2.8220  2.0329  2.8220  3.1170  3.2100  57.441 
 -16.612  2.0329  0.0370  12.184  63.824  0.3520  9.5935  60.846  3.2112 
  3.1696  3.2118  2.0540  71.133  0.3953 
  6324.500 
  12.429  68.000  0.3520  0.4230  0.0280  65.088  9.5600  107.97  64.464 
 -50.872  2.8340  3.1420  2.5800  1.9521  2.5800  2.8340  3.1420  64.464 
 -16.838  1.9521  0.0280  12.429  68.000  0.3970  9.5673  64.509  2.9476 
  2.8803  3.1459  1.9745  76.284  0.4557 
  6325.000 
  11.975  71.781  0.3970  0.4260  0.0260  66.354  9.5560  110.05  66.377 
 -50.742  2.8200  3.0410  2.6690  1.9471  2.6690  2.8200  3.0410  66.377 
 -16.709  1.9471  0.0260  11.975  71.781  0.4260  9.5572  65.969  3.0226 
  2.8606  3.0410  1.9670  79.547  0.4931 
  6325.500 
  11.364  74.302  0.4260  0.4310  0.0170  66.631  9.5760  109.99  66.984 
 -49.896  2.8690  2.9660  2.8330  1.9389  2.8330  2.8690  2.9660  66.984 
 -15.864  1.9389  0.0170  11.364  74.302  0.4350  9.5699  66.547  3.1690 
  2.9038  2.9653  1.9552  80.931  0.5035 
  6326.000 
  11.269  77.886  0.4350  0.4390  0.0020  68.686  9.8090  110.23  67.987 
 -48.935  2.9560  2.9730  3.1180  1.9257  3.1180  2.9560  2.9730  67.987 
 -14.903  1.9257  0.0020  11.269  77.886  0.4320  9.7386  68.065  3.4815 
  2.9917  2.9722  1.9414  84.599  0.4993 
  6326.500 
  11.273  81.826  0.4320  0.4380  0.0010  74.415  10.181  111.58  69.978 
 -47.299  3.0460  3.0410  3.5230  1.9273  3.5230  3.0460  3.0410  69.978 
 -13.268  1.9273  0.0010  11.273  81.826  0.4150  10.069  72.690  3.9352 
  3.0840  3.0402  1.9431  88.889  0.4767 
  6327.000 
  11.557  87.223  0.4150  0.4240  0.0180  82.832  10.920  112.65  74.307 
 -45.306  3.1570  3.1280  4.0240  1.9504  4.0240  3.1570  3.1280  74.307 
 -11.276  1.9504  0.0180  11.557  87.223  0.3840  10.698  80.306  4.5265 
  3.2019  3.1275  1.9679  95.534  0.4363 
  6327.500 
  11.931  94.157  0.3840  0.4150  0.0390  89.272  11.884  112.69  81.567 
 -43.829  3.2710  3.2470  4.5130  1.9653  4.5130  3.2710  3.2470  81.567 
 -9.7999  1.9653  0.0390  11.931  94.157  0.3830  11.596  87.346  5.1257 
  3.3251  3.2469  1.9849  104.22  0.4359 
  6328.000 
  12.151  95.101  0.3830  0.4140  0.0550  91.999  12.528  112.17  90.016 
 -43.301  3.4020  3.4200  5.0790  1.9669  5.0790  3.4020  3.4200  90.016 
 -9.2727  1.9669  0.0550  12.151  95.101  0.4100  12.336  91.186  5.8049 
  3.4642  3.4216  1.9878  105.90  0.4723 
  6328.500 
  12.136  93.168  0.4100  0.4220  0.0510  89.116  12.571  111.62  91.296 
 -43.726  3.5050  3.5640  5.3310  1.9537  5.3310  3.5050  3.5640  91.296 
 -9.6985  1.9537  0.0510  12.136  93.168  0.4490  12.558  89.973  6.0929 
  3.5708  3.5656  1.9745  103.70  0.5241 
  6329.000 
  11.954  87.058  0.4490  0.4440  0.0340  80.622  12.236  111.52  90.316 
 -44.821  3.5860  3.6120  4.8300  1.9174  4.8300  3.5860  3.6120  90.316 
 -10.794  1.9174  0.0340  11.954  87.058  0.4650  12.335  83.138  5.4913 
  3.6515  3.6119  1.9372  96.421  0.5449 
  6329.500 
  11.855  83.628  0.4650  0.4590  0.0270  75.999  11.532  112.13  81.220 
 -46.077  3.5350  3.5360  3.6950  1.8927  3.6950  3.5350  3.5360  81.220 
 -12.051  1.8927  0.0270  11.855  83.628  0.4780  11.740  77.364  4.1836 
  3.5969  3.5358  1.9119  92.369  0.5619 
  6330.000 
  11.859  83.429  0.4780  0.4570  0.0260  73.788  11.070  112.33  76.085 
 -48.200  3.3850  3.4350  3.2210  1.8960  3.2210  3.3850  3.4350  76.085 
 -14.175  1.8960  0.0260  11.859  83.429  0.4830  11.206  74.439  3.6439 
  3.4417  3.4348  1.9152  92.160  0.5685 
  6330.500 
  11.906  83.427  0.4830  0.4550  0.0280  72.524  11.173  109.85  73.602 
 -49.497  3.2050  3.2710  2.7970  1.8993  2.7970  3.2050  3.2710  73.602 
 -15.473  1.8993  0.0280  11.906  83.427  0.4790  11.143  72.895  3.1642 
  3.2565  3.2709  1.9188  92.278  0.5633 
