~Version Information
VERS.                     2.0: CWLS log ASCII Standard Version 2.00
WRAP.                     YES: Multiple lines per depth step
~Well Information Block
#MNEM.UNIT                               Data Type  Information
#---------                               ---------  -----------
STRT.FT                                   100.0000:
STOP.FT                                  3000.0000:
STEP.FT                                     0.5000:
NULL.                 -999.25                     :
COMP.                                             :COMPANY            
WELL.     LOS LOBOS 51X-30                        :WELL               
FLD .                                             :FIELD              
CTRY.                                             :COUNTRY            
STAT.                                             :STATE              
LOC .                                             :LOCATION           
UWI .                                             :UNIQUE WELL ID     
SRVC.                                             :Service company    
DATE.                                             :LOG DATE           
~Curve Information
#MNEM.UNIT           API CODE  Curve Description
#---------           --------  -----------------
DEPT.FT                      :   1 DEPTH
GR  .GAPI                    :   2
CALI.IN                      :   3
DPHI.PU-S                    :   4
NPHI.PU-S                    :   5
DRHO.G/C3                    :   6
DT  .US/F                    :   7
ROP .                        :   8
GAS .                        :   9
CGAS.                        :  10
C1R .                        :  11
C2R .                        :  12
C3R .                        :  13
SP  .MV                      :  14
ILD .OHMM                    :  15
ILM .OHMM                    :  16
SFLU.OHMM                    :  17
GRS .GAPI                    :  18
CALS.IN                      :  19
ROBS.G/C3                    :  20
NPHS.PU-S                    :  21
DROS.G/C3                    :  22
DTS .US/F                    :  23
SBL .MV                      :  24
 RD .OHMM                    :  25
RM  .OHMM                    :  26
RS  .OHMM                    :  27
SFLU.OHMM                    :  28
ILMC.OHMM                    :  29
ILDC.OHMM                    :  30
ROBC.G/C3                    :  31
GRC .GAPI                    :  32
NPHC.PU-S                    :  33
~A
# ...
  2231.500 
  140.21  6.8960  0.5330 -999.25 -0.0060  139.96  194.52  15.904  9.8056 
  3.4812 -999.25 -999.25 -999.25  1.4150  1.4420 -999.25  134.41  6.8861 
  1.7788 -999.25 -0.0019  137.68 -999.25  1.4150  1.4420 -999.25 -999.25 
  1.4420  1.4150  1.7788  124.57 -999.25 
  2232.000 
  144.50  6.9240  0.5350 -999.25 -0.0100  142.42  194.52  15.601  9.5352 
  3.4841 -999.25 -999.25 -999.25  1.4130  1.4280 -999.25  140.86  6.9002 
  1.7701 -999.25 -0.0066  138.19 -999.25  1.4130  1.4280 -999.25 -999.25 
  1.4280  1.4130  1.7701  130.63 -999.25 
  2232.500 
  140.45  6.9240  0.5340 -999.25 -0.0110  145.00  194.53  15.237  9.2634 
  3.4870 -999.25 -999.25 -999.25  1.4710  1.4230 -999.25  143.97  6.9240 
  1.7675 -999.25 -0.0101  140.99 -999.25  1.4710  1.4230 -999.25 -999.25 
  1.4230  1.4710  1.7675  133.66 -999.25 
  2233.000 
  131.47  6.8920  0.5360 -999.25 -0.0110  142.38  194.54  14.851  8.9686 
  3.4900 -999.25 -999.25 -999.25  1.5170  1.4260 -999.25  139.45  6.9204 
  1.7685 -999.25 -0.0110  143.54 -999.25  1.5170  1.4260 -999.25 -999.25 
  1.4260  1.5170  1.7685  129.44 -999.25 
  2233.500 
  124.55  6.8480  0.5390 -999.25 -0.0090  138.85  177.06  14.422  8.6909 
  3.4929 -999.25 -999.25 -999.25  1.5880  1.4570 -999.25  130.84  6.8880 
  1.7652 -999.25 -0.0108  143.84 -999.25  1.5880  1.4570 -999.25 -999.25 
  1.4570  1.5880  1.7652  121.27 -999.25 
  2234.000 
  122.17  6.8210  0.5390 -999.25 -0.0060  135.95  176.84  14.055  8.4618 
  3.4958 -999.25 -999.25 -999.25  1.6410  1.5190 -999.25  124.38  6.8461 
  1.7607 -999.25 -0.0088  140.78 -999.25  1.6410  1.5190 -999.25 -999.25 
  1.5190  1.6410  1.7607  115.07 -999.25 
  2234.500 
  120.58  6.7810  0.5420 -999.25 -0.0020  132.74  176.62  13.721  8.3256 
  3.4988 -999.25 -999.25 -999.25  1.8780  1.6430 -999.25  122.09  6.8190 
  1.7604 -999.25 -0.0058  137.50 -999.25  1.8780  1.6430 -999.25 -999.25 
  1.6430  1.8780  1.7604  112.81 -999.25 
  2235.000 
  116.53  6.7770  0.5450 -999.25 -0.0010  130.30  176.39  13.531  8.1550 
  3.5019 -999.25 -999.25 -999.25  2.1300  1.8710 -999.25  120.45  6.7809 
  1.7555 -999.25 -0.0020  134.42 -999.25  2.1300  1.8710 -999.25 -999.25 
  1.8710  2.1300  1.7555  111.12 -999.25 
  2235.500 
  113.67  6.7970  0.5450 -999.25  0.0000  127.78  176.17  13.350  7.8847 
  3.1609 -999.25 -999.25 -999.25  2.1410  2.2740 -999.25  116.49  6.7772 
  1.7508 -999.25 -0.0010  131.54 -999.25  2.1410  2.2740 -999.25 -999.25 
  2.2740  2.1410  1.7508  107.45 -999.25 
  2236.000 
  114.70  6.8090  0.5440 -999.25 -0.0020  127.10  175.95  13.176  7.6562 
  3.1584 -999.25 -999.25 -999.25  2.0800  2.3420 -999.25  113.69  6.7968 
  1.7508 -999.25  0.0000  129.04 -999.25  2.0800  2.3420 -999.25 -999.25 
  2.3420  2.0800  1.7508  104.95 -999.25 
  2236.500 
  117.48  6.8290  0.5420 -999.25 -0.0030  128.47  118.98  13.023  7.8138 
  3.1558 -999.25 -999.25 -999.25  2.0050  1.9650 -999.25  114.67  6.8086 
  1.7524 -999.25 -0.0019  127.43 -999.25  2.0050  1.9650 -999.25 -999.25 
  1.9650  2.0050  1.7524  105.91 -999.25 
  2237.000 
  119.55  6.8290  0.5400 -999.25 -0.0050  130.57  119.03  12.923  7.7659 
  3.1532 -999.25 -999.25 -999.25  1.9610  1.7710 -999.25  117.35  6.8280 
  1.7555 -999.25 -0.0030  127.82 -999.25  1.9610  1.7710 -999.25 -999.25 
  1.7710  1.9610  1.7555  108.48 -999.25 
  2237.500 
  120.99  6.8290  0.5400 -999.25 -0.0050  134.15  119.07  12.884  7.6791 
  3.1506 -999.25 -999.25 -999.25  1.9260  1.6640 -999.25  119.41  6.8290 
  1.7588 -999.25 -0.0049  129.59 -999.25  1.9260  1.6640 -999.25 -999.25 
  1.6640  1.9260  1.7588  110.39 -999.25 
  2238.000 
  122.10  6.8330  0.5440 -999.25 -0.0050  136.95  119.11  12.945  7.5412 
  3.1481 -999.25 -999.25 -999.25  1.8800  1.5950 -999.25  120.86  6.8290 
  1.7590 -999.25 -0.0050  132.52 -999.25  1.8800  1.5950 -999.25 -999.25 
  1.5950  1.8800  1.7590  111.73 -999.25 
  2238.500 
  135.46  6.8690  0.5470 -999.25 -0.0050  140.09  232.08  12.958  7.4660 
  3.1455 -999.25 -999.25 -999.25  1.8060  1.5130 -999.25  121.98  6.8326 
  1.7531 -999.25 -0.0050  135.71 -999.25  1.8060  1.5130 -999.25 -999.25 
  1.5130  1.8060  1.7531  112.78 -999.25 
  2239.000 
  142.14  6.9050  0.5460 -999.25 -0.0060  141.73  248.10  13.042  7.3868 
  3.1429 -999.25 -999.25 -999.25  1.6360  1.4480 -999.25  133.72  6.8643 
  1.7481 -999.25 -0.0050  138.73 -999.25  1.6360  1.4480 -999.25 -999.25 
  1.4480  1.6360  1.7481  123.81 -999.25 
  2239.500 
  144.13  6.9290  0.5400 -999.25 -0.0080  144.06  248.11  13.186  7.3008 
  3.1404 -999.25 -999.25 -999.25  1.5130  1.3980 -999.25  141.14  6.8996 
  1.7489 -999.25 -0.0058  141.04 -999.25  1.5130  1.3980 -999.25 -999.25 
  1.3980  1.5130  1.7489  130.88 -999.25 
  2240.000 
  141.59  6.9330  0.5310 -999.25 -0.0120  145.96  248.12  13.354  7.2468 
  3.1377 -999.25 -999.25 -999.25  1.3240  1.3430 -999.25  143.79  6.9249 
  1.7573 -999.25 -0.0077  143.11 -999.25  1.3240  1.3430 -999.25 -999.25 
  1.3430  1.3240  1.7573  133.49 -999.25 
  2240.500 
  139.20  6.9370  0.5250 -999.25 -0.0130  146.24  248.13  13.515  7.1928 
  4.0080 -999.25 -999.25 -999.25  1.2720  1.2950 -999.25  142.07  6.9322 
  1.7710 -999.25 -0.0112  145.20 -999.25  1.2720  1.2950 -999.25 -999.25 
  1.2950  1.2720  1.7710  131.94 -999.25 
  2241.000 
  137.85  6.9290  0.5260 -999.25 -0.0110  146.08  248.14  13.513  7.1518 
  4.0090 -999.25 -999.25 -999.25  1.2420  1.2550 -999.25  139.70  6.9362 
  1.7817 -999.25 -0.0128  146.13 -999.25  1.2420  1.2550 -999.25 -999.25 
  1.2550  1.2420  1.7817  129.77 -999.25 
  2241.500 
  135.31  6.9170  0.5310 -999.25 -0.0060  145.51  248.15  13.718  7.2397 
  4.0100 -999.25 -999.25 -999.25  1.2370  1.2300 -999.25  138.16  6.9308 
  1.7825 -999.25 -0.0115  146.14 -999.25  1.2370  1.2300 -999.25 -999.25 
  1.2300  1.2370  1.7825  128.30 -999.25 
  2242.000 
  131.18  6.9100  0.5350 -999.25 -0.0020  144.73  248.16  13.930  7.3175 
  4.0110 -999.25 -999.25 -999.25  1.2460  1.2100 -999.25  135.95  6.9200 
  1.7759 -999.25 -0.0073  145.72 -999.25  1.2460  1.2100 -999.25 -999.25 
  1.2100  1.2460  1.7759  126.19 -999.25 
  2242.500 
  128.71  6.8980  0.5400 -999.25 -0.0010  144.30  248.17  14.180  7.5832 
  4.0120 -999.25 -999.25 -999.25  1.2390  1.2100 -999.25  132.30  6.9119 
  1.7690 -999.25 -0.0031  145.01 -999.25  1.2390  1.2100 -999.25 -999.25 
  1.2100  1.2390  1.7690  122.75 -999.25 
  2243.000 
  128.88  6.8780  0.5450 -999.25 -0.0040  143.62  248.18  14.515  8.2131 
  4.0130 -999.25 -999.25 -999.25  1.2370  1.2140 -999.25  129.43  6.9015 
  1.7614 -999.25 -0.0013  144.45 -999.25  1.2370  1.2140 -999.25 -999.25 
  1.2140  1.2370  1.7614  120.04 -999.25 
  2243.500 
  129.99  6.8740  0.5530 -999.25 -0.0080  142.65  194.16  14.892  9.0127 
  4.0140 -999.25 -999.25 -999.25  1.2640  1.2280 -999.25  128.83  6.8842 
  1.7533 -999.25 -0.0031  143.84 -999.25  1.2640  1.2280 -999.25 -999.25 
  1.2280  1.2640  1.7533  119.39 -999.25 
  2244.000 
  134.13  6.8420  0.5620 -999.25 -0.0120  141.56  194.05  15.361  9.6904 
  4.0150 -999.25 -999.25 -999.25  1.2830  1.2570 -999.25  129.62  6.8753 
  1.7419 -999.25 -0.0067  142.96 -999.25  1.2830  1.2570 -999.25 -999.25 
  1.2570  1.2830  1.7419  120.08 -999.25 
  2244.500 
  137.15  6.8580  0.5610 -999.25 -0.0130  139.89  193.93  15.849  10.322 
  4.7463 -999.25 -999.25 -999.25  1.3180  1.2970 -999.25  132.67  6.8532 
  1.7279 -999.25 -0.0106  141.89 -999.25  1.3180  1.2970 -999.25 -999.25 
  1.2970  1.3180  1.7279  122.78 -999.25 
  2245.000 
  134.85  6.8740  0.5530 -999.25 -0.0160  138.07  193.82  16.438  10.912 
  4.7473 -999.25 -999.25 -999.25  1.3750  1.3450 -999.25  136.03  6.8521 
  1.7237 -999.25 -0.0126  140.38 -999.25  1.3750  1.3450 -999.25 -999.25 
  1.3450  1.3750  1.7237  125.88 -999.25 
  2245.500 
  129.36  6.8700  0.5460 -999.25 -0.0160  135.19  193.71  17.005  11.493 
  4.7483 -999.25 -999.25 -999.25  1.4490  1.4130 -999.25  135.75  6.8677 
  1.7324 -999.25 -0.0148  138.59 -999.25  1.4490  1.4130 -999.25 -999.25 
  1.4130  1.4490  1.7324  125.71 -999.25 
