~Version Information
VERS.                     2.0: CWLS log ASCII Standard Version 2.00
WRAP.                     YES: Multiple lines per depth step
~Well Information Block
#MNEM.UNIT                               Data Type  Information
#---------                               ---------  -----------
STRT.FT                                   800.0000:
STOP.FT                                  5530.0000:
STEP.FT                                     0.5000:
NULL.                 -999.25                     :
COMP.                                             :COMPANY            
WELL.     SANTIAGO B 73-29                        :WELL               
FLD .                                             :FIELD              
CTRY.                                             :COUNTRY            
STAT.                                             :STATE              
LOC .                                             :LOCATION           
UWI .                                             :UNIQUE WELL ID     
SRVC.                                             :Service company    
DATE.                                             :LOG DATE           
~Curve Information
#MNEM.UNIT           API CODE  Curve Description
#---------           --------  -----------------
DEPT.FT                      :   1 DEPTH
SP  .MV                      :   2
GR  .GAPI                    :   3
ILD .OHMM                    :   4
ILM .OHMM                    :   5
SFL .OHMM                    :   6
DT  .US/F                    :   7
CALI.IN                      :   8
KSCI.                        :   9
PSCI.                        :  10
OSCI.                        :  11
WSCI.                        :  12
GR  .GAPI                    :  13
RHOB.G/C3                    :  14
NPHI.PU-S                    :  15
DRHO.G/C3                    :  16
SBL .MV                      :  17
GRS .GAPI                    :  18
RD  .OHMM                    :  19
RM  .OHMM                    :  20
RS  .OHMM                    :  21
R0BS.G/C3                    :  22
DRHS.G/C3                    :  23
GRS .GAPI                    :  24
NPHS.PU-S                    :  25
DTS .US/F                    :  26
CALS.IN                      :  27
SFLC.OHMM                    :  28
ILMC.OHMM                    :  29
ILDC.OHMM                    :  30
R0BC.G/C3                    :  31
GRC .GAPI                    :  32
NPHC.PU-S                    :  33
~A
# ...
  3642.000 
 -29.976  65.833  2.1980  2.0610  2.1380  88.400  10.472 -999.25 -999.25 
 -999.25 -999.25  69.555  2.1070  0.3800  0.0260 -5.9966  65.833  2.1980 
  2.0610  2.1380  2.1202  0.0263  67.588  0.3780  88.952  10.436  2.3525 
  2.0700  2.1973  2.1305  72.060  0.3555 
  3642.500 
 -28.399  66.423  2.2180  2.0610  2.1380  87.703  10.492 -999.25 -999.25 
 -999.25 -999.25  68.373  2.1060  0.3870  0.0240 -4.4203  66.423  2.2180 
  2.0610  2.1380  2.1239  0.0280  68.588  0.3800  88.022  10.483  2.3542 
  2.0702  2.2173  2.1346  73.235  0.3578 
  3643.000 
 -27.810  66.418  2.2380  2.0610  2.1380  87.207  10.531 -999.25 -999.25 
 -999.25 -999.25  67.588  2.1110  0.3830  0.0240 -3.8320  66.418  2.2380 
  2.0610  2.1380  2.1233  0.0284  70.580  0.3870  87.432  10.513  2.3553 
  2.0703  2.2373  2.1342  75.435  0.3657 
  3643.500 
 -27.815  66.611  2.2380  2.0990  2.1380  86.908  10.629 -999.25 -999.25 
 -999.25 -999.25  68.588  2.1180  0.3780  0.0250 -3.8377  66.611  2.2380 
  2.0990  2.1380  2.1210  0.0294  70.786  0.3830  87.042  10.585  2.3579 
  2.1090  2.2374  2.1324  75.827  0.3612 
  3644.000 
 -28.214  67.004  2.2380  2.0980  2.1380  86.510  10.688 -999.25 -999.25 
 -999.25 -999.25  70.580  2.1230  0.3810  0.0280 -4.2374  67.004  2.2380 
  2.0980  2.1380  2.1230  0.0300  70.000  0.3780  86.687  10.662  2.3608 
  2.1083  2.2374  2.1349  75.167  0.3557 
  3644.500 
 -28.217  66.012  2.2580  2.1180  2.1570  85.515  10.767 -999.25 -999.25 
 -999.25 -999.25  70.786  2.1250  0.3900  0.0280 -4.2411  66.012  2.2580 
  2.1180  2.1570  2.1292  0.0308  70.504  0.3810  85.953  10.732  2.3843 
  2.1289  2.2574  2.1416  75.874  0.3591 
  3645.000 
 -28.221  65.217  2.2790  2.1570  2.1570  84.021  10.707 -999.25 -999.25 
 -999.25 -999.25  70.000  2.1210  0.3900  0.0290 -4.2458  65.217  2.2790 
  2.1570  2.1570  2.1368  0.0324  71.007  0.3900  84.672  10.733  2.3843 
  2.1683  2.2784  2.1491  76.418  0.3691 
  3645.500 
 -28.028  65.016  2.2890  2.1570  2.1560  84.072  10.430 -999.25 -999.25 
 -999.25 -999.25  70.504  2.1210  0.3860  0.0300 -4.0535  65.016  2.2890 
  2.1570  2.1560  2.1426  0.0318  71.810  0.3900  84.050  10.549  2.3764 
  2.1674  2.2883  2.1537  76.838  0.3691 
  3646.000 
 -27.834  66.987  2.3000  2.1660  2.1560  84.122  10.430 -999.25 -999.25 
 -999.25 -999.25  71.007  2.1260  0.3910  0.0300 -3.8602  66.987  2.3000 
  2.1660  2.1560  2.1407  0.0308  71.817  0.3860  84.101  10.430  2.3719 
  2.1759  2.2992  2.1511  76.554  0.3645 
  3646.500 
 -27.443  66.391  2.2990  2.1760  2.1560  87.213  10.548 -999.25 -999.25 
 -999.25 -999.25  71.810  2.1340  0.3960  0.0320 -3.4699  66.391  2.2990 
  2.1760  2.1560  2.1348  0.0335  71.825  0.3910  85.908  10.498  2.3745 
  2.1863  2.2983  2.1456  76.729  0.3702 
  3647.000 
 -27.645  64.213  2.3200  2.1760  2.1560  87.214  10.686 -999.25 -999.25 
 -999.25 -999.25  71.817  2.1410  0.3900  0.0330 -3.6727  64.213  2.3200 
  2.1760  2.1560  2.1394  0.0360  71.635  0.3960  87.214  10.628  2.3793 
  2.1869  2.3193  2.1510  76.842  0.3758 
  3647.500 
 -27.846  63.813  2.3200  2.1660  2.1760  86.617  10.883 -999.25 -999.25 
 -999.25 -999.25  71.825  2.1450  0.3890  0.0300 -3.8744  63.813  2.3200 
  2.1660  2.1760  2.1446  0.0356  70.255  0.3900  86.864  10.802  2.4078 
  2.1777  2.3194  2.1574  75.769  0.3692 
  3648.000 
 -28.047  63.809  2.2990  2.1560  2.1750  80.838  10.883 -999.25 -999.25 
 -999.25 -999.25  71.635  2.1340  0.3920  0.0320 -4.0761  63.809  2.2990 
  2.1560  2.1750  2.1425  0.0350  69.766  0.3890  83.202  10.883  2.4098 
  2.1680  2.2985  2.1559  75.431  0.3681 
  3648.500 
 -27.854  64.990  2.2980  2.1460  2.1750  75.359  10.863 -999.25 -999.25 
 -999.25 -999.25  70.255  2.1360  0.4000  0.0360 -3.8838  64.990  2.2980 
  2.1460  2.1750  2.1382  0.0350  69.277  0.3920  77.576  10.871  2.4094 
  2.1578  2.2975  2.1515  74.875  0.3715 
  3649.000 
 -27.858  65.779  2.2770  2.1360  2.1750  70.277  10.823 -999.25 -999.25 
 -999.25 -999.25  69.766  2.1450  0.4020  0.0360 -3.8885  65.779  2.2770 
  2.1360  2.1750  2.1354  0.0357  67.302  0.4000  72.311  10.839  2.4082 
  2.1475  2.2765  2.1484  72.668  0.3804 
  3649.500 
 -28.060  66.367  2.2560  2.1160  2.1750  73.467  10.763 -999.25 -999.25 
 -999.25 -999.25  69.277  2.1440  0.4000  0.0350 -4.0912  66.367  2.2560 
  2.1160  2.1750  2.1367  0.0373  67.104  0.4020  72.204  10.787  2.4062 
  2.1271  2.2554  2.1494  72.338  0.3826 
  3650.000 
 -28.064  64.386  2.2560  2.0960  2.1740  87.120  10.743 -999.25 -999.25 
 -999.25 -999.25  67.302  2.1400  0.3950  0.0350 -4.0959  64.386  2.2560 
  2.0960  2.1740  2.1370  0.0377  67.897  0.4000  81.777  10.751  2.4037 
  2.1067  2.2554  2.1494  73.111  0.3804 
  3650.500 
 -28.659  63.594  2.2140  2.0960  2.1740  87.323  10.703 -999.25 -999.25 
 -999.25 -999.25  67.104  2.1350  0.3890  0.0350 -4.6916  63.594  2.2140 
  2.0960  2.1740  2.1343  0.0363  68.095  0.3950  87.244  10.718  2.4025 
  2.1066  2.2134  2.1466  73.251  0.3747 
  3651.000 
 -28.661  63.196  2.2140  2.0760  2.1730  87.525  10.683 -999.25 -999.25 
 -999.25 -999.25  67.897  2.1360  0.3810  0.0370 -4.6943  63.196  2.2140 
  2.0760  2.1730  2.1317  0.0343  67.699  0.3890  87.448  10.691  2.4003 
  2.0862  2.2134  2.1438  72.761  0.3680 
  3651.500 
 -28.268  62.997  2.2030  2.0560  2.1730  87.528  10.723 -999.25 -999.25 
 -999.25 -999.25  68.095  2.1380  0.3830  0.0380 -4.3020  62.997  2.2030 
  2.0560  2.1730  2.1264  0.0294  67.103  0.3810  87.527  10.708  2.4010 
  2.0661  2.2024  2.1386  72.160  0.3590 
  3652.000 
 -28.565  62.898  2.1930  2.0560  2.1720  87.531  10.643 -999.25 -999.25 
 -999.25 -999.25  67.699  2.1350  0.3870  0.0370 -4.5997  62.898  2.1930 
  2.0560  2.1720  2.1178  0.0195  67.302  0.3830  87.530  10.673  2.3986 
  2.0660  2.1924  2.1298  72.295  0.3613 
  3652.500 
 -28.861  62.799  2.1920  2.0370  2.1520  88.032  10.564 -999.25 -999.25 
 -999.25 -999.25  67.103  2.1330  0.4190  0.0350 -4.8964  62.799  2.1920 
  2.0370  2.1520  2.1091  0.0134  67.699  0.3870  87.847  10.593  2.3736 
  2.0464  2.1914  2.1206  72.539  0.3657 
  3653.000 
 -28.670  62.201  2.1910  2.0360  2.1410  88.533  10.505 -999.25 -999.25 
 -999.25 -999.25  67.302  2.1290  0.4260  0.0330 -4.7062  62.201  2.1910 
  2.0360  2.1410  2.1047  0.0123  67.302  0.4190  88.350  10.527  2.3591 
  2.0451  2.1904  2.1157  71.962  0.4016 
  3653.500 
 -28.473  62.892  2.1900  2.0360  2.1310  89.134  10.583 -999.25 -999.25 
 -999.25 -999.25  67.699  2.1210  0.4230  0.0220 -4.5099  62.892  2.1900 
  2.0360  2.1310  2.1052  0.0139  67.103  0.4260  88.917  10.555  2.3492 
  2.0453  2.1894  2.1164  71.814  0.4094 
  3654.000 
 -28.276  63.583  2.1900  2.0350  2.1310  89.536  10.643 -999.25 -999.25 
 -999.25 -999.25  67.302  2.1110  0.4170  0.0140 -4.3136  63.583  2.1900 
  2.0350  2.1310  2.1092  0.0163  67.302  0.4230  89.393  10.622  2.3516 
  2.0445  2.1894  2.1208  72.178  0.4061 
  3654.500 
 -28.079  63.779  2.1900  2.0340  2.1300  90.237  10.623 -999.25 -999.25 
 -999.25 -999.25  67.103  2.1050  0.4130  0.0120 -4.1173  63.779  2.1900 
  2.0340  2.1300  2.1146  0.0173  67.897  0.4170  89.991  10.630  2.3508 
  2.0436  2.1894  2.1263  72.836  0.3994 
  3655.000 
 -28.081  63.975  2.1890  2.0340  2.1290  91.435  10.623 -999.25 -999.25 
 -999.25 -999.25  67.302  2.1040  0.4080  0.0130 -4.1200  63.975  2.1890 
  2.0340  2.1290  2.1221  0.0180  67.897  0.4130  91.019  10.623  2.3495 
  2.0435  2.1884  2.1338  72.820  0.3949 
  3655.500 
 -28.083  64.167  2.1880  2.0330  2.1280  92.435  10.543 -999.25 -999.25 
 -999.25 -999.25  67.897  2.1080  0.4030  0.0160 -4.1227  64.167  2.1880 
  2.0330  2.1280  2.1231  0.0174  67.302  0.4080  92.092  10.570  2.3464 
  2.0423  2.1874  2.1343  72.062  0.3893 
  3656.000 
 -27.890  64.955  2.1880  2.0420  2.1280  89.249  10.543 -999.25 -999.25 
 -999.25 -999.25  67.897  2.1120  0.3970  0.0170 -3.9304  64.955  2.1880 
  2.0420  2.1280  2.1164  0.0155  67.103  0.4030  90.327  10.543  2.3454 
  2.0513  2.1874  2.1275  71.787  0.3836 
