~Version Information
VERS.                     2.0: CWLS log ASCII Standard Version 2.00
WRAP.                      NO: One line per depth step
~Well Information Block
#MNEM.UNIT                               Data Type  Information
#---------                               ---------  -----------
STRT.FT                                   318.0000:
STOP.FT                                  2700.0000:
STEP.FT                                     0.5000:
NULL.                 -999.25                     :
COMP.                                             :COMPANY            
WELL.     LOS LOBOS 82X-30                        :WELL               
FLD .                                             :FIELD              
CTRY.                                             :COUNTRY            
STAT.                                             :STATE              
LOC .                                             :LOCATION           
UWI .                                             :UNIQUE WELL ID     
SRVC.                                             :Service company    
DATE.                                             :LOG DATE           
~Curve Information
#MNEM.UNIT           API CODE  Curve Description
#---------           --------  -----------------
DEPT.FT                      :   1 DEPTH
SP  .MV                      :   2
ILD .OHMM                    :   3
ILM .OHMM                    :   4
SFLU.OHMM                    :   5
CALI.IN                      :   6
GR  .GAPI                    :   7
NPHI.PU-S                    :   8
DPHI.PU-S                    :   9
DRHO.G/C3                    :  10
CALI.IN                      :  11
DT  .US/F                    :  12
SBL .MV                      :  13
RS  .OHMM                    :  14
RM  .OHMM                    :  15
RD  .OHMM                    :  16
DTS .US/F                    :  17
CALS.IN                      :  18
RHOB.G/C3                    :  19
ROBS.G/C3                    :  20
DROS.G/C3                    :  21
CALS.IN                      :  22
GRS .GAPI                    :  23
NPHS.PU-S                    :  24
SFLU.OHMM                    :  25
ILMC.OHMM                    :  26
ILDC.OHMM                    :  27
ROBC.G/C3                    :  28
GRC .GAPI                    :  29
NPHC.PU-S                    :  30
~A
# ...
  1258.500 -58.391  2.3640  2.3220  2.2140  13.513  59.899  0.4650  0.3900  0.0330  13.195  140.70 -6.8641  2.2140  2.3220  2.3640  141.85  13.178  2.0065  1.9937  0.0278  13.520  59.569  0.4650  2.5247  2.3418  2.3680  2.0217  67.819  0.4459 
  1259.000 -58.322  2.3640  2.3400  2.2040  13.548  59.378  0.4670  0.3870  0.0390  13.200  139.31 -6.7844  2.2040  2.3400  2.3640  141.28  13.184  2.0115  2.0072  0.0338  13.518  59.775  0.4670  2.5128  2.3601  2.3680  2.0351  68.049  0.4482 
  1259.500 -59.128  2.3620  2.3580  2.1750  13.592  58.857  0.4620  0.3860  0.0610  13.364  138.89 -7.5796  2.1750  2.3580  2.3620  141.01  13.192  2.0131  2.0117  0.0420  13.554  59.255  0.4620  2.4793  2.3786  2.3661  2.0398  67.516  0.4426 
  1260.000 -60.372  2.3610  2.3650  2.1430  13.580  58.177  0.4470  0.3940  0.0670  13.472  139.26 -8.8129  2.1430  2.3650  2.3610  140.45  13.196  1.9999  2.0113  0.0618  13.590  58.699  0.4470  2.4421  2.3858  2.3652  2.0396  66.940  0.4261 
  1260.500 -61.137  2.3550  2.3730  2.1110  13.579  57.497  0.4380  0.4080  0.0660  13.560  141.24 -9.5671  2.1110  2.3730  2.3550  139.23  13.229  1.9768  1.9969  0.0669  13.580  58.021  0.4380  2.4038  2.3939  2.3591  2.0251  66.151  0.4162 
  1261.000 -61.423  2.3520  2.3800  2.0900  13.695  56.934  0.4560  0.4120  0.0650  13.545  143.68 -9.8424  2.0900  2.3800  2.3520  138.95  13.383  1.9702  1.9759  0.0659  13.594  57.370  0.4560  2.3791  2.4011  2.3561  2.0042  65.430  0.4360 
  1261.500 -61.079  2.3490  2.3870  2.0970  13.977  57.568  0.4630  0.4190  0.0810  13.407  146.19 -9.4876  2.0970  2.3870  2.3490  139.60  13.487  1.9587  1.9687  0.0670  13.731  57.075  0.4630  2.3906  2.4088  2.3535  1.9976  65.303  0.4438 
  1262.000 -60.769  2.3460  2.3820  2.1230  14.231  58.202  0.4510  0.4270  0.0810  13.198  146.45 -9.1669  2.1230  2.3820  2.3460  141.65  13.557  1.9455  1.9570  0.0810  14.009  57.707  0.4510  2.4283  2.4048  2.3512  1.9871  66.450  0.4307 
  1262.500 -60.261  2.3420  2.3770  2.1460  13.829  57.363  0.4410  0.4310  0.0610  13.180  143.80 -8.6481  2.1460  2.3770  2.3420  144.10  13.522  1.9389  1.9446  0.0785  14.182  58.022  0.4410  2.4602  2.4005  2.3476  1.9755  67.074  0.4197 
  1263.000 -59.754  2.3430  2.3630  2.1680  13.483  56.524  0.4340  0.4310  0.0280  13.212  142.11 -8.1303  2.1680  2.3630  2.3430  146.23  13.373  1.9389  1.9389  0.0570  13.787  57.185  0.4340  2.4768  2.3846  2.3476  1.9680  65.515  0.4118 
  1263.500 -58.856  2.3450  2.3490  2.1550  13.324  52.064  0.4270  0.4090  0.0180  13.221  141.37 -7.2216  2.1550  2.3490  2.3450  146.02  13.195  1.9752  1.9432  0.0268  13.464  55.595  0.4270  2.4533  2.3690  2.3488  1.9708  63.210  0.4040 
  1264.000 -58.193  2.3560  2.3430  2.0920  13.300  52.696  0.4170  0.4020  0.0300  13.115  141.20 -6.5478  2.0920  2.3430  2.3560  143.53  13.185  1.9867  1.9765  0.0194  13.321  52.193  0.4170  2.3753  2.3624  2.3594  2.0035  59.139  0.3929 
  1264.500 -57.687  2.3570  2.3380  2.0700  13.292  53.251  0.4200  0.4000  0.0320  13.033  143.36 -6.0311  2.0700  2.3380  2.3570  141.99  13.213  1.9900  1.9871  0.0302  13.299  52.808  0.4200  2.3487  2.3572  2.3604  2.0140  59.803  0.3962 
  1265.000 -57.396  2.3580  2.3450  2.0490  13.297  53.806  0.4320  0.4130  0.0250  13.038  144.99 -5.7293  2.0490  2.3450  2.3580  141.34  13.205  1.9686  1.9876  0.0312  13.293  53.361  0.4320  2.3238  2.3643  2.3614  2.0144  60.420  0.4094 
  1265.500 -57.105  2.3590  2.3480  2.0610  13.303  55.034  0.4400  0.4210  0.0160  13.066  145.14 -5.4276  2.0610  2.3480  2.3590  141.53  13.103  1.9554  1.9671  0.0240  13.298  54.045  0.4400  2.3381  2.3674  2.3624  1.9940  61.202  0.4183 
  1266.000 -56.643  2.3600  2.3520  2.0730  13.323  56.262  0.4430  0.4210  0.0120  13.111  143.47 -4.9548  2.0730  2.3520  2.3600  143.60  13.034  1.9554  1.9554  0.0156  13.305  55.269  0.4430  2.3524  2.3715  2.3634  1.9823  62.600  0.4216 
  1266.500 -56.731  2.3590  2.3500  2.1410  13.343  56.973  0.4460  0.4150  0.0070  13.155  141.91 -5.0321  2.1410  2.3500  2.3590  145.01  13.042  1.9653  1.9564  0.0115  13.325  56.396  0.4460  2.4333  2.3695  2.3625  1.9834  63.907  0.4249 
  1267.000 -56.819  2.3580  2.3510  2.1910  13.392  56.612  0.4490  0.4090  0.0050  13.188  141.25 -5.1093  2.1910  2.3510  2.3580  144.90  13.072  1.9752  1.9663  0.0068  13.348  56.906  0.4490  2.4929  2.3706  2.3615  1.9934  64.521  0.4282 
  1267.500 -57.127  2.3570  2.3520  2.2020  13.442  56.251  0.4530  0.4040  0.0170  13.220  142.44 -5.4066  2.2020  2.3520  2.3570  143.25  13.117  1.9834  1.9760  0.0062  13.397  56.547  0.4530  2.5072  2.3718  2.3606  2.0033  64.189  0.4326 
  1268.000 -57.436  2.3550  2.3550  2.2010  13.505  56.208  0.4670  0.3980  0.0260  13.246  145.33 -5.7048  2.2010  2.3550  2.3550  141.82  13.159  1.9933  1.9844  0.0179  13.448  56.243  0.4670  2.5074  2.3751  2.3588  2.0120  63.923  0.4481 
  1268.500 -58.447  2.3560  2.3600  2.2000  13.569  56.165  0.4940  0.3970  0.0310  13.213  148.19 -6.7051  2.2000  2.3600  2.3560  141.41  13.192  1.9950  1.9935  0.0265  13.511  56.201  0.4940  2.5079  2.3804  2.3599  2.0213  63.970  0.4780 
  1269.000 -58.777  2.3570  2.3660  2.1710  13.664  57.670  0.4940  0.3960  0.0380  13.180  149.59 -7.0243  2.1710  2.3660  2.3570  142.81  13.223  1.9966  1.9951  0.0317  13.578  56.422  0.4940  2.4751  2.3868  2.3611  2.0233  64.324  0.4780 
  1269.500 -58.823  2.3580  2.3750  2.1500  13.711  59.574  0.4820  0.4010  0.0370  13.139  149.31 -7.0596  2.1500  2.3750  2.3580  145.69  13.242  1.9884  1.9958  0.0379  13.668  57.989  0.4820  2.4524  2.3963  2.3624  2.0244  66.251  0.4648 
  1270.000 -58.718  2.3590  2.3850  2.1250  13.675  60.049  0.4780  0.4060  0.0260  13.098  149.03 -6.9438  2.1250  2.3850  2.3590  148.36  13.209  1.9801  1.9876  0.0360  13.708  59.652  0.4780  2.4235  2.4067  2.3635  2.0164  68.214  0.4604 
  1270.500 -58.251  2.3670  2.3910  2.1170  13.562  59.170  0.4720  0.4050  0.0230  13.076  144.75 -6.4661  2.1170  2.3910  2.3670  149.56  13.175  1.9818  1.9802  0.0257  13.665  59.908  0.4720  2.4129  2.4126  2.3714  2.0088  68.439  0.4537 
  1271.000 -58.021  2.3750  2.3980  2.1160  13.448  55.666  0.4650  0.3960  0.0200  13.065  141.04 -6.2253  2.1160  2.3980  2.3750  149.28  13.134  1.9966  1.9830  0.0227  13.552  58.619  0.4650  2.4091  2.4193  2.3791  2.0111  66.788  0.4460 
  1271.500 -57.596  2.3950  2.4040  2.1500  13.381  55.822  0.4530  0.3900  0.0220  13.060  138.03 -5.7895  2.1500  2.4040  2.3950  148.54  13.095  2.0065  1.9974  0.0202  13.442  55.690  0.4530  2.4468  2.4249  2.3989  2.0250  63.285  0.4327 
  1272.000 -57.287  2.4160  2.4150  2.2200  13.313  55.977  0.4430  0.3870  0.0240  13.055  136.14 -5.4698  2.2200  2.4150  2.4160  144.34  13.075  2.0115  2.0069  0.0222  13.375  55.845  0.4430  2.5279  2.4358  2.4198  2.0341  63.360  0.4216 
  1272.500 -57.062  2.4240  2.4230  2.2120  13.287  56.212  0.4430  0.3880  0.0260  13.058  136.61 -5.2340  2.2120  2.4230  2.4240  140.71  13.064  2.0098  2.0113  0.0242  13.311  56.012  0.4430  2.5168  2.4437  2.4276  2.0383  63.450  0.4216 
  1273.000 -57.228  2.4310  2.4310  2.1860  13.261  56.367  0.4470  0.3940  0.0220  13.061  139.09 -5.3893  2.1860  2.4310  2.4310  137.83  13.059  1.9999  2.0090  0.0257  13.285  56.234  0.4470  2.4854  2.4517  2.4346  2.0358  63.662  0.4260 
  1273.500 -57.395  2.4460  2.4390  2.1870  13.249  56.404  0.4590  0.3950  0.0170  13.062  140.85 -5.5455  2.1870  2.4390  2.4460  136.19  13.055  1.9983  1.9998  0.0216  13.260  56.372  0.4590  2.4859  2.4597  2.4495  2.0265  63.779  0.4392 
  1274.000 -57.410  2.4600  2.4470  2.1890  13.236  56.442  0.4630  0.3830  0.0210  13.063  140.51 -5.5498  2.1890  2.4470  2.4600  136.86  13.058  2.0181  1.9997  0.0173  13.248  56.409  0.4630  2.4880  2.4678  2.4635  2.0263  63.803  0.4436 
  1274.500 -57.343  2.4700  2.4610  2.2000  13.224  56.636  0.4600  0.3790  0.0240  12.996  138.48 -5.4720  2.2000  2.4610  2.4700  139.26  13.061  2.0247  2.0185  0.0212  13.235  56.468  0.4600  2.5006  2.4820  2.4735  2.0451  63.849  0.4403 
