~Version Information
VERS.                     2.0: CWLS log ASCII Standard Version 2.00
WRAP.                     YES: Multiple lines per depth step
~Well Information Block
#MNEM.UNIT                               Data Type  Information
#---------                               ---------  -----------
STRT.FT                                   805.0000:
STOP.FT                                  5010.0000:
STEP.FT                                     0.5000:
NULL.                 -999.25                     :
COMP.                                             :COMPANY            
WELL.     SANTIAGO C 55-28                        :WELL               
FLD .                                             :FIELD              
CTRY.                                             :COUNTRY            
STAT.                                             :STATE              
LOC .                                             :LOCATION           
UWI .                                             :UNIQUE WELL ID     
SRVC.                                             :Service company    
DATE.                                             :LOG DATE           
~Curve Information
#MNEM.UNIT           API CODE  Curve Description
#---------           --------  -----------------
DEPT.FT                      :   1 DEPTH
CALI.IN                      :   2
GR  .GAPI                    :   3
NPHI.PU-S                    :   4
DPHI.PU-S                    :   5
DRHO.G/C3                    :   6
SP  .MV                      :   7
ILD .OHMM                    :   8
ILM .OHMM                    :   9
SFLU.OHMM                    :  10
LLD .OHMM                    :  11
LLS .OHMM                    :  12
MSFL.OHMM                    :  13
DT  .US/F                    :  14
SPHI.                        :  15
KSCI.                        :  16
PSCI.                        :  17
OSCI.                        :  18
WSCI.                        :  19
KWCI.                        :  20
PWCI.                        :  21
OWCI.                        :  22
WWCI.                        :  23
SBL .MV                      :  24
RS  .OHMM                    :  25
RM  .OHMM                    :  26
RD  .OHMM                    :  27
DTS .US/F                    :  28
RHOB.G/C3                    :  29
ROBS.G/C3                    :  30
DROS.G/C3                    :  31
CALS.IN                      :  32
GRS .GAPI                    :  33
NPHS.PU-S                    :  34
SFLU.OHMM                    :  35
ILMC.OHMM                    :  36
ILDC.OHMM                    :  37
ROBC.G/C3                    :  38
GRC .GAPI                    :  39
NPHC.PU-S                    :  40
~A
# ...
  2989.000 
  19.423  61.515  0.5160  0.3480  0.0000 -23.609  1.8640  1.9190  1.9550 
 -999.25 -999.25 -999.25  131.05 -999.25 -999.25 -999.25 -999.25 -999.25 
 -999.25 -999.25 -999.25 -999.25 -8.9696  1.9550  1.9190  1.8640  131.33 
  2.0758  2.1014  0.0132  15.807  62.667  0.4949  1.9550  1.9190  1.8640 
  2.1383  76.285  0.4851 
  2989.500 
  17.911  63.270  0.5170  0.3320  0.0060 -23.597  1.8390  1.8870  1.9110 
 -999.25 -999.25 -999.25  131.95 -999.25 -999.25 -999.25 -999.25 -999.25 
 -999.25 -999.25 -999.25 -999.25 -8.9624  1.9110  1.8870  1.8390  131.17 
  2.1022  2.0870  0.0135  15.465  60.661  0.4877  1.9110  1.8870  1.8390 
  2.1227  73.348  0.4769 
  2990.000 
  15.873  62.469  0.4980  0.3310  0.0130 -23.546  1.8270  1.8680  1.8750 
 -999.25 -999.25 -999.25  131.82 -999.25 -999.25 -999.25 -999.25 -999.25 
 -999.25 -999.25 -999.25 -999.25 -8.9162  1.8750  1.8680  1.8270  131.93 
  2.1039  2.0714  0.0103  15.476  57.549  0.4899  1.8750  1.8680  1.8270 
  2.1072  69.600  0.4794 
  2990.500 
  15.463  59.113  0.4890  0.3400  0.0140 -23.510  1.8240  1.8340  1.8780 
 -999.25 -999.25 -999.25  128.51 -999.25 -999.25 -999.25 -999.25 -999.25 
 -999.25 -999.25 -999.25 -999.25 -8.8850  1.8780  1.8340  1.8240  131.28 
  2.0890  2.0386  0.0049  15.743  55.009  0.5041  1.8780  1.8340  1.8240 
  2.0753  66.881  0.4953 
  2991.000 
  15.473  56.118  0.4850  0.3480  0.0110 -23.554  1.8300  1.8130  1.8920 
 -999.25 -999.25 -999.25  127.48 -999.25 -999.25 -999.25 -999.25 -999.25 
 -999.25 -999.25 -999.25 -999.25 -8.9338  1.8920  1.8130  1.8300  128.33 
  2.0758  1.9793 -0.0032  17.377  53.517  0.5154  1.8920  1.8130  1.8300 
  2.0202  67.028  0.5084 
  2991.500 
  15.491  53.891  0.5000  0.3660  0.0060 -23.558  1.8300  1.7930  1.8950 
 -999.25 -999.25 -999.25  128.00 -999.25 -999.25 -999.25 -999.25 -999.25 
 -999.25 -999.25 -999.25 -999.25 -8.9426  1.8950  1.7930  1.8300  127.58 
  2.0461  1.8849 -0.0116  18.195  53.792  0.5213  1.8950  1.7930  1.8300 
  1.9273  68.278  0.5152 
  2992.000 
  17.272  52.913  0.5130  0.3980 -0.0020 -23.522  1.8260  1.7830  1.8910 
 -999.25 -999.25 -999.25  130.68 -999.25 -999.25 -999.25 -999.25 -999.25 
 -999.25 -999.25 -999.25 -999.25 -8.9114  1.8910  1.7830  1.8260  128.55 
  1.9933  1.8505 -0.0165  19.314  55.763  0.5150  1.8910  1.7830  1.8260 
  1.8942  71.980  0.5085 
  2992.500 
  18.051  54.550  0.5210  0.4610 -0.0110 -23.526  1.8120  1.7760  1.8840 
 -999.25 -999.25 -999.25  145.23 -999.25 -999.25 -999.25 -999.25 -999.25 
 -999.25 -999.25 -999.25 -999.25 -8.9202  1.8840  1.7760  1.8120  133.88 
  1.8894  1.8180 -0.0201  20.366  57.878  0.4924  1.8840  1.7760  1.8120 
  1.8622  75.799  0.4835 
  2993.000 
  19.174  57.017  0.5220  0.4820 -0.0160 -23.451  1.7990  1.7760  1.8520 
 -999.25 -999.25 -999.25  148.92 -999.25 -999.25 -999.25 -999.25 -999.25 
 -999.25 -999.25 -999.25 -999.25 -8.8500  1.8520  1.7760  1.7990  146.10 
  1.8547  1.8017 -0.0211  20.698  59.060  0.4782  1.8520  1.7760  1.7990 
  1.8459  77.682  0.4677 
  2993.500 
  20.326  58.833  0.4970  0.5030 -0.0200 -23.534  1.8220  1.7950  1.8390 
 -999.25 -999.25 -999.25  145.32 -999.25 -999.25 -999.25 -999.25 -999.25 
 -999.25 -999.25 -999.25 -999.25 -8.9378  1.8390  1.7950  1.8220  148.02 
  1.8201  1.8046 -0.0217  20.821  57.615  0.4777  1.8390  1.7950  1.8220 
  1.8488  75.902  0.4672 
  2994.000 
  20.672  59.757  0.4800  0.5140 -0.0210 -23.617  1.8520  1.8420  1.8480 
 -999.25 -999.25 -999.25  138.67 -999.25 -999.25 -999.25 -999.25 -999.25 
 -999.25 -999.25 -999.25 -999.25 -9.0257  1.8480  1.8420  1.8520  143.56 
  1.8019  1.8472 -0.0185  19.833  53.837  0.5035  1.8480  1.8420  1.8520 
  1.8913  70.002  0.4958 
  2994.500 
  20.916  55.151  0.4730  0.5150 -0.0220 -23.542  1.9390  1.8930  1.9100 
 -999.25 -999.25 -999.25  136.54 -999.25 -999.25 -999.25 -999.25 -999.25 
 -999.25 -999.25 -999.25 -999.25 -8.9555  1.9100  1.8930  1.9390  138.07 
  1.8003  1.8922 -0.0130  18.333  51.550  0.5435  1.9100  1.8930  1.9390 
  1.9349  65.575  0.5401 
  2995.000 
  19.975  52.271  0.4920  0.4890 -0.0190 -23.506  1.9930  1.9630  1.9930 
 -999.25 -999.25 -999.25  135.19 -999.25 -999.25 -999.25 -999.25 -999.25 
 -999.25 -999.25 -999.25 -999.25 -8.9243  1.9930  1.9630  1.9930  136.14 
  1.8432  1.9630 -0.0024  16.873  50.709  0.5494  1.9930  1.9630  1.9930 
  2.0028  62.962  0.5463 
  2995.500 
  18.464  50.580  0.5410  0.4630 -0.0140 -23.510  2.0480  2.0180  2.0820 
 -999.25 -999.25 -999.25  135.13 -999.25 -999.25 -999.25 -999.25 -999.25 
 -999.25 -999.25 -999.25 -999.25 -8.9331  2.0820  2.0180  2.0480  135.17 
  1.8861  2.0333  0.0056  15.796  51.417  0.5353  2.0820  2.0180  2.0480 
  2.0701  62.578  0.5303 
  2996.000 
  16.965  50.791  0.5520  0.4200 -0.0030 -23.435  2.0740  2.0510  2.0820 
 -999.25 -999.25 -999.25  138.57 -999.25 -999.25 -999.25 -999.25 -999.25 
 -999.25 -999.25 -999.25 -999.25 -8.8629  2.0820  2.0510  2.0740  136.25 
  1.9570  2.0600  0.0132  15.525  53.217  0.5157  2.0820  2.0510  2.0740 
  2.0959  64.425  0.5082 
  2996.500 
  15.822  52.130  0.5400  0.3750  0.0050 -23.360  2.0930  2.0660  2.0700 
 -999.25 -999.25 -999.25  142.40 -999.25 -999.25 -999.25 -999.25 -999.25 
 -999.25 -999.25 -999.25 -999.25 -8.7927  2.0700  2.0660  2.0930  139.86 
  2.0312  2.0693  0.0159  16.393  56.137  0.5098  2.0700  2.0660  2.0930 
  2.1079  69.099  0.5019 
  2997.000 
  15.467  54.540  0.5170  0.3580  0.0130 -23.403  2.1080  2.0810  2.1470 
 -999.25 -999.25 -999.25  143.24 -999.25 -999.25 -999.25 -999.25 -999.25 
 -999.25 -999.25 -999.25 -999.25 -8.8405  2.1470  2.0810  2.1080  142.69 
  2.0593  2.0707  0.0137  17.321  59.807  0.5092  2.1470  2.0810  2.1080 
  2.1115  74.836  0.5015 
  2997.500 
  16.337  58.256  0.5100  0.3520  0.0160 -23.605  2.1120  2.0850  2.2190 
 -999.25 -999.25 -999.25  140.55 -999.25 -999.25 -999.25 -999.25 -999.25 
 -999.25 -999.25 -999.25 -999.25 -9.0473  2.2190  2.0850  2.1120  142.25 
  2.0692  2.0686  0.0091  18.192  63.159  0.5086  2.2190  2.0850  2.1120 
  2.1111  80.163  0.5010 
  2998.000 
  17.274  61.975  0.5090  0.3510  0.0140 -23.688  2.0920  2.0730  2.2520 
 -999.25 -999.25 -999.25  137.01 -999.25 -999.25 -999.25 -999.25 -999.25 
 -999.25 -999.25 -999.25 -999.25 -9.1351  2.2520  2.0730  2.0920  139.19 
  2.0709  2.0917  0.0114  18.837  65.828  0.4981  2.2520  2.0730  2.0920 
  2.1350  84.382  0.4894 
  2998.500 
  18.160  64.859  0.5100  0.3530  0.0090 -23.811  2.0760  2.0530  2.1660 
 -999.25 -999.25 -999.25  132.19 -999.25 -999.25 -999.25 -999.25 -999.25 
 -999.25 -999.25 -999.25 -999.25 -9.2629  2.1660  2.0530  2.0760  135.09 
  2.0676  2.1180  0.0220  18.643  67.974  0.4722  2.1660  2.0530  2.0760 
  2.1611  86.878  0.4604 
  2999.000 
  18.844  67.269  0.5010  0.3390  0.0110 -23.854  2.0490  2.0490  2.0800 
 -999.25 -999.25 -999.25  125.60 -999.25 -999.25 -999.25 -999.25 -999.25 
 -999.25 -999.25 -999.25 -999.25 -9.3107  2.0800  2.0490  2.0490  129.47 
  2.0907  2.1469  0.0221  17.914  67.922  0.4144  2.0800  2.0490  2.0490 
  2.1889  85.829  0.3957 
  2999.500 
  18.667  69.203  0.4810  0.3230  0.0220 -23.740  2.0230  2.0340  2.0380 
 -999.25 -999.25 -999.25  124.83 -999.25 -999.25 -999.25 -999.25 -999.25 
 -999.25 -999.25 -999.25 -999.25 -9.2015  2.0380  2.0340  2.0230  125.27 
  2.1171  2.1535  0.0269  16.880  65.343  0.4031  2.0380  2.0340  2.0230 
  2.1933  81.141  0.3828 
  3000.000 
  17.942  65.858  0.4160  0.3050  0.0220 -23.761  2.0150  2.0220  2.0220 
  2.3210  1.7960  2.6070  127.96 -999.25 -999.25 -999.25 -999.25 -999.25 
 -999.25 -999.25 -999.25 -999.25 -9.2273  2.0220  2.0220  2.0150  126.22 
  2.1467  2.1601  0.0220  16.510  64.768  0.4058  2.0220  2.0220  2.0150 
  2.1990  79.894  0.3858 
  3000.500 
  16.887  64.464  0.4030  0.3010  0.0270 -23.602 -999.25 -999.25 -999.25 
  2.3010  1.7610  2.7070  133.76 -999.25 -999.25 -999.25 -999.25 -999.25 
 -999.25 -999.25 -999.25 -999.25 -9.0732  2.7070  1.7610  2.3010  130.62 
  2.1534  2.1716  0.0180  16.643  65.677  0.4233  2.7070  1.7610  2.3010 
  2.1716  65.677  0.4233 
