~Version Information
VERS.                     2.0: CWLS log ASCII Standard Version 2.00
WRAP.                      NO: One line per depth step
~Well Information Block
#MNEM.UNIT                               Data Type  Information
#---------                               ---------  -----------
STRT.FT                                   318.0000:
STOP.FT                                  2700.0000:
STEP.FT                                     0.5000:
NULL.                 -999.25                     :
COMP.                                             :COMPANY            
WELL.     LOS LOBOS 82X-30                        :WELL               
FLD .                                             :FIELD              
CTRY.                                             :COUNTRY            
STAT.                                             :STATE              
LOC .                                             :LOCATION           
UWI .                                             :UNIQUE WELL ID     
SRVC.                                             :Service company    
DATE.                                             :LOG DATE           
~Curve Information
#MNEM.UNIT           API CODE  Curve Description
#---------           --------  -----------------
DEPT.FT                      :   1 DEPTH
SP  .MV                      :   2
ILD .OHMM                    :   3
ILM .OHMM                    :   4
SFLU.OHMM                    :   5
CALI.IN                      :   6
GR  .GAPI                    :   7
NPHI.PU-S                    :   8
DPHI.PU-S                    :   9
DRHO.G/C3                    :  10
CALI.IN                      :  11
DT  .US/F                    :  12
SBL .MV                      :  13
RS  .OHMM                    :  14
RM  .OHMM                    :  15
RD  .OHMM                    :  16
DTS .US/F                    :  17
CALS.IN                      :  18
RHOB.G/C3                    :  19
ROBS.G/C3                    :  20
DROS.G/C3                    :  21
CALS.IN                      :  22
GRS .GAPI                    :  23
NPHS.PU-S                    :  24
SFLU.OHMM                    :  25
ILMC.OHMM                    :  26
ILDC.OHMM                    :  27
ROBC.G/C3                    :  28
GRC .GAPI                    :  29
NPHC.PU-S                    :  30
~A
# ...
   483.000 -57.442  10.583  10.036  6.6430  13.186  92.047  0.3620  0.2980  0.0490  12.934  162.19 -15.442  6.6430  10.036  10.583  161.15  12.932  2.1583  2.1597  0.0477  13.105  90.191  0.4100  7.7257  10.385  10.641  2.1856  101.66  0.3851 
   483.500 -57.537  11.011  10.596  6.7260  12.995  94.737  0.4040  0.2960  0.0460  12.925  158.40 -15.537  6.7260  10.596  11.011  160.56  12.923  2.1616  2.1679  0.0502  12.936  93.578  0.4038  7.7951  10.971  11.065  2.1929  105.03  0.3781 
   484.000 -57.711  11.334  11.228  7.6970  12.856  97.902  0.4120  0.2870  0.0560  12.917  166.38 -15.711  7.6970  11.228  11.334  169.05  12.922  2.1765  2.1792  0.0573  12.871  96.549  0.3838  8.9244  11.644  11.387  2.2040  108.19  0.3561 
   484.500 -57.963  11.665  11.876  9.3590  12.892  97.660  0.4010  0.2830  0.0590  12.934  176.41 -15.963  9.3590  11.876  11.665  178.21  12.938  2.1831  2.1817  0.0573  12.954  97.763  0.3564  10.901  12.351  11.726  2.2069  109.78  0.3258 
   485.000 -58.494  12.493  12.585  11.152  13.042  92.821  0.3780  0.2850  0.0550  12.951  183.27 -16.494  11.152  12.585  12.493  185.79  12.957  2.1798  2.1791  0.0534  13.102  94.857  0.3334  13.068  13.138  12.574  2.2050  106.91  0.2976 
   485.500 -58.881  12.644  12.706  13.167  13.188  90.837  0.3490  0.2860  0.0510  12.974  193.04 -16.881  13.167  12.706  12.644  194.08  12.980  2.1781  2.2003  0.0490  13.186  91.665  0.3228  15.497  13.280  12.734  2.2267  103.52  0.2863 
   486.000 -59.269  12.638  12.828  13.852  13.184  88.853  0.3280  0.2530  0.0460  12.998  197.14 -17.269  13.852  12.828  12.638  195.14  12.997  2.2326  2.2620  0.0553  13.162  89.674  0.3188  16.304  13.410  12.726  2.2882  101.21  0.2820 
   486.500 -59.582  12.284  12.468  14.201  13.129  86.232  0.3210  0.2090  0.0690  12.993  189.13 -17.582  14.201  12.468  12.284  189.16  12.989  2.3052  2.3171  0.0790  13.129  87.308  0.3291  16.705  13.014  12.364  2.3431  98.463  0.2930 
   487.000 -59.894  12.009  12.078  14.060  13.128  84.087  0.3180  0.1910  0.0940  12.976  189.25 -17.894  14.060  12.078  12.009  188.91  12.979  2.3349  2.3210  0.0992  13.221  84.960  0.3448  16.578  12.600  12.092  2.3475  96.034  0.3132 
   487.500 -60.037  11.937  11.255  13.621  13.362  82.023  0.3330  0.2120  0.1070  12.988  187.82 -18.037  13.621  11.255  11.937  185.69  12.998  2.3002  2.2734  0.1058  13.462  82.856  0.3579  16.155  11.730  12.036  2.3011  94.201  0.3276 
   488.000 -60.013  11.904  11.104  12.464  13.615  77.818  0.3490  0.2530  0.1040  13.031  178.79 -18.013  12.464  11.104  11.904  177.27  13.041  2.2326  2.2196  0.0973  13.675  79.502  0.3662  14.843  11.587  12.016  2.2482  90.845  0.3369 
   488.500 -59.964  11.888  11.365  11.533  13.769  74.009  0.3610  0.2730  0.0870  13.074  172.21 -17.964  11.533  11.365  11.888  167.74  13.071  2.1996  2.1886  0.0819  13.760  75.521  0.3636  13.745  11.880  12.006  2.2176  86.467  0.3341 
   489.000 -59.914  11.872  11.484  10.880  13.745  71.707  0.3680  0.2900  0.0740  13.062  152.55 -17.914  10.880  11.484  11.872  152.34  13.059  2.1715  2.1747  0.0721  13.615  72.613  0.3554  12.908  11.995  11.980  2.2030  82.855  0.3250 
   489.500 -59.544  11.709  11.392  10.264  13.408  72.575  0.3620  0.2850  0.0690  13.049  151.60 -17.544  10.264  11.392  11.709  151.40  13.045  2.1798  2.1848  0.0671  13.305  72.236  0.3508  12.073  11.863  11.794  2.2117  81.817  0.3198 
   490.000 -59.240  11.383  11.302  9.5270  13.139  74.314  0.3530  0.2770  0.0640  13.033  150.66 -17.240  9.5270  11.302  11.383  151.45  13.029  2.1930  2.1955  0.0629  13.169  73.641  0.3500  11.157  11.752  11.455  2.2217  83.132  0.3189 
   490.500 -58.744  11.067  10.906  9.3760  13.218  73.835  0.3500  0.2730  0.0610  13.016  154.35 -16.744  9.3760  10.906  11.067  154.90  13.012  2.1996  2.1977  0.0591  13.245  74.019  0.3536  10.998  11.332  11.139  2.2243  83.714  0.3229 
   491.000 -58.755  10.719  10.564  9.2260  13.289  72.999  0.3500  0.2760  0.0560  12.999  156.99 -16.755  9.2260  10.564  10.719  157.39  12.997  2.1946  2.1921  0.0545  13.311  73.317  0.3798  10.836  10.969  10.790  2.2191  83.053  0.3518 
   491.500 -59.126  10.498  10.064  9.0320  13.348  72.163  0.3550  0.2800  0.0520  12.987  158.91 -17.126  9.0320  10.064  10.498  158.04  12.984  2.1880  2.1764  0.0498  13.310  72.478  0.4035  10.604  10.430  10.566  2.2033  82.101  0.3780 
   492.000 -59.654  10.502  9.9660  8.9760  13.245  75.881  0.3890  0.2990  0.0460  12.974  154.63 -17.654  8.9760  9.9660  10.502  153.79  12.972  2.1567  2.1651  0.0471  13.198  74.492  0.4090  10.510  10.317  10.564  2.1915  84.154  0.3840 
   492.500 -60.181  10.506  10.124  9.0040  13.118  78.887  0.4090  0.2850  0.0490  12.963  150.35 -18.181  9.0040  10.124  10.506  149.53  12.961  2.1798  2.1864  0.0497  13.098  77.774  0.3989  10.518  10.478  10.563  2.2123  87.645  0.3728 
   493.000 -60.750  10.285  10.136  9.2650  13.062  78.328  0.4090  0.2740  0.0510  12.953  146.08 -18.750  9.2650  10.136  10.285  145.07  12.971  2.1979  2.2009  0.0506  13.045  78.533  0.3791  10.814  10.487  10.337  2.2265  88.384  0.3510 
   493.500 -61.319  10.054  10.074  9.8000  13.014  74.123  0.3950  0.2690  0.0500  13.048  140.77 -19.319  9.8000  10.074  10.054  140.74  13.063  2.2062  2.2032  0.0493  13.061  75.651  0.3636  11.452  10.422  10.105  2.2289  85.175  0.3339 
   494.000 -62.096  10.065  10.065  10.103  13.145  73.803  0.3730  0.2740  0.0480  13.129  140.61 -20.096  10.103  10.065  10.065  143.00  13.144  2.1979  2.1885  0.0562  13.230  73.918  0.3578  11.860  10.425  10.124  2.2151  83.571  0.3276 
   494.500 -62.588  10.189  10.151  10.321  13.386  75.461  0.3600  0.2900  0.0710  13.210  153.83 -20.588  10.321  10.151  10.189  154.04  13.212  2.1715  2.1640  0.0773  13.446  74.870  0.3592  12.183  10.535  10.260  2.1915  85.088  0.3291 
   495.000 -62.915  10.294  10.257  10.333  13.557  75.061  0.3570  0.3030  0.0890  13.223  154.99 -20.915  10.333  10.257  10.294  154.53  13.225  2.1501  2.1443  0.0942  13.611  75.202  0.3815  12.247  10.662  10.375  2.1726  85.801  0.3538 
   495.500 -63.128  10.365  10.345  10.420  13.711  73.631  0.3600  0.3130  0.1040  13.237  152.33 -21.128  10.420  10.345  10.365  152.97  13.213  2.1336  2.1244  0.1040  13.708  74.131  0.3979  12.381  10.765  10.452  2.1532  84.773  0.3719 
   496.000 -62.827  10.436  10.490  10.721  13.703  71.882  0.3900  0.3290  0.1040  13.092  156.15 -20.827  10.721  10.490  10.436  157.75  13.074  2.1072  2.1015  0.0920  13.622  72.488  0.4031  12.718  10.915  10.520  2.1299  82.726  0.3777 
   496.500 -62.445  10.522  10.522  10.915  13.465  73.225  0.4010  0.3390  0.0690  12.984  165.94 -20.445  10.915  10.522  10.522  164.68  12.980  2.0907  2.1041  0.0612  13.359  72.764  0.3905  12.868  10.927  10.593  2.1312  82.522  0.3636 
   497.000 -62.063  10.379  10.417  11.272  13.152  80.034  0.4040  0.3150  0.0460  12.956  157.96 -20.063  11.272  10.417  10.379  156.73  12.961  2.1303  2.1535  0.0487  13.093  77.720  0.3715  13.207  10.792  10.435  2.1794  87.574  0.3426 
   497.500 -61.561  10.073  10.146  11.368  12.977  82.488  0.3850  0.2730  0.0540  12.991  149.98 -19.561  11.368  10.146  10.073  149.84  12.993  2.1996  2.2171  0.0610  12.997  81.662  0.3582  13.289  10.494  10.121  2.2425  91.796  0.3279 
   498.000 -61.060  10.140  10.103  11.297  13.036  86.127  0.3660  0.2410  0.0750  13.004  149.01 -19.060  11.297  10.103  10.140  149.58  13.006  2.2524  2.2529  0.0763  13.056  84.915  0.3543  13.225  10.453  10.191  2.2786  95.592  0.3236 
   498.500 -59.741  10.318  10.151  11.044  13.096  87.075  0.3550  0.2400  0.0790  13.018  152.91 -17.741  11.044  10.151  10.318  155.19  13.021  2.2540  2.2492  0.0800  13.137  86.762  0.3611  12.951  10.510  10.375  2.2752  97.868  0.3311 
   499.000 -59.276  10.352  10.071  10.504  13.222  84.771  0.3540  0.2490  0.0820  13.039  169.08 -17.276  10.504  10.071  10.352  170.36  13.042  2.2392  2.2290  0.0820  13.240  85.523  0.3781  12.340  10.433  10.415  2.2556  96.714  0.3499 
