~Version Information
VERS.                     2.0: CWLS log ASCII Standard Version 2.00
WRAP.                     YES: Multiple lines per depth step
~Well Information Block
#MNEM.UNIT                               Data Type  Information
#---------                               ---------  -----------
STRT.FT                                   100.0000:
STOP.FT                                  3000.0000:
STEP.FT                                     0.5000:
NULL.                 -999.25                     :
COMP.                                             :COMPANY            
WELL.     LOS LOBOS 51X-30                        :WELL               
FLD .                                             :FIELD              
CTRY.                                             :COUNTRY            
STAT.                                             :STATE              
LOC .                                             :LOCATION           
UWI .                                             :UNIQUE WELL ID     
SRVC.                                             :Service company    
DATE.                                             :LOG DATE           
~Curve Information
#MNEM.UNIT           API CODE  Curve Description
#---------           --------  -----------------
DEPT.FT                      :   1 DEPTH
GR  .GAPI                    :   2
CALI.IN                      :   3
DPHI.PU-S                    :   4
NPHI.PU-S                    :   5
DRHO.G/C3                    :   6
DT  .US/F                    :   7
ROP .                        :   8
GAS .                        :   9
CGAS.                        :  10
C1R .                        :  11
C2R .                        :  12
C3R .                        :  13
SP  .MV                      :  14
ILD .OHMM                    :  15
ILM .OHMM                    :  16
SFLU.OHMM                    :  17
GRS .GAPI                    :  18
CALS.IN                      :  19
ROBS.G/C3                    :  20
NPHS.PU-S                    :  21
DROS.G/C3                    :  22
DTS .US/F                    :  23
SBL .MV                      :  24
 RD .OHMM                    :  25
RM  .OHMM                    :  26
RS  .OHMM                    :  27
SFLU.OHMM                    :  28
ILMC.OHMM                    :  29
ILDC.OHMM                    :  30
ROBC.G/C3                    :  31
GRC .GAPI                    :  32
NPHC.PU-S                    :  33
~A
# ...
  2536.000 
  147.47  6.7580  0.5350  0.5410 -0.0040  131.16  73.961  6.3056  14.194 
  3.9456 -999.25 -999.25 -999.25  1.6480  1.7000 -999.25  161.70  6.7846 
  1.7881  0.5651 -0.0021  134.08 -999.25  1.6480  1.7000 -999.25 -999.25 
  1.7000  1.6480  1.7881  149.19  0.5644 
  2536.500 
  134.47  6.7620  0.5410  0.5320 -0.0080  132.64  73.849  6.3096  14.199 
  3.9477 -999.25 -999.25 -999.25  1.6250  1.6370 -999.25  153.79  6.7688 
  1.7806  0.5733 -0.0031  132.65 -999.25  1.6250  1.6370 -999.25 -999.25 
  1.6370  1.6250  1.7806  141.79  0.5735 
  2537.000 
  138.51  6.7620  0.5420  0.5220 -0.0120  135.04  73.746  6.3166  14.127 
  3.9498 -999.25 -999.25 -999.25  1.5970  1.5540 -999.25  145.88  6.7585 
  1.7660  0.5399 -0.0045  131.44 -999.25  1.5970  1.5540 -999.25 -999.25 
  1.5540  1.5970  1.7660  134.44  0.5361 
  2537.500 
  147.86  6.7660  0.5430  0.5080 -0.0120  137.79  118.62  6.5036  14.070 
  3.9519 -999.25 -999.25 -999.25  1.5550  1.4910 -999.25  135.04  6.7620 
  1.7571  0.5306 -0.0086  132.33 -999.25  1.5550  1.4910 -999.25 -999.25 
  1.4910  1.5550  1.7571  124.47  0.5257 
  2538.000 
  158.64  6.7930  0.5410  0.5430 -0.0120  139.46  118.37  6.6875  13.979 
  3.9540 -999.25 -999.25 -999.25  1.4950  1.4100 -999.25  140.00  6.7626 
  1.7554  0.5198 -0.0120  134.62 -999.25  1.4950  1.4100 -999.25 -999.25 
  1.4100  1.4950  1.7554  129.04  0.5136 
  2538.500 
  165.69  6.8450  0.5400  0.5570 -0.0110  141.03  118.11  6.8612  13.876 
  3.9561 -999.25 -999.25 -999.25  1.4240  1.3680 -999.25  149.77  6.7708 
  1.7546  0.5142 -0.0120  137.40 -999.25  1.4240  1.3680 -999.25 -999.25 
  1.3680  1.4240  1.7546  138.10  0.5074 
  2539.000 
  161.64  6.8720  0.5400  0.5640 -0.0110  141.67  117.86  7.0190  13.792 
  3.9582 -999.25 -999.25 -999.25  1.3690  1.3270 -999.25  160.02  6.8032 
  1.7577  0.5457 -0.0118  139.28 -999.25  1.3690  1.3270 -999.25 -999.25 
  1.3270  1.3690  1.7577  147.76  0.5427 
  2539.500 
  159.42  6.8880  0.5400  0.5700 -0.0110  141.70  117.60  7.0764  13.722 
  3.9603 -999.25 -999.25 -999.25  1.3260  1.3070 -999.25  164.82  6.8508 
  1.7590  0.5585 -0.0110  140.92 -999.25  1.3260  1.3070 -999.25 -999.25 
  1.3070  1.3260  1.7590  152.52  0.5571 
  2540.000 
  158.79  6.9040  0.5400  0.5470 -0.0110  141.21  117.34  7.1320  13.660 
  3.9625 -999.25 -999.25 -999.25  1.2770  1.2800 -999.25  161.13  6.8757 
  1.7590  0.5654 -0.0110  141.65 -999.25  1.2770  1.2800 -999.25 -999.25 
  1.2800  1.2770  1.7590  149.26  0.5648 
  2540.500 
  156.17  6.9120  0.5390  0.5410 -0.0080  140.54  101.08  7.2503  13.608 
  3.9646 -999.25 -999.25 -999.25  1.2480  1.2650 -999.25  159.26  6.8920 
  1.7590  0.5642 -0.0110  141.70 -999.25  1.2480  1.2650 -999.25 -999.25 
  1.2650  1.2480  1.7590  147.65  0.5635 
  2541.000 
  149.51  6.9000  0.5470  0.5350 -0.0050  141.79  101.02  7.1489  13.556 
  3.9667 -999.25 -999.25 -999.25  1.2200  1.2380 -999.25  158.08  6.9062 
  1.7594  0.5454 -0.0102  141.19 -999.25  1.2200  1.2380 -999.25 -999.25 
  1.2380  1.2200  1.7594  146.64  0.5424 
  2541.500 
  141.35  6.8680  0.5500  0.5120 -0.0010  143.11  100.96  7.0436  13.521 
  3.9688 -999.25 -999.25 -999.25  1.2040  1.2170 -999.25  154.26  6.9085 
  1.7568  0.5393 -0.0071  140.62 -999.25  1.2040  1.2170 -999.25 -999.25 
  1.2170  1.2040  1.7568  143.11  0.5355 
  2542.000 
  140.72  6.8520  0.5530  0.5460  0.0030  142.40  100.91  6.9170  13.493 
  3.9709 -999.25 -999.25 -999.25  1.1830  1.1960 -999.25  147.01  6.8902 
  1.7459  0.5280 -0.0038  141.92 -999.25  1.1830  1.1960 -999.25 -999.25 
  1.1960  1.1830  1.7459  136.28  0.5228 
  2542.500 
  138.42  6.8320  0.5510  0.5790  0.0050  142.34  100.85  6.7961  13.477 
  3.9730 -999.25 -999.25 -999.25  1.1690  1.1920 -999.25  141.14  6.8628 
  1.7409  0.5230  0.0003  143.01 -999.25  1.1690  1.1920 -999.25 -999.25 
  1.1920  1.1690  1.7409  130.68  0.5173 
  2543.000 
  131.13  6.8040  0.5550  0.5870  0.0030  141.26  100.80  6.8034  13.586 
  3.9751 -999.25 -999.25 -999.25  1.1630  1.1800 -999.25  139.93  6.8451 
  1.7387  0.5573  0.0037  142.39 -999.25  1.1630  1.1800 -999.25 -999.25 
  1.1800  1.1630  1.7387  129.45  0.5557 
  2543.500 
  120.66  6.7960  0.5560  0.5620 -0.0010  139.79  100.74  6.8104  13.667 
  3.9772 -999.25 -999.25 -999.25  1.1620  1.1750 -999.25  135.78  6.8219 
  1.7385  0.5819  0.0043  142.12 -999.25  1.1620  1.1750 -999.25 -999.25 
  1.1750  1.1620  1.7385  125.48  0.5833 
  2544.000 
  114.72  6.8040  0.5550  0.5380 -0.0060  138.53  100.68  6.8150  13.779 
  3.9793 -999.25 -999.25 -999.25  1.1630  1.1720 -999.25  127.15  6.8010 
  1.7336  0.5775  0.0015  140.91 -999.25  1.1630  1.1720 -999.25 -999.25 
  1.1720  1.1630  1.7336  117.40  0.5783 
  2544.500 
  110.60  6.8120  0.5520  0.5100 -0.0070  137.17  100.63  6.7444  13.891 
  3.9814 -999.25 -999.25 -999.25  1.1680  1.1640 -999.25  118.30  6.7992 
  1.7333  0.5524 -0.0030  139.45 -999.25  1.1680  1.1640 -999.25 -999.25 
  1.1640  1.1680  1.7333  109.21  0.5502 
  2545.000 
  108.30  6.8550  0.5520  0.4980 -0.0060  134.69  100.57  6.7509  14.026 
  3.9833 -999.25 -999.25 -999.25  1.1800  1.1610 -999.25  113.00  6.8073 
  1.7363  0.5263 -0.0064  138.11 -999.25  1.1800  1.1610 -999.25 -999.25 
  1.1610  1.1800  1.7363  104.36  0.5210 
  2545.500 
  107.90  6.9150  0.5570  0.4890 -0.0020  135.13  62.526  6.7893  14.166 
  3.6851 -999.25 -999.25 -999.25  1.1940  1.1560 -999.25  109.60  6.8307 
  1.7392  0.5048 -0.0066  136.33 -999.25  1.1940  1.1560 -999.25 -999.25 
  1.1560  1.1940  1.7392  101.32  0.4968 
  2546.000 
  109.80  6.9350  0.5620  0.4930 -0.0010  136.47  62.113  6.8643  14.221 
  3.6828 -999.25 -999.25 -999.25  1.2090  1.1570 -999.25  108.12  6.8822 
  1.7355  0.4939 -0.0042  134.86 -999.25  1.2090  1.1570 -999.25 -999.25 
  1.1570  1.2090  1.7355  100.19  0.4847 
  2546.500 
  118.04  6.9380  0.5640  0.5350 -0.0020  140.02  61.522  6.9287  14.258 
  3.6805 -999.25 -999.25 -999.25  1.2340  1.1680 -999.25  108.80  6.9244 
  1.7271  0.4909 -0.0015  135.68 -999.25  1.2340  1.1680 -999.25 -999.25 
  1.1680  1.2340  1.7271  101.00  0.4813 
  2547.000 
  124.22  6.9460  0.5650  0.5460 -0.0040  142.17  112.17  6.9837  14.137 
  3.6783 -999.25 -999.25 -999.25  1.2650  1.1860 -999.25  113.84  6.9365 
  1.7211  0.5136 -0.0015  138.04 -999.25  1.2650  1.1860 -999.25 -999.25 
  1.1860  1.2650  1.7211  105.74  0.5068 
  2547.500 
  126.28  6.9540  0.5650  0.5570 -0.0060  142.30  111.93  7.0260  14.043 
  3.6760 -999.25 -999.25 -999.25  1.3030  1.2050 -999.25  121.18  6.9421 
  1.7186  0.5406 -0.0030  141.05 -999.25  1.3030  1.2050 -999.25 -999.25 
  1.2050  1.3030  1.7186  112.59  0.5370 
  2548.000 
  126.91  6.9540  0.5600  0.5610 -0.0040  141.15  111.76  6.9733  13.960 
  3.6737 -999.25 -999.25 -999.25  1.3560  1.2670 -999.25  125.30  6.9502 
  1.7178  0.5518 -0.0051  142.24 -999.25  1.3560  1.2670 -999.25 -999.25 
  1.2670  1.3560  1.7178  116.46  0.5496 
  2548.500 
  124.93  6.9700  0.5540  0.5490 -0.0010  136.83  111.60  6.9281  13.877 
  3.6714 -999.25 -999.25 -999.25  1.4120  1.3720 -999.25  126.62  6.9540 
  1.7223  0.5592 -0.0049  141.67 -999.25  1.4120  1.3720 -999.25 -999.25 
  1.3720  1.4120  1.7223  117.71  0.5579 
  2549.000 
  117.16  6.9740  0.5480  0.5350 -0.0020  130.66  111.44  6.8756  13.788 
  3.6683 -999.25 -999.25 -999.25  1.4910  1.5100 -999.25  125.79  6.9630 
  1.7316  0.5542 -0.0023  138.65 -999.25  1.4910  1.5100 -999.25 -999.25 
  1.5100  1.4910  1.7316  116.98  0.5524 
  2549.500 
  110.34  6.9580  0.5420  0.5160 -0.0030  126.88  111.28  6.7757  13.661 
  3.9279 -999.25 -999.25 -999.25  1.5790  1.7020 -999.25  120.40  6.9723 
  1.7417  0.5408 -0.0016  133.04 -999.25  1.5790  1.7020 -999.25 -999.25 
  1.7020  1.5790  1.7417  112.02  0.5374 
  2550.000 
  108.12  6.9460  0.5400  0.4810 -0.0070  125.58  73.457  6.6833  13.665 
  3.9283 -999.25 -999.25 -999.25  1.7410  1.9110 -999.25  113.07  6.9644 
  1.7517  0.5236 -0.0026  128.21 -999.25  1.7410  1.9110 -999.25 -999.25 
  1.9110  1.7410  1.7517  105.15  0.5180 
