~Version Information
VERS.                     2.0: CWLS log ASCII Standard Version 2.00
WRAP.                     YES: Multiple lines per depth step
~Well Information Block
#MNEM.UNIT                               Data Type  Information
#---------                               ---------  -----------
STRT.FT                                   805.0000:
STOP.FT                                  5010.0000:
STEP.FT                                     0.5000:
NULL.                 -999.25                     :
COMP.                                             :COMPANY            
WELL.     SANTIAGO C 55-28                        :WELL               
FLD .                                             :FIELD              
CTRY.                                             :COUNTRY            
STAT.                                             :STATE              
LOC .                                             :LOCATION           
UWI .                                             :UNIQUE WELL ID     
SRVC.                                             :Service company    
DATE.                                             :LOG DATE           
~Curve Information
#MNEM.UNIT           API CODE  Curve Description
#---------           --------  -----------------
DEPT.FT                      :   1 DEPTH
CALI.IN                      :   2
GR  .GAPI                    :   3
NPHI.PU-S                    :   4
DPHI.PU-S                    :   5
DRHO.G/C3                    :   6
SP  .MV                      :   7
ILD .OHMM                    :   8
ILM .OHMM                    :   9
SFLU.OHMM                    :  10
LLD .OHMM                    :  11
LLS .OHMM                    :  12
MSFL.OHMM                    :  13
DT  .US/F                    :  14
SPHI.                        :  15
KSCI.                        :  16
PSCI.                        :  17
OSCI.                        :  18
WSCI.                        :  19
KWCI.                        :  20
PWCI.                        :  21
OWCI.                        :  22
WWCI.                        :  23
SBL .MV                      :  24
RS  .OHMM                    :  25
RM  .OHMM                    :  26
RD  .OHMM                    :  27
DTS .US/F                    :  28
RHOB.G/C3                    :  29
ROBS.G/C3                    :  30
DROS.G/C3                    :  31
CALS.IN                      :  32
GRS .GAPI                    :  33
NPHS.PU-S                    :  34
SFLU.OHMM                    :  35
ILMC.OHMM                    :  36
ILDC.OHMM                    :  37
ROBC.G/C3                    :  38
GRC .GAPI                    :  39
NPHC.PU-S                    :  40
~A
# ...
  3577.000 
  9.7940  76.917  0.2920  0.2660  0.0050 -40.535 -999.25 -999.25 -999.25 
  16.294  17.737  45.939  103.61 -999.25 -999.25 -999.25 -999.25 -999.25 
 -999.25 -999.25 -999.25 -999.25 -21.321  45.939  17.737  16.294  97.436 
  2.2111  2.3508  0.0002  9.7830  75.511  0.2753  45.939  17.737  16.294 
  2.3508  75.511  0.2753 
  3577.500 
  9.7900  78.572  0.3040  0.2640  0.0020 -40.881 -999.25 -999.25 -999.25 
  16.350  17.995  45.589  106.11 -999.25 -999.25 -999.25 -999.25 -999.25 
 -999.25 -999.25 -999.25 -999.25 -21.656  45.589  17.995  16.350  95.330 
  2.2144  2.3620  0.0092  9.7489  73.858  0.2649  45.589  17.995  16.350 
  2.3620  73.858  0.2649 
  3578.000 
  9.8090  76.654  0.3120  0.2510 -0.0020 -41.069 -999.25 -999.25 -999.25 
  15.466  17.662  31.575  102.65 -999.25  52.000  26.000  15.300  59.700 
 -999.25 -999.25 -999.25 -999.25 -21.832  31.575  17.662  15.466  96.773 
  2.2359  2.3660  0.0174  9.7191  74.231  0.2637  31.575  17.662  15.466 
  2.3660  74.231  0.2637 
  3578.500 
  9.8510  74.441  0.3060  0.2330 -0.0060 -41.219 -999.25 -999.25 -999.25 
  14.792  16.523  24.699  100.65 -999.25 -999.25 -999.25 -999.25 -999.25 
 -999.25 -999.25 -999.25 -999.25 -21.971  24.699  16.523  14.792  99.239 
  2.2656  2.3349  0.0208  9.7018  75.159  0.2704  24.699  16.523  14.792 
  2.3349  75.159  0.2704 
  3579.000 
  9.8230  73.238  0.2810  0.1920 -0.0060 -41.210 -999.25 -999.25 -999.25 
  14.043  15.629  41.081  99.917 -999.25 -999.25 -999.25 -999.25 -999.25 
 -999.25 -999.25 -999.25 -999.25 -21.950  41.081  15.629  14.043  103.50 
  2.3332  2.2933  0.0162  9.7000  74.681  0.2782  41.081  15.629  14.043 
  2.2933  74.681  0.2782 
  3579.500 
  9.7780  74.831  0.2670  0.1800  0.0010 -41.080 -999.25 -999.25 -999.25 
  13.432  15.003  30.462  102.39 -999.25 -999.25 -999.25 -999.25 -999.25 
 -999.25 -999.25 -999.25 -999.25 -21.809  30.462  15.003  13.432  106.10 
  2.3530  2.2738  0.0079  9.7030  73.195  0.2792  30.462  15.003  13.432 
  2.2738  73.195  0.2792 
  3580.000 
  9.7460  75.476  0.2620  0.1740  0.0100 -40.911 -999.25 -999.25 -999.25 
  13.110  14.483  25.701  106.31 -999.25 -999.25 -999.25 -999.25 -999.25 
 -999.25 -999.25 -999.25 -999.25 -21.628  25.701  14.483  13.110  102.59 
  2.3629  2.2742  0.0009  9.7018  72.444  0.2742  25.701  14.483  13.110 
  2.2742  72.444  0.2742 
  3580.500 
  9.7170  74.214  0.2660  0.1720  0.0180 -40.584 -999.25 -999.25 -999.25 
  12.836  13.691  31.340  110.14 -999.25 -999.25 -999.25 -999.25 -999.25 
 -999.25 -999.25 -999.25 -999.25 -21.290  31.340  13.691  12.836  100.65 
  2.3662  2.2881 -0.0010  9.6972  72.890  0.2686  31.340  13.691  12.836 
  2.2881  72.890  0.2686 
  3581.000 
  9.7010  72.535  0.2760  0.1920  0.0210 -40.265 -999.25 -999.25 -999.25 
  12.225  12.754  26.573  113.17 -999.25 -999.25 -999.25 -999.25 -999.25 
 -999.25 -999.25 -999.25 -999.25 -20.959  26.573  12.754  12.225  99.917 
  2.3332  2.3095 -0.0001  9.7017  73.399  0.2640  26.573  12.754  12.225 
  2.3095  73.399  0.2640 
  3581.500 
  9.7000  72.345  0.2810  0.2170  0.0160 -39.985 -999.25 -999.25 -999.25 
  11.451  11.816  26.114  115.38 -999.25 -999.25 -999.25 -999.25 -999.25 
 -999.25 -999.25 -999.25 -999.25 -20.668  26.114  11.816  11.451  102.39 
  2.2920  2.3243  0.0146  9.7136  72.523  0.2610  26.114  11.816  11.451 
  2.3243  72.523  0.2610 
  3582.000 
  9.7030  73.165  0.2770  0.2280  0.0080 -39.506 -999.25 -999.25 -999.25 
  10.589  11.274  21.381  115.57 -999.25 -999.25 -999.25 -999.25 -999.25 
 -999.25 -999.25 -999.25 -999.25 -20.177  21.381  11.274  10.589  106.31 
  2.2738  2.3335  0.0325  9.7369  71.859  0.2600  21.381  11.274  10.589 
  2.3335  71.859  0.2600 
  3582.500 
  9.7020  73.571  0.2710  0.2280  0.0010 -39.225 -999.25 -999.25 -999.25 
  9.9740  10.600  18.534  115.13 -999.25 -999.25 -999.25 -999.25 -999.25 
 -999.25 -999.25 -999.25 -999.25 -19.885  18.534  10.600  9.9740  110.14 
  2.2738  2.3193  0.0371  9.7928  72.604  0.2626  18.534  10.600  9.9740 
  2.3193  72.604  0.2626 
  3583.000 
  9.6970  72.012  0.2660  0.2200 -0.0010 -38.867 -999.25 -999.25 -999.25 
  9.9290  10.002  18.181  115.30 -999.25 -999.25 -999.25 -999.25 -999.25 
 -999.25 -999.25 -999.25 -999.25 -19.515  18.181  10.002  9.9290  113.17 
  2.2870  2.3005  0.0373  9.8241  73.826  0.2692  18.181  10.002  9.9290 
  2.3005  73.826  0.2692 
  3583.500 
  9.7010  71.702  0.2620  0.2070 -0.0010 -38.508 -999.25 -999.25 -999.25 
  9.7570  9.5610  17.703  115.88 -999.25 -999.25 -999.25 -999.25 -999.25 
 -999.25 -999.25 -999.25 -999.25 -19.145  17.703  9.5610  9.7570  115.38 
  2.3084  2.2914  0.0322  9.8445  74.602  0.2762  17.703  9.5610  9.7570 
  2.2914  74.602  0.2762 
  3584.000 
  9.7120  72.939  0.2600  0.1980  0.0130 -38.030 -999.25 -999.25 -999.25 
  9.1910  9.0720  16.891  116.52 -999.25  130.00  25.100  27.800  34.400 
 -999.25 -999.25 -999.25 -999.25 -18.655  16.891  9.0720  9.1910  115.57 
  2.3233  2.2887  0.0282  9.8468  74.219  0.2839  16.891  9.0720  9.1910 
  2.2887  74.219  0.2839 
  3584.500 
  9.7310  74.177  0.2600  0.1910  0.0320 -37.591 -999.25 -999.25 -999.25 
  8.4980  8.6560  13.701  117.56 -999.25 -999.25 -999.25 -999.25 -999.25 
 -999.25 -999.25 -999.25 -999.25 -18.205  13.701  8.6560  8.4980  115.13 
  2.3349  2.2865  0.0290  9.8458  72.674  0.2925  13.701  8.6560  8.4980 
  2.2865  72.674  0.2925 
  3585.000 
  9.7890  74.880  0.2650  0.1990  0.0370 -37.230 -999.25 -999.25 -999.25 
  7.8150  8.0640  12.954  118.46 -999.25 -999.25 -999.25 -999.25 -999.25 
 -999.25 -999.25 -999.25 -999.25 -17.832  12.954  8.0640  7.8150  115.30 
  2.3217  2.2744  0.0290  9.8448  70.749  0.3005  12.954  8.0640  7.8150 
  2.2744  70.749  0.3005 
  3585.500 
  9.8210  74.155  0.2730  0.2110  0.0380 -36.793 -999.25 -999.25 -999.25 
  7.5810  7.4150  13.111  117.29 -999.25 -999.25 -999.25 -999.25 -999.25 
 -999.25 -999.25 -999.25 -999.25 -17.384  13.111  7.4150  7.5810  115.88 
  2.3019  2.2603  0.0286  9.8508  69.096  0.3080  13.111  7.4150  7.5810 
  2.2603  69.096  0.3080 
  3586.000 
  9.8440  72.297  0.2790  0.2170  0.0330 -36.354 -999.25 -999.25 -999.25 
  7.5060  7.1280  12.861  114.26 -999.25 -999.25 -999.25 -999.25 -999.25 
 -999.25 -999.25 -999.25 -999.25 -16.933  12.861  7.1280  7.5060  116.52 
  2.2920  2.2443  0.0268  9.8785  67.993  0.3175  12.861  7.1280  7.5060 
  2.2443  67.993  0.3175 
  3586.500 
  9.8470  70.321  0.2880  0.2190  0.0280 -36.031 -999.25 -999.25 -999.25 
  7.6110  6.9530  14.540  112.32 -999.25 -999.25 -999.25 -999.25 -999.25 
 -999.25 -999.25 -999.25 -999.25 -16.599  14.540  6.9530  7.6110  117.56 
  2.2887  2.2304  0.0252  9.8938  67.834  0.3280  14.540  6.9530  7.6110 
  2.2304  67.834  0.3280 
  3587.000 
  9.8460  68.762  0.2960  0.2190  0.0290 -35.709 -999.25 -999.25 -999.25 
  7.7750  6.9990  16.745  111.49 -999.25 -999.25 -999.25 -999.25 -999.25 
 -999.25 -999.25 -999.25 -999.25 -16.265  16.745  6.9990  7.7750  118.46 
  2.2887  2.2149  0.0216  9.9101  68.688  0.3381  16.745  6.9990  7.7750 
  2.2149  68.688  0.3381 
  3587.500 
  9.8450  67.677  0.3040  0.2260  0.0290 -34.800 -999.25 -999.25 -999.25 
  7.8400  7.0450  12.996  110.91 -999.25 -999.25 -999.25 -999.25 -999.25 
 -999.25 -999.25 -999.25 -999.25 -15.345  12.996  7.0450  7.8400  117.29 
  2.2771  2.1967  0.0166  9.9274  69.884  0.3494  12.996  7.0450  7.8400 
  2.1967  69.884  0.3494 
  3588.000 
  9.8440  67.666  0.3110  0.2340  0.0290 -34.242 -999.25 -999.25 -999.25 
  7.4530  6.5510  9.9380  115.33 -999.25 -999.25 -999.25 -999.25 -999.25 
 -999.25 -999.25 -999.25 -999.25 -14.775  9.9380  6.5510  7.4530  114.26 
  2.2639  2.1744  0.0112  9.9393  71.061  0.3697  9.9380  6.5510  7.4530 
  2.1744  71.061  0.3697 
  3588.500 
  9.8750  68.843  0.3220  0.2440  0.0270 -33.487 -999.25 -999.25 -999.25 
  6.7290  5.8160  10.533  119.14 -999.25 -999.25 -999.25 -999.25 -999.25 
 -999.25 -999.25 -999.25 -999.25 -14.009  10.533  5.8160  6.7290  112.32 
  2.2474  2.1546  0.0073  9.9467  71.661  0.3873  10.533  5.8160  6.7290 
  2.1546  71.661  0.3873 
