~Version Information
VERS.                     2.0: CWLS log ASCII Standard Version 2.00
WRAP.                     YES: Multiple lines per depth step
~Well Information Block
#MNEM.UNIT                               Data Type  Information
#---------                               ---------  -----------
STRT.FT                                   800.0000:
STOP.FT                                  5530.0000:
STEP.FT                                     0.5000:
NULL.                 -999.25                     :
COMP.                                             :COMPANY            
WELL.     SANTIAGO B 73-29                        :WELL               
FLD .                                             :FIELD              
CTRY.                                             :COUNTRY            
STAT.                                             :STATE              
LOC .                                             :LOCATION           
UWI .                                             :UNIQUE WELL ID     
SRVC.                                             :Service company    
DATE.                                             :LOG DATE           
~Curve Information
#MNEM.UNIT           API CODE  Curve Description
#---------           --------  -----------------
DEPT.FT                      :   1 DEPTH
SP  .MV                      :   2
GR  .GAPI                    :   3
ILD .OHMM                    :   4
ILM .OHMM                    :   5
SFL .OHMM                    :   6
DT  .US/F                    :   7
CALI.IN                      :   8
KSCI.                        :   9
PSCI.                        :  10
OSCI.                        :  11
WSCI.                        :  12
GR  .GAPI                    :  13
RHOB.G/C3                    :  14
NPHI.PU-S                    :  15
DRHO.G/C3                    :  16
SBL .MV                      :  17
GRS .GAPI                    :  18
RD  .OHMM                    :  19
RM  .OHMM                    :  20
RS  .OHMM                    :  21
R0BS.G/C3                    :  22
DRHS.G/C3                    :  23
GRS .GAPI                    :  24
NPHS.PU-S                    :  25
DTS .US/F                    :  26
CALS.IN                      :  27
SFLC.OHMM                    :  28
ILMC.OHMM                    :  29
ILDC.OHMM                    :  30
R0BC.G/C3                    :  31
GRC .GAPI                    :  32
NPHC.PU-S                    :  33
~A
# ...
  4251.000 
 -33.231  114.60  3.2480  3.2640  3.4180  88.094  10.855 -999.25 -999.25 
 -999.25 -999.25  123.46  1.9600  0.3970  0.0260 -10.115  114.60  3.2480 
  3.2640  3.4180  1.9456  0.0239  120.14  0.4000  82.410  10.841  3.7818 
  3.2911  3.2469  1.9587  129.72  0.3804 
  4251.500 
 -33.411  114.41  3.2950  3.2980  3.4840  83.499  10.846 -999.25 -999.25 
 -999.25 -999.25  123.46  1.9460  0.3860  0.0290 -10.296  114.41  3.2950 
  3.2980  3.4840  1.9612  0.0279  119.73  0.3970  81.343  10.814  3.8526 
  3.3253  3.2938  1.9741  129.17  0.3770 
  4252.000 
 -33.196  115.42  3.3290  3.2850  3.3620  81.793  10.838 -999.25 -999.25 
 -999.25 -999.25  121.68  1.9180  0.3790  0.0260 -10.082  115.42  3.3290 
  3.2850  3.3620  1.9700  0.0330  121.84  0.3860  81.454  10.776  3.7151 
  3.3117  3.3278  1.9826  131.30  0.3647 
  4252.500 
 -31.986  118.21  3.3630  3.2720  3.2150  81.084  10.800 -999.25 -999.25 
 -999.25 -999.25  119.89  1.9230  0.3820  0.0230 -8.8722  118.21  3.3630 
  3.2720  3.2150  1.9670  0.0350  123.57  0.3790  82.539  10.727  3.5495 
  3.2979  3.3617  1.9793  132.96  0.3568 
  4253.000 
 -31.771  117.84  3.3820  3.2770  3.1590  81.671  10.762 -999.25 -999.25 
 -999.25 -999.25  119.69  1.9380  0.3930  0.0230 -8.6579  117.84  3.3820 
  3.2770  3.1590  1.9615  0.0345  124.03  0.3820  84.104  10.695  3.4856 
  3.3026  3.3806  1.9736  133.32  0.3602 
  4253.500 
 -31.561  117.06  3.4010  3.2810  3.1330  83.057  10.706 -999.25 -999.25 
 -999.25 -999.25  122.28  1.9540  0.4010  0.0250 -8.4486  117.06  3.4010 
  3.2810  3.1330  1.9559  0.0325  124.53  0.3930  85.656  10.664  3.4550 
  3.3063  3.3996  1.9678  133.74  0.3725 
  4254.000 
 -31.351  116.28  3.4060  3.3150  3.1360  84.739  10.688 -999.25 -999.25 
 -999.25 -999.25  123.86  1.9690  0.4070  0.0310 -8.2393  116.28  3.4060 
  3.3150  3.1360  1.9438  0.0274  124.51  0.4010  85.848  10.644  3.4569 
  3.3406  3.4046  1.9556  133.63  0.3814 
  4254.500 
 -32.707  115.31  3.4410  3.3790  3.2280  86.222  10.650 -999.25 -999.25 
 -999.25 -999.25  124.07  1.9710  0.4040  0.0350 -9.5960  115.31  3.4410 
  3.3790  3.2280  1.9064  0.0157  123.57  0.4070  85.181  10.636  3.5574 
  3.4056  3.4395  1.9181  132.58  0.3882 
  4255.000 
 -33.287  115.72  3.4760  3.3830  3.2910  85.614  10.641 -999.25 -999.25 
 -999.25 -999.25  124.66  1.9630  0.4030  0.0350 -10.177  115.72  3.4760 
  3.3830  3.2910  1.8832  0.0064  123.57  0.4040  84.113  10.611  3.6247 
  3.4093  3.4745  1.8947  132.48  0.3848 
  4255.500 
 -33.855  114.95  3.5120  3.4170  3.3850  84.906  10.633 -999.25 -999.25 
 -999.25 -999.25  124.47  1.9600  0.3980  0.0340 -10.745  114.95  3.5120 
  3.4170  3.3850  1.8923  0.0087  124.25  0.4030  82.873  10.609  3.7278 
  3.4438  3.5104  1.9038  133.20  0.3837 
  4256.000 
 -33.841  113.58  3.5160  3.4510  3.4200  83.600  10.596 -999.25 -999.25 
 -999.25 -999.25  123.28  1.9520  0.3880  0.0310 -10.732  113.58  3.5160 
  3.4510  3.4200  1.9088  0.0184  125.04  0.3980  82.924  10.619  3.7670 
  3.4785  3.5145  1.9204  134.09  0.3781 
  4256.500 
 -33.819  112.61  3.5520  3.4850  3.3610  82.394  10.618 -999.25 -999.25 
 -999.25 -999.25  123.68  1.9360  0.3730  0.0240 -10.711  112.61  3.5520 
  3.4850  3.3610  1.9298  0.0251  125.41  0.3880  83.925  10.633  3.7032 
  3.5132  3.5504  1.9415  134.54  0.3669 
  4257.000 
 -34.004  111.83  3.5710  3.5230  3.3650  83.279  10.620 -999.25 -999.25 
 -999.25 -999.25  124.47  1.8790  0.3700  0.0080 -10.897  111.83  3.5710 
  3.5230  3.3650  1.9456  0.0271  125.47  0.3730  85.123  10.653  3.7092 
  3.5521  3.5694  1.9574  134.70  0.3500 
  4257.500 
 -33.986  110.86  3.5890  3.5590  3.3990  84.364  10.641 -999.25 -999.25 
 -999.25 -999.25  125.27  1.8870  0.3920  0.0050 -10.879  110.86  3.5890 
  3.5590  3.3990  1.9471  0.0263  125.08  0.3700  86.226  10.687  3.7491 
  3.5891  3.5875  1.9592  134.41  0.3467 
  4258.000 
 -34.764  107.52  3.6970  3.6280  3.4340  85.648  10.662 -999.25 -999.25 
 -999.25 -999.25  125.47  1.8970  0.3880  0.0120 -11.658  107.52  3.6970 
  3.6280  3.4340  1.9322  0.0250  123.98  0.3920  87.034  10.717  3.7899 
  3.6597  3.6954  1.9445  133.36  0.3714 
  4258.500 
 -35.736  103.77  3.7330  3.7680  3.5660  86.631  10.704 -999.25 -999.25 
 -999.25 -999.25  125.47  1.9190  0.3810  0.0240 -12.631  103.77  3.7330 
  3.7680  3.5660  1.9196  0.0250  119.74  0.3880  84.830  10.743  3.9373 
  3.8026  3.7314  1.9320  128.90  0.3669 
  4259.000 
 -35.714  97.453  3.9850  3.9490  3.6690  87.321  10.726 -999.25 -999.25 
 -999.25 -999.25  124.88  1.9390  0.3710  0.0260 -12.609  97.453  3.9850 
  3.9490  3.6690  1.9050  0.0204  113.51  0.3810  82.560  10.774  4.0534 
  3.9876  3.9832  1.9176  122.32  0.3591 
  4259.500 
 -36.492  93.310  4.2930  4.3320  4.2930  83.025  10.756 -999.25 -999.25 
 -999.25 -999.25  123.49  1.9510  0.3630  0.0280 -13.388  93.310  4.2930 
  4.3320  4.2930  1.8723  0.0078  105.64  0.3710  81.241  10.789  4.7429 
  4.3788  4.2910  1.8850  113.88  0.3479 
  4260.000 
 -38.058  87.786  4.6260  4.7110  5.0230  82.217  10.787 -999.25 -999.25 
 -999.25 -999.25  117.54  1.9440  0.3490  0.0250 -14.955  87.786  4.6260 
  4.7110  5.0230  1.8392 -0.0048  90.586  0.3630  76.939  10.791  5.5483 
  4.7664  4.6237  1.8520  97.664  0.3389 
  4260.500 
 -39.026  81.069  4.8930  4.9370  4.7160  80.511  10.790 -999.25 -999.25 
 -999.25 -999.25  110.99  1.9230  0.3330  0.0250 -15.924  81.069  4.8930 
  4.9370  4.7160  1.8357 -0.0125  74.861  0.3490  74.384  10.793  5.2100 
  4.9979  4.8904  1.8484  80.715  0.3232 
  4261.000 
 -40.195  71.978  5.0330  5.1750  4.4270  74.223  10.792 -999.25 -999.25 
 -999.25 -999.25  102.07  1.9170  0.3260  0.0250 -17.093  71.978  5.0330 
  5.1750  4.4270  1.8529 -0.0108  69.466  0.3330  75.285  10.806  4.8926 
  5.2424  5.0303  1.8657  74.929  0.3023 
  4261.500 
 -40.973  69.027  5.1320  5.1790  4.6390  74.508  10.794 -999.25 -999.25 
 -999.25 -999.25  82.427  1.8960  0.3190  0.0170 -17.872  69.027  5.1320 
  5.1790  4.6390  1.8796 -0.0002  70.589  0.3260  76.441  10.822  5.1284 
  5.2469  5.1292  1.8926  76.177  0.2947 
  4262.000 
 -41.348  69.242  5.0910  5.1840  5.2800  75.894  10.816 -999.25 -999.25 
 -999.25 -999.25  69.135  1.8550  0.3280  0.0010 -18.248  69.242  5.0910 
  5.1840  5.2800  1.8956  0.0044  73.918  0.3190  76.652  10.833  5.8375 
  5.2524  5.0883  1.9086  79.797  0.2871 
  4262.500 
 -41.136  70.646  5.0020  5.0500  4.9570  76.877  10.827 -999.25 -999.25 
 -999.25 -999.25  69.733  1.8280  0.3390 -0.0090 -18.036  70.646  5.0020 
  5.0500  4.9570  1.9005  0.0052  78.300  0.3280  77.065  10.834  5.4809 
  5.1149  4.9994  1.9135  84.529  0.2969 
  4263.000 
 -40.520  74.226  4.8720  4.9620  4.4450  76.470  10.838 -999.25 -999.25 
 -999.25 -999.25  71.322  1.8410  0.3410 -0.0150 -17.421  74.226  4.8720 
  4.9620  4.4450  1.9057  0.0079  82.208  0.3390  80.644  10.826  4.9146 
  5.0244  4.8695  1.9187  88.727  0.3089 
  4263.500 
 -39.715  77.217  4.7880  4.7880  4.0210  77.555  10.830 -999.25 -999.25 
 -999.25 -999.25  76.284  1.8610  0.3600 -0.0080 -16.617  77.217  4.7880 
  4.7880  4.0210  1.9124  0.0109  85.361  0.3410  85.429  10.823  4.4462 
  4.8460  4.7856  1.9253  92.120  0.3112 
  4264.000 
 -38.505  77.229  4.7060  4.7490  4.1380  83.226  10.822 -999.25 -999.25 
 -999.25 -999.25  80.254  1.8920  0.3670  0.0050 -15.408  77.229  4.7060 
  4.7490  4.1380  1.8954  0.0114  87.524  0.3600  88.257  10.824  4.5755 
  4.8061  4.7036  1.9084  94.459  0.3355 
  4264.500 
 -38.690  77.241  4.7550  4.9310  4.2580  87.299  10.823 -999.25 -999.25 
 -999.25 -999.25  84.224  1.8980  0.3620  0.0040 -15.593  77.241  4.7550 
  4.9310  4.2580  1.8878  0.0104  88.328  0.3670  88.440  10.831  4.7088 
  4.9928  4.7526  1.9008  95.349  0.3434 
  4265.000 
 -40.057  73.312  4.9360  5.3120  4.4220  89.083  10.825 -999.25 -999.25 
 -999.25 -999.25  86.607  1.9020  0.3540  0.0060 -16.961  73.312  4.9360 
  5.3120  4.4220  1.8958  0.0119  86.121  0.3620  84.073  10.843  4.8911 
  5.3841  4.9334  1.9088  92.998  0.3378 
