~Version Information
VERS.                     2.0: CWLS log ASCII Standard Version 2.00
WRAP.                      NO: One line per depth step
~Well Information Block
#MNEM.UNIT                               Data Type  Information
#---------                               ---------  -----------
STRT.FT                                    90.0000:
STOP.FT                                  2000.0000:
STEP.FT                                     0.5000:
NULL.                 -999.25                     :
COMP.                                             :COMPANY            
WELL.     LL 76-30 OR MUDDY CREEK 76-30           :WELL               
FLD .                                             :FIELD              
CTRY.                                             :COUNTRY            
STAT.                                             :STATE              
LOC .                                             :LOCATION           
UWI .                                             :UNIQUE WELL ID     
SRVC.                                             :Service company    
DATE.                                             :LOG DATE           
~Curve Information
#MNEM.UNIT           API CODE  Curve Description
#---------           --------  -----------------
DEPT.FT                      :   1 DEPTH
GR  .GAPI                    :   2
CALI.IN                      :   3
DPHI.PU-S                    :   4
NPHI.PU-S                    :   5
DRHO.G/C3                    :   6
SP  .MV                      :   7
ILD .OHMM                    :   8
ILM .OHMM                    :   9
SFLU.OHMM                    :  10
DT  .US/F                    :  11
RHOB.G/C3                    :  12
ROBS.G/C3                    :  13
CALS.IN                      :  14
DRHS.G/C3                    :  15
GRS .GAPI                    :  16
NPHS.PU-S                    :  17
DTS .US/F                    :  18
SBL .MV                      :  19
RD  .OHMM                    :  20
RM  .OHMM                    :  21
RS  .OHMM                    :  22
SFLU.OHMM                    :  23
ILMC.OHMM                    :  24
ILDC.OHMM                    :  25
ROBC.G/C3                    :  26
GRC .GAPI                    :  27
NPHC.PU-S                    :  28
~A
# ...
  1818.000  125.08  7.3390  0.4790  0.5360 -0.0020 -999.25  1.3730  1.3600 -999.25  148.23  1.8597  1.8902  7.4656  0.0125  120.68  0.5360  148.07 -999.25  1.3730  1.3600 -999.25 -999.25  1.3600  1.3730  1.8902  112.03  0.5089 
  1818.500  122.91  7.3600  0.4620  0.5260  0.0050 -999.25  1.3720  1.3720 -999.25  147.82  1.8877  1.8778  7.6752  0.0186  115.01  0.5260  147.52 -999.25  1.3720  1.3720 -999.25 -999.25  1.3720  1.3720  1.8778  107.61  0.4982 
  1819.000  119.93  7.5010  0.4600  0.5110  0.0150 -999.25  1.3600  1.3600 -999.25  147.02  1.8910  1.8389  8.0513  0.0193  101.75  0.5110  146.40 -999.25  1.3600  1.3600 -999.25 -999.25  1.3600  1.3600  1.8389  96.545  0.4821 
  1819.500  113.18  7.7400  0.4710  0.4960  0.0200 -999.25  1.2870  1.3230 -999.25  145.32  1.8729  1.8023  8.2073  0.0066  94.329  0.4960  144.96 -999.25  1.2870  1.3230 -999.25 -999.25  1.3230  1.2870  1.8023  90.008  0.4659 
  1820.000  97.065  8.1790  0.5000  0.4980  0.0190 -999.25  1.2180  1.2400 -999.25  144.32  1.8250  1.7688  8.0078 -0.0037  93.368  0.4980  144.35 -999.25  1.2180  1.2400 -999.25 -999.25  1.2400  1.2180  1.7688  88.449  0.4680 
  1820.500  93.095  8.2200  0.5200  0.5130  0.0010 -999.25  1.1840  1.1740 -999.25  144.41  1.7920  1.7434  7.7095 -0.0073  95.707  0.5130  145.28 -999.25  1.1840  1.1740 -999.25 -999.25  1.1740  1.1840  1.7434  89.669  0.4842 
  1821.000  93.503  7.9030  0.5410  0.5200 -0.0060 -999.25  1.1630  1.1630 -999.25  147.00  1.7574  1.7349  7.5559 -0.0055  97.780  0.5200  147.29 -999.25  1.1630  1.1630 -999.25 -999.25  1.1630  1.1630  1.7349  91.083  0.4917 
  1821.500  96.896  7.6050  0.5540  0.5350 -0.0080 -999.25  1.1520  1.1410 -999.25  147.89  1.7359  1.7413  7.5032 -0.0016  98.185  0.5350  147.79 -999.25  1.1520  1.1410 -999.25 -999.25  1.1410  1.1520  1.7413  91.277  0.5078 
  1822.000  98.300  7.5270  0.5550  0.5400 -0.0040 -999.25  1.1520  1.1410 -999.25  147.59  1.7343  1.7507  7.4998  0.0012  89.665  0.5400  146.88 -999.25  1.1520  1.1410 -999.25 -999.25  1.1410  1.1520  1.7507  83.346  0.5132 
  1822.500  98.111  7.4880  0.5480  0.5500  0.0000 -999.25  1.1730  1.1510 -999.25  145.29  1.7458  1.7559  7.5086 -0.0003  77.559  0.5500  144.05 -999.25  1.1730  1.1510 -999.25 -999.25  1.1510  1.1730  1.7559  72.117  0.5240 
  1823.000  83.792  7.5080  0.5430  0.5430  0.0020 -999.25  1.2050  1.1830 -999.25  141.10  1.7541  1.7592  7.5206 -0.0059  72.973  0.5430  139.61 -999.25  1.2050  1.1830 -999.25 -999.25  1.1830  1.2050  1.7592  67.884  0.5165 
  1823.500  72.857  7.5090  0.5410  0.5130 -0.0020 -999.25  1.2270  1.2050 -999.25  135.91  1.7574  1.7834  7.5411 -0.0085  74.339  0.5130  135.02 -999.25  1.2270  1.2050 -999.25 -999.25  1.2050  1.2270  1.7834  69.208  0.4841 
  1824.000  73.068  7.5300  0.5390  0.4970 -0.0090 -999.25  1.2500  1.2380 -999.25  132.71  1.7607  1.8179  7.5617 -0.0044  78.313  0.4970  132.42 -999.25  1.2500  1.2380 -999.25 -999.25  1.2380  1.2500  1.8179  72.966  0.4669 
  1824.500  75.464  7.5510  0.5130  0.4670 -0.0080 -999.25  1.2730  1.2610 -999.25  131.61  1.8036  1.8405  7.5725  0.0054  80.856  0.4670  131.74 -999.25  1.2730  1.2610 -999.25 -999.25  1.2610  1.2730  1.8405  75.365  0.4346 
  1825.000  81.046  7.5720  0.4960  0.4780 -0.0010 -999.25  1.2840  1.2840 -999.25  132.10  1.8316  1.8358  7.5735  0.0129  80.381  0.4780  132.54 -999.25  1.2840  1.2840 -999.25 -999.25  1.2840  1.2840  1.8358  74.926  0.4465 
  1825.500  80.658  7.5730  0.4850  0.5150  0.0120 -999.25  1.3080  1.2840 -999.25  133.89  1.8498  1.8059  7.5745  0.0113  81.063  0.5150  134.69 -999.25  1.3080  1.2840 -999.25 -999.25  1.2840  1.3080  1.8059  75.564  0.4863 
  1826.000  80.070  7.5740  0.5030  0.5270  0.0140 -999.25  1.2950  1.2490 -999.25  137.28  1.8201  1.7752  7.5754  0.0041  83.733  0.5270  138.27 -999.25  1.2950  1.2490 -999.25 -999.25  1.2490  1.2950  1.7752  78.056  0.4992 
  1826.500  82.272  7.5750  0.5220  0.5400  0.0080 -999.25  1.2830  1.2370 -999.25  141.66  1.7887  1.7512  7.5682 -0.0006  85.748  0.5400  143.28 -999.25  1.2830  1.2370 -999.25 -999.25  1.2370  1.2830  1.7512  79.912  0.5133 
  1827.000  85.662  7.5760  0.5410  0.5680 -0.0010 -999.25  1.2600  1.2030 -999.25  149.13  1.7574  1.7438  7.5421  0.0016  85.330  0.5680  149.21 -999.25  1.2600  1.2030 -999.25 -999.25  1.2030  1.2600  1.7438  79.444  0.5435 
  1827.500  85.871  7.5570  0.5500  0.5680  0.0000 -999.25  1.2250  1.2030 -999.25  149.53  1.7425  1.7446  7.4897  0.0059  80.944  0.5680  149.60 -999.25  1.2250  1.2030 -999.25 -999.25  1.2030  1.2250  1.7446  75.211  0.5434 
  1828.000  84.488  7.5190  0.5480  0.5580  0.0040 -999.25  1.1920  1.2030 -999.25  149.92  1.7458  1.7396  7.4052  0.0076  71.872  0.5580  149.25 -999.25  1.1920  1.2030 -999.25 -999.25  1.2030  1.1920  1.7396  66.565  0.5326 
  1828.500  74.946  7.4400  0.5500  0.5290  0.0090 -999.25  1.1920  1.2030 -999.25  146.33  1.7425  1.7315  7.2820  0.0037  64.289  0.5290  145.48 -999.25  1.1920  1.2030 -999.25 -999.25  1.2030  1.1920  1.7315  59.260  0.5013 
  1829.000  66.200  7.3410  0.5550  0.5230  0.0050 -999.25  1.2020  1.2030 -999.25  141.54  1.7343  1.7245  7.1137 -0.0002  60.070  0.5230  141.03 -999.25  1.2020  1.2030 -999.25 -999.25  1.2030  1.2020  1.7245  55.007  0.4949 
  1829.500  60.439  7.1630  0.5600  0.5150  0.0010 -999.25  1.2130  1.2020 -999.25  138.54  1.7260  1.7201  6.9995 -0.0030  59.374  0.5150  138.37 -999.25  1.2130  1.2020 -999.25 -999.25  1.2020  1.2130  1.7201  54.125  0.4862 
  1830.000  59.255  7.0050  0.5630  0.5020 -0.0030 -999.25  1.2360  1.2360 -999.25  137.44  1.7211  1.7164  6.9863 -0.0033  59.883  0.5020  137.52 -999.25  1.2360  1.2360 -999.25 -999.25  1.2360  1.2360  1.7164  54.560  0.4722 
  1830.500  59.663  6.9860  0.5650  0.4880 -0.0030 -999.25  1.2930  1.2700 -999.25  138.03  1.7178  1.7103  6.9873 -0.0048  60.172  0.4880  137.38 -999.25  1.2930  1.2700 -999.25 -999.25  1.2700  1.2930  1.7103  54.825  0.4572 
  1831.000  60.471  6.9870  0.5680  0.4960 -0.0040 -999.25  1.3290  1.3290 -999.25  133.34  1.7128  1.7048  6.9882 -0.0068  58.686  0.4960  132.94 -999.25  1.3290  1.3290 -999.25 -999.25  1.3290  1.3290  1.7048  53.474  0.4658 
  1831.500  59.285  6.9880  0.5740  0.4920 -0.0070 -999.25  1.3660  1.3660 -999.25  130.24  1.7029  1.7136  6.9892 -0.0052  56.330  0.4920  129.94 -999.25  1.3660  1.3660 -999.25 -999.25  1.3660  1.3660  1.7136  51.328  0.4615 
  1832.000  56.708  6.9890  0.5690  0.4750 -0.0060 -999.25  1.3410  1.3910 -999.25  127.65  1.7112  1.7233  6.9902 -0.0007  54.852  0.4750  127.57 -999.25  1.3410  1.3910 -999.25 -999.25  1.3910  1.3410  1.7233  49.984  0.4432 
  1832.500  54.927  6.9900  0.5620  0.4360 -0.0020 -999.25  1.3040  1.3530 -999.25  126.94  1.7227  1.7251  6.9912  0.0062  55.228  0.4360  127.30 -999.25  1.3040  1.3530 -999.25 -999.25  1.3530  1.3040  1.7251  50.329  0.4012 
  1833.000  54.539  6.9910  0.5600  0.4350  0.0050 -999.25  1.3040  1.3040 -999.25  130.53  1.7260  1.7211  7.0074  0.0128  59.017  0.4350  130.79 -999.25  1.3040  1.3040 -999.25 -999.25  1.3040  1.3040  1.7211  53.817  0.4002 
  1833.500  58.529  6.9920  0.5630  0.4470  0.0120 -999.25  1.3280  1.2570 -999.25  133.51  1.7211  1.7215  7.0983  0.0173  61.565  0.4470  133.40 -999.25  1.3280  1.2570 -999.25 -999.25  1.2570  1.3280  1.7215  56.342  0.4131 
  1834.000  61.723  7.0930  0.5630  0.4700  0.0170 -999.25  1.4030  1.2800 -999.25  132.11  1.7211  1.7249  7.1331  0.0180  60.134  0.4700  131.07 -999.25  1.4030  1.2800 -999.25 -999.25  1.2800  1.4030  1.7249  55.108  0.4378 
  1834.500  60.538  7.1330  0.5610  0.5410  0.0190 -999.25  1.5510  1.4280 -999.25  116.81  1.7244  1.7492  7.1267  0.0075  56.317  0.5410  115.92 -999.25  1.5510  1.4280 -999.25 -999.25  1.4280  1.5510  1.7492  51.597  0.5143 
  1835.000  56.966  7.1340  0.5580  0.5540  0.0100 -999.25  1.6990  1.6090 -999.25  101.51  1.7293  1.9578  7.0487 -0.0196  48.680  0.5540  100.77 -999.25  1.6990  1.6090 -999.25 -999.25  1.6090  1.6990  1.9578  44.463  0.5283 
  1835.500  50.010  7.0560  0.4290  0.6110 -0.0170 -999.25  1.8450  1.9320 -999.25  86.216  1.9422  2.1664  6.9496 -0.0516  31.640  0.6110  85.624 -999.25  1.8450  1.9320 -999.25 -999.25  1.9320  1.8450  2.1664  28.786  0.5898 
