~Version Information
VERS.                     2.0: CWLS log ASCII Standard Version 2.00
WRAP.                     YES: Multiple lines per depth step
~Well Information Block
#MNEM.UNIT                               Data Type  Information
#---------                               ---------  -----------
STRT.FT                                   850.0000:
STOP.FT                                  6800.0000:
STEP.FT                                     0.5000:
NULL.                 -999.25                     :
COMP.                                             :COMPANY            
WELL.     SANTIAGO D #26-27                       :WELL               
FLD .                                             :FIELD              
CTRY.                                             :COUNTRY            
STAT.                                             :STATE              
LOC .                                             :LOCATION           
UWI .                                             :UNIQUE WELL ID     
SRVC.                                             :Service company    
DATE.                                             :LOG DATE           
~Curve Information
#MNEM.UNIT           API CODE  Curve Description
#---------           --------  -----------------
DEPT.FT                      :   1 DEPTH
DCAL.IN                      :   2
DGR .GAPI                    :   3
NPHI.PU-S                    :   4
DPHI.PU-S                    :   5
DRHO.G/C3                    :   6
AGR .GAPI                    :   7
ACAL.IN                      :   8
DT  .US/F                    :   9
GR  .GAPI                    :  10
SP  .MV                      :  11
ILM .OHMM                    :  12
ILD .OHMM                    :  13
SFLU.OHMM                    :  14
RHOB.G/C3                    :  15
RS  .OHMM                    :  16
RM  .OHMM                    :  17
RD  .OHMM                    :  18
GRS .GAPI                    :  19
SBL .MV                      :  20
ROBS.G/C3                    :  21
DRHS.G/C3                    :  22
CALS.IN                      :  23
GRS .GAPI                    :  24
NPHS.PU-S                    :  25
CALS.IN                      :  26
GRS .GAPI                    :  27
SFLU.OHMM                    :  28
ILMC.OHMM                    :  29
ILDC.OHMM                    :  30
ROBC.G/C3                    :  31
GRC .GAPI                    :  32
NPHC.PU-S                    :  33
~A
# ...
  1357.500 
  9.9640  139.40  0.5875  0.4062  0.0360  130.12  11.796  150.17  114.58 
 -1.4460  2.4950  2.5220  1.8930  1.9797  1.8930  2.4950  2.5220  114.58 
 -7.4460  2.0209  0.0360  10.027  133.29  0.5802  11.793  132.33  2.0790 
  2.5035  2.5211  2.0285  139.30  0.6298 
  1358.000 
  9.9920  138.61  0.5838  0.4037  0.0360  115.92  11.809  147.48  104.79 
 -1.5180  2.8780  2.6800  2.3840  1.9838  2.3840  2.8780  2.6800  104.79 
 -7.5180  2.0539  0.0380  10.067  121.46  0.5670  11.803  122.82  2.6112 
  2.8895  2.6790  2.0618  127.10  0.6139 
  1358.500 
  10.027  133.29  0.5800  0.3812  0.0360  103.81  11.835  140.47  104.88 
 -1.7480  3.1950  2.9270  2.9430  2.0209  2.9430  3.1950  2.9270  104.88 
 -7.7480  2.0807  0.0410  10.082  110.90  0.5476  11.822  109.89  3.2168 
  3.2094  2.9258  2.0887  116.11  0.5905 
  1359.000 
  10.067  121.46  0.5662  0.3613  0.0380  101.09  11.852  133.42  107.47 
 -2.6910  3.3520  3.3150  3.7060  2.0539  3.7060  3.3520  3.3150  107.47 
 -8.6910  2.0952  0.0440  10.098  106.30  0.5243  11.843  102.50  4.0432 
  3.3680  3.3135  2.1033  111.35  0.5624 
  1359.500 
  10.082  110.90  0.5462  0.3450  0.0410  102.25  11.671  131.23  109.47 
 -3.7520  3.5030  3.4970  4.3860  2.0807  4.3860  3.5030  3.4970  109.47 
 -9.7520  2.1076  0.0410  10.054  104.71  0.4666  11.768  101.63  4.7740 
  3.5200  3.4953  2.1153  109.53  0.4926 
  1360.000 
  10.098  106.30  0.5225  0.3363  0.0440  113.21  11.574  130.41  110.31 
 -4.6540  3.5630  3.5500  4.4690  2.0952  4.4690  3.5630  3.5500  110.31 
 -10.654  2.1137  0.0440  9.9670  108.16  0.4285  11.627  107.17  4.8546 
  3.5796  3.5481  2.1209  112.81  0.4465 
  1360.500 
  10.054  104.71  0.4613  0.3287  0.0410  122.62  11.560  133.20  109.45 
 -4.2910  3.4870  3.5900  4.2940  2.1076  4.2940  3.4870  3.5900  109.45 
 -10.291  2.1158  0.0500  9.9860  111.45  0.4127  11.568  117.28  4.6681 
  3.5031  3.5881  2.1231  116.32  0.4274 
  1361.000 
  9.9670  108.16  0.4250  0.3250  0.0440  125.73  11.633  138.72  107.91 
 -2.9770  3.2840  3.5980  3.3870  2.1137  3.3870  3.2840  3.5980  107.91 
 -8.9770  2.1158  0.0510  10.034  112.32  0.4278  11.590  123.92  3.6938 
  3.2987  3.5961  2.1234  117.41  0.4456 
  1361.500 
  9.9860  111.45  0.4112  0.3238  0.0500  122.50  11.714  142.30  109.79 
 -1.7830  3.0760  3.5600  2.7860  2.1158  2.7860  3.0760  3.5600  109.79 
 -7.7830  2.0931  0.0460  10.050  111.41  0.4550  11.665  124.44  3.0453 
  3.0891  3.5582  2.1009  116.52  0.4786 
  1362.000 
  10.034  112.32  0.4300  0.3238  0.0510  112.76  11.723  145.19  115.83 
 -0.7870  2.8700  3.5030  2.4660  2.1158  2.4660  2.8700  3.5030  115.83 
 -6.7870  2.0663  0.0390  10.057  108.07  0.4749  11.717  118.77  2.6996 
  2.8814  3.5013  2.0741  113.06  0.5026 
  1362.500 
  10.050  111.41  0.4587  0.3375  0.0460  109.49  11.681  144.93  117.23 
 -0.4230  2.7930  3.1980  2.3440  2.0931  2.3440  2.7930  3.1980  117.23 
 -6.4230  2.0498  0.0300  10.033  106.52  0.4796  11.708  111.56  2.5667 
  2.8036  3.1965  2.0574  111.35  0.5083 
  1363.000 
  10.057  108.07  0.4775  0.3537  0.0390  111.13  11.671  143.91  117.36 
 -0.6530  2.7190  2.9250  2.3270  2.0663  2.3270  2.7190  2.9250  117.36 
 -6.6530  2.0354  0.0230  10.017  107.16  0.4790  11.677  110.06  2.5478 
  2.7290  2.9238  2.0429  111.95  0.5075 
  1363.500 
  10.033  106.52  0.4800  0.3637  0.0300  118.91  11.657  143.86  115.79 
 -1.0420  2.5980  2.6700  2.3710  2.0498  2.3710  2.5980  2.6700  115.79 
 -7.0420  2.0292  0.0240  10.021  112.00  0.4736  11.666  113.73  2.5955 
  2.6071  2.6690  2.0367  117.02  0.5010 
  1364.000 
  10.017  107.16  0.4787  0.3725  0.0230  129.67  11.666  148.26  114.29 
 -1.3120  2.4240  2.5290  2.3980  2.0354  2.3980  2.4240  2.5290  114.29 
 -7.3120  2.0312  0.0350  10.025  117.59  0.4694  11.660  122.34  2.6248 
  2.4320  2.5281  2.0388  122.88  0.4960 
  1364.500 
  10.021  112.00  0.4725  0.3762  0.0240  134.35  11.675  151.82  113.46 
 -1.5020  2.2630  2.5110  2.2140  2.0292  2.2140  2.2630  2.5110  113.46 
 -7.5020  2.0189  0.0430  10.009  122.35  0.4798  11.669  131.08  2.4254 
  2.2699  2.5101  2.0263  127.79  0.5085 
  1365.000 
  10.025  117.59  0.4687  0.3750  0.0350  140.43  11.690  155.20  113.43 
 -1.3350  2.2510  2.5160  1.9730  2.0312  1.9730  2.2510  2.5160  113.43 
 -7.3350  2.0044  0.0410  9.9930  123.78  0.5212  11.679  136.09  2.1646 
  2.2577  2.5151  2.0118  129.21  0.5584 
  1365.500 
  10.009  122.35  0.4825  0.3825  0.0430  140.80  11.719  156.23  114.99 
 -0.9310  2.2390  2.4810  1.9280  2.0189  1.9280  2.2390  2.4810  114.99 
 -6.9310  2.0024  0.0350  9.9810  118.73  0.5430  11.698  140.53  2.1158 
  2.2456  2.4801  2.0096  123.90  0.5848 
  1366.000 
  9.9930  123.78  0.5312  0.3912  0.0410  140.11  11.744  155.78  119.33 
 -0.6880  2.2280  2.3840  2.1130  2.0044  2.1130  2.2280  2.3840  119.33 
 -6.6880  2.0251  0.0400  9.9600  116.67  0.5395  11.725  140.63  2.3148 
  2.2345  2.3832  2.0322  121.66  0.5805 
  1366.500 
  9.9810  118.73  0.5462  0.3925  0.0350  137.07  11.762  154.96  120.85 
 -0.4440  2.2620  2.3290  2.3890  2.0024  2.3890  2.2620  2.3290  120.85 
 -6.4440  2.0519  0.0480  9.9440  118.57  0.5308  11.748  139.39  2.6120 
  2.2686  2.3282  2.0589  123.58  0.5700 
  1367.000 
  9.9600  116.67  0.5375  0.3787  0.0400  131.89  11.771  152.87  120.54 
 -0.2770  2.2830  2.4700  2.2500  2.0251  2.2500  2.2830  2.4700  120.54 
 -6.2770  2.0581  0.0530  9.9360  122.97  0.5044  11.764  135.93  2.4618 
  2.2897  2.4691  2.0650  128.13  0.5380 
  1367.500 
  9.9440  118.57  0.5288  0.3625  0.0480  122.77  11.765  150.68  117.77 
 -0.4680  2.3520  2.6720  2.0060  2.0519  2.0060  2.3520  2.6720  117.77 
 -6.4680  2.0271  0.0520  9.9240  126.35  0.5046  11.770  130.04  2.1984 
  2.3590  2.6709  2.0340  131.59  0.5383 
  1368.000 
  9.9360  122.97  0.4963  0.3588  0.0530  117.56  11.762  148.48  111.24 
 -0.8970  2.5680  2.8970  2.0360  2.0581  2.0360  2.5680  2.8970  111.24 
 -6.8970  2.0209  0.0420  9.9200  124.40  0.5221  11.764  121.79  2.2307 
  2.5764  2.8957  2.0278  129.55  0.5594 
  1368.500 
  9.9240  126.35  0.5075  0.3775  0.0520  118.88  11.760  146.29  104.62 
 -1.6810  2.8400  3.0840  2.3790  2.0271  2.3790  2.8400  3.0840  104.62 
 -7.6810  2.0312  0.0230  9.9160  118.01  0.5329  11.762  117.78  2.6002 
  2.8502  3.0825  2.0381  122.88  0.5724 
  1369.000 
  9.9200  124.40  0.5275  0.3812  0.0420  120.13  11.762  134.79  102.88 
 -2.5050  3.0400  3.1820  3.2000  2.0209  3.2000  3.0400  3.1820  102.88 
 -8.5050  2.0601  0.0170  9.9080  111.70  0.5165  11.760  119.08  3.4840 
  3.0517  3.1804  2.0669  116.27  0.5526 
  1369.500 
  9.9160  118.01  0.5350  0.3750  0.0230  120.78  11.747  129.84  104.76 
 -3.9220  3.0630  3.2070  3.9570  2.0312  3.9570  3.0630  3.2070  104.76 
 -9.9220  2.0869  0.0190  9.9060  106.38  0.4670  11.760  120.22  4.2981 
  3.0748  3.2054  2.0937  110.73  0.4929 
  1370.000 
  9.9080  111.70  0.5087  0.3575  0.0170  121.71  11.682  131.98  111.16 
 -5.1030  3.0370  3.1440  4.2430  2.0601  4.2430  3.0370  3.1440  111.16 
 -11.103  2.1014  0.0290  9.9040  105.50  0.4231  11.739  120.89  4.6053 
  3.0486  3.1425  2.1081  109.81  0.4398 
  1370.500 
  9.9060  106.38  0.4488  0.3413  0.0190  127.94  11.612  137.05  113.95 
 -5.1350  2.9130  2.9990  4.1830  2.0869  4.1830  2.9130  2.9990  113.95 
 -11.135  2.1014  0.0460  9.9030  108.08  0.4020  11.675  122.36  4.5408 
  2.9237  2.9976  2.1081  112.49  0.4143 
  1371.000 
  9.9040  105.50  0.4112  0.3325  0.0290  132.34  11.614  147.24  119.08 
 -4.4150  2.6590  2.8920  3.5560  2.1014  3.5560  2.6590  2.8920  119.08 
 -10.415  2.0869  0.0600  9.9030  113.40  0.4074  11.612  128.34  3.8667 
  2.6679  2.8907  2.0936  118.02  0.4209 
  1371.500 
  9.9030  108.08  0.3975  0.3325  0.0460  134.77  11.647  152.09  121.11 
 -3.6940  2.5360  2.9360  2.5690  2.1014  2.5690  2.5360  2.9360  121.11 
 -9.6940  2.0271  0.0620  9.9150  119.31  0.4410  11.616  132.52  2.8049 
  2.5441  2.9347  2.0339  124.22  0.4615 
