~Version Information
VERS.                     2.0: CWLS log ASCII Standard Version 2.00
WRAP.                      NO: One line per depth step
~Well Information Block
#MNEM.UNIT                               Data Type  Information
#---------                               ---------  -----------
STRT.FT                                    90.0000:
STOP.FT                                  2000.0000:
STEP.FT                                     0.5000:
NULL.                 -999.25                     :
COMP.                                             :COMPANY            
WELL.     LL 76-30 OR MUDDY CREEK 76-30           :WELL               
FLD .                                             :FIELD              
CTRY.                                             :COUNTRY            
STAT.                                             :STATE              
LOC .                                             :LOCATION           
UWI .                                             :UNIQUE WELL ID     
SRVC.                                             :Service company    
DATE.                                             :LOG DATE           
~Curve Information
#MNEM.UNIT           API CODE  Curve Description
#---------           --------  -----------------
DEPT.FT                      :   1 DEPTH
GR  .GAPI                    :   2
CALI.IN                      :   3
DPHI.PU-S                    :   4
NPHI.PU-S                    :   5
DRHO.G/C3                    :   6
SP  .MV                      :   7
ILD .OHMM                    :   8
ILM .OHMM                    :   9
SFLU.OHMM                    :  10
DT  .US/F                    :  11
RHOB.G/C3                    :  12
ROBS.G/C3                    :  13
CALS.IN                      :  14
DRHS.G/C3                    :  15
GRS .GAPI                    :  16
NPHS.PU-S                    :  17
DTS .US/F                    :  18
SBL .MV                      :  19
RD  .OHMM                    :  20
RM  .OHMM                    :  21
RS  .OHMM                    :  22
SFLU.OHMM                    :  23
ILMC.OHMM                    :  24
ILDC.OHMM                    :  25
ROBC.G/C3                    :  26
GRC .GAPI                    :  27
NPHC.PU-S                    :  28
~A
# ...
  1422.000  51.488  6.7760  0.4770  0.3280  0.0000 -999.25  4.7200  4.5500 -999.25  113.57  1.8630  1.8916  6.8097  0.0311  50.546  0.3558  112.20 -999.25  4.7200  4.5500 -999.25 -999.25  4.5500  4.7200  1.8916  45.728  0.3152 
  1422.500  50.699  6.7770  0.4660  0.3370  0.0080 -999.25  4.5090  4.3870 -999.25  119.56  1.8811  1.8916  6.8677  0.0411  51.164  0.3601  115.28 -999.25  4.5090  4.3870 -999.25 -999.25  4.3870  4.5090  1.8916  46.395  0.3198 
  1423.000  50.507  6.8180  0.4580  0.3640  0.0370 -999.25  4.3470  4.3070 -999.25  124.85  1.8943  1.8484  6.9290  0.0395  52.649  0.3644  121.82 -999.25  4.3470  4.3070 -999.25 -999.25  4.3070  4.3470  1.8484  47.859  0.3244 
  1423.500  51.313  6.8790  0.4600  0.3610  0.0420 -999.25  4.2680  4.2290 -999.25  127.24  1.8910  1.8174  6.9910  0.0194  52.922  0.3625  126.21 -999.25  4.2680  4.2290 -999.25 -999.25  4.2290  4.2680  1.8174  48.227  0.3224 
  1424.000  52.916  6.9390  0.4910  0.3550  0.0390 -999.25  4.1910  4.1530 -999.25  128.54  1.8399  1.8106  7.0357  0.0047  50.501  0.3644  128.17 -999.25  4.1910  4.1530 -999.25 -999.25  4.1530  4.1910  1.8106  46.103  0.3245 
  1424.500  52.923  7.0000  0.5070  0.3610  0.0160 -999.25  4.1150  4.1150 -999.25  128.53  1.8135  1.8131  7.0419  0.0003  46.249  0.3754  128.53 -999.25  4.1150  4.1150 -999.25 -999.25  4.1150  4.1150  1.8131  42.231  0.3363 
  1425.000  50.140  7.0410  0.5090  0.3650  0.0030 -999.25  4.5110  4.1540 -999.25  127.93  1.8102  1.8179  7.0248 -0.0009  45.768  0.4081  127.93 -999.25  4.5110  4.1540 -999.25 -999.25  4.1540  4.5110  1.8179  41.764  0.3712 
  1425.500  45.761  7.0420  0.5070  0.3620  0.0000 -999.25  4.6800  4.4300 -999.25  126.63  1.8135  1.8306  7.0054 -0.0010  45.593  0.4144  126.53 -999.25  4.6800  4.4300 -999.25 -999.25  4.4300  4.6800  1.8306  41.572  0.3781 
  1426.000  45.769  7.0230  0.5040  0.3650 -0.0010 -999.25  5.0840  4.9010 -999.25  125.93  1.8184  1.8550  6.9115 -0.0029  45.209  0.3910  125.05 -999.25  5.0840  4.9010 -999.25 -999.25  4.9010  5.0840  1.8550  41.068  0.3530 
  1426.500  45.579  7.0040  0.4960  0.3780 -0.0010 -999.25  5.9980  5.9430 -999.25  122.83  1.8316  1.9072  6.8675 -0.0049  45.002  0.3750  120.39 -999.25  5.9980  5.9430 -999.25 -999.25  5.9430  5.9980  1.9072  40.808  0.3357 
  1427.000  45.187  6.9060  0.4810  0.4160 -0.0030 -999.25  6.2230  6.7580 -999.25  117.14  1.8564  1.9253  6.8287 -0.0030  44.416  0.3690  111.72 -999.25  6.2230  6.7580 -999.25 -999.25  6.7580  6.2230  1.9253  40.214  0.3294 
  1427.500  44.995  6.8660  0.4490  0.4140 -0.0050 -999.25  6.3380  7.2080 -999.25  107.65  1.9092  1.9405  6.8090  0.0170  45.610  0.3651  106.30 -999.25  6.3380  7.2080 -999.25 -999.25  7.2080  6.3380  1.9405  41.261  0.3252 
  1428.000  44.405  6.8280  0.4390  0.3840 -0.0030 -999.25  6.1670  7.2080 -999.25  105.75  1.9257  1.9402  6.7490  0.0199  47.076  0.3561  106.52 -999.25  6.1670  7.2080 -999.25 -999.25  7.2080  6.1670  1.9402  42.484  0.3155 
  1428.500  45.611  6.8090  0.4300  0.3720  0.0170 -999.25  5.3740  6.5770 -999.25  106.65  1.9405  1.9248  6.6910  0.0139  50.794  0.3579  114.54 -999.25  5.3740  6.5770 -999.25 -999.25  6.5770  5.3740  1.9248  45.732  0.3175 
  1429.000  47.013  6.7500  0.4300  0.3680  0.0200 -999.25  4.7700  5.0870 -999.25  114.54  1.9405  1.9028  6.6921  0.0120  55.822  0.3801  117.13 -999.25  4.7700  5.0870 -999.25 -999.25  5.0870  4.7700  1.9028  50.260  0.3412 
  1429.500  50.611  6.6910  0.4390  0.3640  0.0140 -999.25  4.0440  4.2340 -999.25  117.13  1.9257  1.8854  6.6981  0.0120  64.910  0.4046  123.62 -999.25  4.0440  4.2340 -999.25 -999.25  4.2340  4.0440  1.8854  58.457  0.3676 
  1430.000  55.006  6.6920  0.4520  0.3530  0.0120 -999.25  3.4920  3.5240 -999.25  123.62  1.9042  1.8643  6.7408  0.0110  65.624  0.4220  126.61 -999.25  3.4920  3.5240 -999.25 -999.25  3.5240  3.4920  1.8643  59.203  0.3862 
  1430.500  64.784  6.6930  0.4620  0.3600  0.0120 -999.25  3.3670  3.3050 -999.25  126.61  1.8877  1.8351  6.7773  0.0047  64.219  0.4414  130.90 -999.25  3.3670  3.3050 -999.25 -999.25  3.3050  3.3670  1.8351  58.022  0.4071 
  1431.000  65.789  6.7340  0.4730  0.3890  0.0120 -999.25  3.2460  3.2160 -999.25  130.90  1.8696  1.8209  6.7885 -0.0010  60.621  0.4323  131.00 -999.25  3.2460  3.2160 -999.25 -999.25  3.2160  3.2460  1.8209  54.795  0.3972 
  1431.500  64.800  6.7750  0.4920  0.4120  0.0060 -999.25  3.2160  3.2460 -999.25  131.00  1.8382  1.8149  6.7966 -0.0043  55.628  0.4104  129.70 -999.25  3.2160  3.2460 -999.25 -999.25  3.2460  3.2160  1.8149  50.299  0.3737 
  1432.000  62.016  6.7860  0.5010  0.4270  0.0000 -999.25  3.1870  3.3060 -999.25  129.70  1.8234  1.8206  6.7783 -0.0047  53.860  0.3974  124.11 -999.25  3.1870  3.3060 -999.25 -999.25  3.3060  3.1870  1.8206  48.664  0.3598 
  1432.500  56.441  6.7960  0.5070  0.4490 -0.0040 -999.25  3.2170  3.3990 -999.25  124.11  1.8135  1.8262  6.7394 -0.0032  55.315  0.3928  121.31 -999.25  3.2170  3.3990 -999.25 -999.25  3.3990  3.2170  1.8262  49.900  0.3549 
  1433.000  53.658  6.7980  0.5040  0.4230 -0.0050 -999.25  3.2170  3.3680 -999.25  121.31  1.8184  1.8262  6.7321 -0.0012  56.484  0.3950  121.11 -999.25  3.2170  3.3680 -999.25 -999.25  3.3680  3.2170  1.8262  50.939  0.3572 
  1433.500  54.264  6.7390  0.5000  0.4030 -0.0040 -999.25  3.2470  3.3680 -999.25  121.11  1.8250  1.8218  6.7123 -0.0005  53.300  0.3987  120.91 -999.25  3.2470  3.3680 -999.25 -999.25  3.3680  3.2470  1.8218  48.029  0.3612 
  1434.000  57.063  6.7400  0.4980  0.3940 -0.0020 -999.25  3.3380  3.3690 -999.25  120.91  1.8283  1.8192  6.6925 -0.0030  49.605  0.3920  119.71 -999.25  3.3380  3.3690 -999.25 -999.25  3.3690  3.3380  1.8192  44.664  0.3540 
  1434.500  55.675  6.7210  0.5010  0.3920  0.0000 -999.25  3.5270  3.5110 -999.25  119.71  1.8234  1.8211  6.6727 -0.0061  48.609  0.3559  118.11 -999.25  3.5270  3.5110 -999.25 -999.25  3.5110  3.5270  1.8211  43.731  0.3153 
  1435.000  50.499  6.7020  0.5030  0.3970 -0.0010 -999.25  3.7960  3.6590 -999.25  118.11  1.8201  1.8272  6.6529 -0.0070  48.642  0.3189  116.81 -999.25  3.7960  3.6590 -999.25 -999.25  3.6590  3.7960  1.8272  43.725  0.2733 
  1435.500  48.713  6.6830  0.5040  0.4000 -0.0050 -999.25  3.9750  4.0120 -999.25  116.81  1.8184  1.8320  6.6456 -0.0039  50.978  0.3085  116.41 -999.25  3.9750  4.0120 -999.25 -999.25  4.0120  3.9750  1.8320  45.812  0.2626 
  1436.000  48.521  6.6640  0.5010  0.3860 -0.0070 -999.25  4.0120  4.0120 -999.25  116.41  1.8234  1.8299  6.6600  0.0007  58.984  0.3152  118.90 -999.25  4.0120  4.0120 -999.25 -999.25  4.0120  4.0120  1.8299  53.038  0.2695 
  1436.500  48.728  6.6450  0.4970  0.3320 -0.0070 -999.25  3.9760  3.9390 -999.25  118.90  1.8300  1.8248  6.6677  0.0027  66.127  0.3373  124.29 -999.25  3.9760  3.9390 -999.25 -999.25  3.9390  3.9760  1.8248  59.479  0.2925 
  1437.000  52.325  6.6460  0.4950  0.3080 -0.0020 -999.25  3.9040  3.6270 -999.25  124.29  1.8333  1.8258  6.6688 -0.0008  75.785  0.3758  130.28 -999.25  3.9040  3.6270 -999.25 -999.25  3.6270  3.9040  1.8258  68.170  0.3366 
  1437.500  62.304  6.6670  0.4980  0.3090  0.0020 -999.25  3.7290  3.3400 -999.25  130.28  1.8283  1.8358  6.6698 -0.0036  88.275  0.4009  130.78 -999.25  3.7290  3.3400 -999.25 -999.25  3.3400  3.7290  1.8358  79.407  0.3636 
  1438.000  67.696  6.6680  0.5010  0.3210  0.0030 -999.25  3.5620  3.1330 -999.25  130.78  1.8234  1.8451  6.6542 -0.0040  95.672  0.4016  130.38 -999.25  3.5620  3.1330 -999.25 -999.25  3.1330  3.5620  1.8451  86.006  0.3643 
  1438.500  78.471  6.6690  0.4990  0.3530 -0.0020 -999.25  3.3410  2.9920 -999.25  130.38  1.8267  1.8450  6.6519  0.0030  98.735  0.3986  128.28 -999.25  3.3410  2.9920 -999.25 -999.25  2.9920  3.3410  1.8450  88.752  0.3611 
  1439.000  90.842  6.6700  0.4920  0.3990 -0.0040 -999.25  3.1620  2.8850 -999.25  128.28  1.8382  1.8281  6.6346  0.0040  111.85  0.4010  127.68 -999.25  3.1620  2.8850 -999.25 -999.25  2.8850  3.1620  1.8281  100.47  0.3637 
  1439.500  96.632  6.6510  0.4870  0.4030 -0.0040 -999.25  2.8590  2.7560 -999.25  127.68  1.8465  1.8156  6.6436  0.0021  120.47  0.4169  129.47 -999.25  2.8590  2.7560 -999.25 -999.25  2.7560  2.8590  1.8156  108.25  0.3807 
