~Version Information
VERS.                     2.0: CWLS log ASCII Standard Version 2.00
WRAP.                     YES: Multiple lines per depth step
~Well Information Block
#MNEM.UNIT                               Data Type  Information
#---------                               ---------  -----------
STRT.FT                                   120.0000:
STOP.FT                                  3000.0000:
STEP.FT                                     0.5000:
NULL.                 -999.25                     :
COMP.                                             :COMPANY            
WELL.     LOS LOBOS 62X-30                        :WELL               
FLD .                                             :FIELD              
CTRY.                                             :COUNTRY            
STAT.                                             :STATE              
LOC .                                             :LOCATION           
UWI .                                             :UNIQUE WELL ID     
SRVC.                                             :Service company    
DATE.                                             :LOG DATE           
~Curve Information
#MNEM.UNIT           API CODE  Curve Description
#---------           --------  -----------------
DEPT.FT                      :   1 DEPTH
CALI.IN                      :   2
GR  .GAPI                    :   3
NPHI.PU-S                    :   4
DPHI.PU-S                    :   5
DRHO.G/C3                    :   6
SP  .MV                      :   7
ILD .OHMM                    :   8
ILM .OHMM                    :   9
LL8U.OHMM                    :  10
DT  .US/F                    :  11
ROP .                        :  12
GASR.                        :  13
C1R .                        :  14
C2R .                        :  15
C3R .                        :  16
C4R .                        :  17
KSCI.                        :  18
PSCI.                        :  19
OSCI.                        :  20
WSCI.                        :  21
KWCI.                        :  22
PWCI.                        :  23
OWCI.                        :  24
WWCI.                        :  25
ROBS.G/C3                    :  26
NPHS.PU-S                    :  27
PWCL.                        :  28
OWCL.                        :  29
WWCL.                        :  30
KWCL.                        :  31
VCLD.                        :  32
VCLW.                        :  33
VSHL.                        :  34
PHIE.                        :  35
PHIT.                        :  36
SWE .                        :  37
SWT .                        :  38
SWTU.                        :  39
RMAT.                        :  40
BVWE.                        :  41
RHOB.G/C3                    :  42
CALS.IN                      :  43
DTS .US/F                    :  44
SBL .MV                      :  45
RD  .OHMM                    :  46
RM  .OHMM                    :  47
RS  .OHMM                    :  48
DPHI.                        :  49
GRC .GAPI                    :  50
NPHC.PU-S                    :  51
LL8C.OHMM                    :  52
ILDC.OHMM                    :  53
ILMC.OHMM                    :  54
ROBC.G/C3                    :  55
~A
# ...
  1308.000 
  10.730  48.418  0.5640  0.3970  0.0130 -35.907  2.6130  2.5480  2.4700 
  136.77  74.517  2.8470  6.4210 -999.25 -999.25 -999.25 -999.25 -999.25 
 -999.25 -999.25 -999.25 -999.25 -999.25 -999.25  1.9967  0.5500 -999.25 
 -999.25 -999.25 -999.25 -999.25 -999.25 -999.25 -999.25 -999.25 -999.25 
 -999.25 -999.25 -999.25 -999.25  1.9950  11.602  135.46 -3.9070  2.6130 
  2.5480  2.4700  0.3970  55.576  0.5358  2.4700  2.6126  2.5828  2.0144 
  1308.500 
  10.358  50.802  0.5640  0.4030  0.0100 -36.068  2.6130  2.5330  2.4650 
  138.06  74.298  2.9060  6.4250 -999.25 -999.25 -999.25 -999.25 -999.25 
 -999.25 -999.25 -999.25 -999.25 -999.25 -999.25  1.9965  0.5568 -999.25 
 -999.25 -999.25 -999.25 -999.25 -999.25 -999.25 -999.25 -999.25 -999.25 
 -999.25 -999.25 -999.25 -999.25  1.9851  10.995  136.77 -4.0680  2.6130 
  2.5330  2.4650  0.4030  54.350  0.5431  2.4650  2.6120  2.5608  2.0106 
  1309.000 
  10.251  52.868  0.5440  0.4030  0.0080 -36.190  2.6120  2.5280  2.4330 
  139.29  73.592  2.9530  6.4240 -999.25 -999.25 -999.25 -999.25 -999.25 
 -999.25 -999.25 -999.25 -999.25 -999.25 -999.25  1.9898  0.5640 -999.25 
 -999.25 -999.25 -999.25 -999.25 -999.25 -999.25 -999.25 -999.25 -999.25 
 -999.25 -999.25 -999.25 -999.25  1.9851  10.535  138.06 -4.1900  2.6120 
  2.5280  2.4330  0.4030  54.989  0.5508  2.4330  2.6106  2.5507  2.0008 
  1309.500 
  10.260  54.378  0.5400  0.3910  0.0230 -36.271  2.6070  2.5230  2.4200 
  139.98  73.598  3.0000  6.4260 -999.25 -999.25 -999.25 -999.25 -999.25 
 -999.25 -999.25 -999.25 -999.25 -999.25 -999.25  1.9851  0.5534 -999.25 
 -999.25 -999.25 -999.25 -999.25 -999.25 -999.25 -999.25 -999.25 -999.25 
 -999.25 -999.25 -999.25 -999.25  2.0049  10.301  139.29 -4.2710  2.6070 
  2.5230  2.4200  0.3910  57.075  0.5391  2.4200  2.6053  2.5431  1.9945 
  1310.000 
  10.299  56.048  0.5260  0.3790  0.0340 -36.314  2.6070  2.5320  2.4190 
  140.26  73.368  3.0890  6.4280 -999.25 -999.25 -999.25 -999.25 -999.25 
 -999.25 -999.25 -999.25 -999.25 -999.25 -999.25  1.9956  0.5419 -999.25 
 -999.25 -999.25 -999.25 -999.25 -999.25 -999.25 -999.25 -999.25 -999.25 
 -999.25 -999.25 -999.25 -999.25  2.0247  10.256  139.98 -4.3140  2.6070 
  2.5320  2.4190  0.3790  59.032  0.5264  2.4190  2.6053  2.5518  2.0047 
  1310.500 
  10.644  57.004  0.5230  0.3750  0.0390 -36.277  2.6010  2.5310  2.4360 
  140.60  73.136  3.1300  6.4270 -999.25 -999.25 -999.25 -999.25 -999.25 
 -999.25 -999.25 -999.25 -999.25 -999.25 -999.25  2.0154  0.5325 -999.25 
 -999.25 -999.25 -999.25 -999.25 -999.25 -999.25 -999.25 -999.25 -999.25 
 -999.25 -999.25 -999.25 -999.25  2.0312  10.281  140.26 -4.2770  2.6010 
  2.5310  2.4360  0.3750  60.812  0.5162  2.4360  2.5993  2.5510  2.0248 
  1311.000 
  11.159  53.446  0.5400  0.3770  0.0380 -36.240  2.5960  2.5310  2.4450 
  141.06  77.217  3.1350  6.4360 -999.25 -999.25 -999.25 -999.25 -999.25 
 -999.25 -999.25 -999.25 -999.25 -999.25 -999.25  2.0282  0.5244 -999.25 
 -999.25 -999.25 -999.25 -999.25 -999.25 -999.25 -999.25 -999.25 -999.25 
 -999.25 -999.25 -999.25 -999.25  2.0280  10.485  140.60 -4.2400  2.5960 
  2.5310  2.4450  0.3770  62.766  0.5073  2.4450  2.5945  2.5532  2.0389 
  1311.500 
  11.520  49.968  0.5680  0.3870  0.0350 -36.322  2.5910  2.5350  2.4490 
  141.45  87.529  3.1580  6.4360 -999.25 -999.25 -999.25 -999.25 -999.25 
 -999.25 -999.25 -999.25 -999.25 -999.25 -999.25  2.0295  0.5322 -999.25 
 -999.25 -999.25 -999.25 -999.25 -999.25 -999.25 -999.25 -999.25 -999.25 
 -999.25 -999.25 -999.25 -999.25  2.0115  10.923  141.06 -4.3220  2.5910 
  2.5350  2.4490  0.3870  62.805  0.5161  2.4490  2.5900  2.5620  2.0430 
  1312.000 
  11.984  48.073  0.5960  0.3910  0.0350 -36.365  2.5810  2.5350  2.4440 
  140.95  88.014  3.1610  6.4450 -999.25 -999.25 -999.25 -999.25 -999.25 
 -999.25 -999.25 -999.25 -999.25 -999.25 -999.25  2.0190  0.5552 -999.25 
 -999.25 -999.25 -999.25 -999.25 -999.25 -999.25 -999.25 -999.25 -999.25 
 -999.25 -999.25 -999.25 -999.25  2.0049  11.355  141.45 -4.3650  2.5810 
  2.5350  2.4440  0.3910  59.602  0.5415  2.4440  2.5804  2.5667  2.0352 
  1312.500 
  12.206  47.604  0.5950  0.3900  0.0350 -36.368  2.5810  2.5390  2.4350 
  140.50  88.027  3.1630  6.4540 -999.25 -999.25 -999.25 -999.25 -999.25 
 -999.25 -999.25 -999.25 -999.25 -999.25 -999.25  2.0078  0.5833 -999.25 
 -999.25 -999.25 -999.25 -999.25 -999.25 -999.25 -999.25 -999.25 -999.25 
 -999.25 -999.25 -999.25 -999.25  2.0065  11.774  140.95 -4.3680  2.5810 
  2.5390  2.4350  0.3900  56.986  0.5725  2.4350  2.5808  2.5754  2.0266 
  1313.000 
  12.119  49.115  0.5710  0.3910  0.0310 -36.292  2.5760  2.5340  2.4210 
  140.03  87.912  3.1740  6.4530 -999.25 -999.25 -999.25 -999.25 -999.25 
 -999.25 -999.25 -999.25 -999.25 -999.25 -999.25  2.0058  0.5954 -999.25 
 -999.25 -999.25 -999.25 -999.25 -999.25 -999.25 -999.25 -999.25 -999.25 
 -999.25 -999.25 -999.25 -999.25  2.0049  12.106  140.50 -4.2920  2.5760 
  2.5340  2.4210  0.3910  55.916  0.5859  2.4210  2.5768  2.5739  2.0264 
  1313.500 
  11.834  51.182  0.5520  0.4000  0.0230 -36.098  2.5750  2.5190  2.4070 
  139.55  87.796  3.1550  6.4620 -999.25 -999.25 -999.25 -999.25 -999.25 
 -999.25 -999.25 -999.25 -999.25 -999.25 -999.25  2.0056  0.5817 -999.25 
 -999.25 -999.25 -999.25 -999.25 -999.25 -999.25 -999.25 -999.25 -999.25 
 -999.25 -999.25 -999.25 -999.25  1.9900  12.158  140.03 -4.0980  2.5750 
  2.5190  2.4070  0.4000  56.287  0.5709  2.4070  2.5761  2.5589  2.0265 
  1314.000 
  11.478  52.534  0.5390  0.4070  0.0200 -36.101  2.5890  2.5240  2.4030 
  138.80  87.806  3.1280  6.4640 -999.25 -999.25 -999.25 -999.25 -999.25 
 -999.25 -999.25 -999.25 -999.25 -999.25 -999.25  1.9966  0.5604 -999.25 
 -999.25 -999.25 -999.25 -999.25 -999.25 -999.25 -999.25 -999.25 -999.25 
 -999.25 -999.25 -999.25 -999.25  1.9785  11.960  139.55 -4.1010  2.5890 
  2.5240  2.4030  0.4070  57.967  0.5474  2.4030  2.5890  2.5620  2.0164 
  1314.500 
  11.273  53.570  0.5350  0.4100  0.0200 -36.143  2.5930  2.5230  2.4150 
  138.33  87.815  3.1000  6.4660 -999.25 -999.25 -999.25 -999.25 -999.25 
 -999.25 -999.25 -999.25 -999.25 -999.25 -999.25  1.9835  0.5447 -999.25 
 -999.25 -999.25 -999.25 -999.25 -999.25 -999.25 -999.25 -999.25 -999.25 
 -999.25 -999.25 -999.25 -999.25  1.9735  11.635  138.80 -4.1430  2.5930 
  2.5230  2.4150  0.4100  59.519  0.5301  2.4150  2.5926  2.5574  2.0015 
  1315.000 
  11.301  52.862  0.5280  0.4100  0.0170 -36.028  2.5920  2.5360  2.4550 
  137.80  87.600  3.0280  6.4700 -999.25 -999.25 -999.25 -999.25 -999.25 
 -999.25 -999.25 -999.25 -999.25 -999.25 -999.25  1.9757  0.5367 -999.25 
 -999.25 -999.25 -999.25 -999.25 -999.25 -999.25 -999.25 -999.25 -999.25 
 -999.25 -999.25 -999.25 -999.25  1.9735  11.363  138.33 -4.0280  2.5920 
  2.5360  2.4550  0.4100  60.465  0.5212  2.4550  2.5914  2.5678  1.9920 
  1315.500 
  11.281  52.154  0.5380  0.4080  0.0060 -35.833  2.5970  2.5410  2.4680 
  137.10  87.606  2.9490  6.4790 -999.25 -999.25 -999.25 -999.25 -999.25 
 -999.25 -999.25 -999.25 -999.25 -999.25 -999.25  1.9735  0.5310 -999.25 
 -999.25 -999.25 -999.25 -999.25 -999.25 -999.25 -999.25 -999.25 -999.25 
 -999.25 -999.25 -999.25 -999.25  1.9768  11.289  137.80 -3.8330  2.5970 
  2.5410  2.4680  0.4080  60.813  0.5149  2.4680  2.5963  2.5721  1.9894 
  1316.000 
  11.079  50.501  0.5640  0.4000  0.0160 -35.639  2.5960  2.5590  2.4580 
  136.59  84.019  2.8770  6.4780 -999.25 -999.25 -999.25 -999.25 -999.25 
 -999.25 -999.25 -999.25 -999.25 -999.25 -999.25  1.9754  0.5337 -999.25 
 -999.25 -999.25 -999.25 -999.25 -999.25 -999.25 -999.25 -999.25 -999.25 
 -999.25 -999.25 -999.25 -999.25  1.9900  11.290  137.10 -3.6390  2.5960 
  2.5590  2.4580  0.4000  60.009  0.5178  2.4580  2.5953  2.5906  1.9913 
  1316.500 
  10.759  49.476  0.5660  0.3840  0.0410 -35.444  2.6050  2.5630  2.4360 
  136.28  80.910  2.8100  6.4870 -999.25 -999.25 -999.25 -999.25 -999.25 
 -999.25 -999.25 -999.25 -999.25 -999.25 -999.25  1.9844  0.5529 -999.25 
 -999.25 -999.25 -999.25 -999.25 -999.25 -999.25 -999.25 -999.25 -999.25 
 -999.25 -999.25 -999.25 -999.25  2.0164  11.165  136.59 -3.4440  2.6050 
  2.5630  2.4360  0.3840  58.614  0.5389  2.4360  2.6042  2.5933  1.9995 
