~Version Information
VERS.                     2.0: CWLS log ASCII Standard Version 2.00
WRAP.                     YES: Multiple lines per depth step
~Well Information Block
#MNEM.UNIT                               Data Type  Information
#---------                               ---------  -----------
STRT.FT                                   800.0000:
STOP.FT                                  5530.0000:
STEP.FT                                     0.5000:
NULL.                 -999.25                     :
COMP.                                             :COMPANY            
WELL.     SANTIAGO B 73-29                        :WELL               
FLD .                                             :FIELD              
CTRY.                                             :COUNTRY            
STAT.                                             :STATE              
LOC .                                             :LOCATION           
UWI .                                             :UNIQUE WELL ID     
SRVC.                                             :Service company    
DATE.                                             :LOG DATE           
~Curve Information
#MNEM.UNIT           API CODE  Curve Description
#---------           --------  -----------------
DEPT.FT                      :   1 DEPTH
SP  .MV                      :   2
GR  .GAPI                    :   3
ILD .OHMM                    :   4
ILM .OHMM                    :   5
SFL .OHMM                    :   6
DT  .US/F                    :   7
CALI.IN                      :   8
KSCI.                        :   9
PSCI.                        :  10
OSCI.                        :  11
WSCI.                        :  12
GR  .GAPI                    :  13
RHOB.G/C3                    :  14
NPHI.PU-S                    :  15
DRHO.G/C3                    :  16
SBL .MV                      :  17
GRS .GAPI                    :  18
RD  .OHMM                    :  19
RM  .OHMM                    :  20
RS  .OHMM                    :  21
R0BS.G/C3                    :  22
DRHS.G/C3                    :  23
GRS .GAPI                    :  24
NPHS.PU-S                    :  25
DTS .US/F                    :  26
CALS.IN                      :  27
SFLC.OHMM                    :  28
ILMC.OHMM                    :  29
ILDC.OHMM                    :  30
R0BC.G/C3                    :  31
GRC .GAPI                    :  32
NPHC.PU-S                    :  33
~A
# ...
  2699.500 
 -33.273  95.143  3.4560  3.1790  3.4540  87.985  9.8020 -999.25 -999.25 
 -999.25 -999.25 -999.25 -999.25 -999.25 -999.25 -9.2730  95.143  3.4560 
  3.1790  3.4540 -999.25 -999.25 -999.25 -999.25  84.403  9.7764  3.7387 
  3.1934  3.4536 -999.25 -999.25 -999.25 
  2700.000 
 -33.532  94.886  3.3880  3.2060  3.0340  94.339  9.7390 -999.25 -999.25 
 -999.25 -999.25 -999.25 -999.25 -999.25 -999.25 -9.5320  94.886  3.3880 
  3.2060  3.0340 -999.25 -999.25 -999.25 -999.25  86.954  9.7857  3.2896 
  3.2208  3.3857 -999.25 -999.25 -999.25 
  2700.500 
 -32.540  94.394  3.3590  3.2820  2.9260  95.531  9.7390 -999.25 -999.25 
 -999.25 -999.25 -999.25 -999.25 -999.25 -999.25 -8.5400  94.394  3.3590 
  3.2820  2.9260 -999.25 -999.25 -999.25 -999.25  91.805  9.7641  3.1725 
  3.2972  3.3567 -999.25 -999.25 -999.25 
  2701.000 
 -32.341  93.902  3.3600  3.3600  2.8480  97.222  9.7390 -999.25 -999.25 
 -999.25 -999.25 -999.25 -999.25 -999.25 -999.25 -8.3410  93.902  3.3600 
  3.3600  2.8480 -999.25 -999.25 -999.25 -999.25  95.054  9.7390  3.0875 
  3.3757  3.3577 -999.25 -999.25 -999.25 
  2701.500 
 -33.130  92.914  3.3930  3.5200  3.0390  91.232  9.7790 -999.25 -999.25 
 -999.25 -999.25 -999.25 -999.25 -999.25 -999.25 -9.1300  92.914  3.3930 
  3.5200  3.0390 -999.25 -999.25 -999.25 -999.25  96.543  9.7390  3.2919 
  3.5372  3.3906 -999.25 -999.25 -999.25 
  2702.000 
 -35.502  90.542  3.4570  3.5870  3.2120  90.030  9.7990 -999.25 -999.25 
 -999.25 -999.25 -999.25 -999.25 -999.25 -999.25 -11.502  90.542  3.4570 
  3.5870  3.2120 -999.25 -999.25 -999.25 -999.25  93.647  9.7629  3.4786 
  3.6052  3.4546 -999.25 -999.25 -999.25 
  2702.500 
 -36.489  89.752  3.4910  3.6890  3.4910  88.329  9.8390 -999.25 -999.25 
 -999.25 -999.25 -999.25 -999.25 -999.25 -999.25 -12.489  89.752  3.4910 
  3.6890  3.4910 -999.25 -999.25 -999.25 -999.25  90.516  9.7909  3.7794 
  3.7086  3.4886 -999.25 -999.25 -999.25 
  2703.000 
 -37.872  88.765  3.5570  3.7930  3.8280  86.329  9.8390 -999.25 -999.25 
 -999.25 -999.25 -999.25 -999.25 -999.25 -999.25 -13.872  88.765  3.5570 
  3.7930  3.8280 -999.25 -999.25 -999.25 -999.25  89.020  9.8228  4.1430 
  3.8143  3.5545 -999.25 -999.25 -999.25 
  2703.500 
 -40.243  88.965  3.6750  3.8300  4.0850  84.529  9.8390 -999.25 -999.25 
 -999.25 -999.25 -999.25 -999.25 -999.25 -999.25 -16.243  88.965  3.6750 
  3.8300  4.0850 -999.25 -999.25 -999.25 -999.25  87.144  9.8390  4.4199 
  3.8519  3.6724 -999.25 -999.25 -999.25 
  2704.000 
 -43.407  89.165  3.7970  3.8670  4.2790  83.327  9.8200 -999.25 -999.25 
 -999.25 -999.25 -999.25 -999.25 -999.25 -999.25 -19.407  89.165  3.7970 
  3.8670  4.2790 -999.25 -999.25 -999.25 -999.25  85.265  9.8390  4.6277 
  3.8893  3.7942 -999.25 -999.25 -999.25 
  2704.500 
 -44.394  89.760  3.9050  3.8690  4.4000  83.023  9.8200 -999.25 -999.25 
 -999.25 -999.25 -999.25 -999.25 -999.25 -999.25 -20.394  89.760  3.9050 
  3.8690  4.4000 -999.25 -999.25 -999.25 -999.25  83.820  9.8278  4.7560 
  3.8912  3.9020 -999.25 -999.25 -999.25 
  2705.000 
 -45.183  90.158  3.9070  3.8000  4.4020  83.616  9.8000 -999.25 -999.25 
 -999.25 -999.25 -999.25 -999.25 -999.25 -999.25 -21.183  90.158  3.9070 
  3.8000  4.4020 -999.25 -999.25 -999.25 -999.25  83.148  9.8200  4.7573 
  3.8213  3.9040 -999.25 -999.25 -999.25 
  2705.500 
 -45.379  91.940  3.9090  3.6990  4.4040  82.414  9.8000 -999.25 -999.25 
 -999.25 -999.25 -999.25 -999.25 -999.25 -999.25 -21.379  91.940  3.9090 
  3.6990  4.4040 -999.25 -999.25 -999.25 -999.25  83.371  9.8083  4.7582 
  3.7190  3.9060 -999.25 -999.25 -999.25 
  2706.000 
 -44.190  91.942  3.9100  3.5670  4.0940  77.023  9.8200 -999.25 -999.25 
 -999.25 -999.25 -999.25 -999.25 -999.25 -999.25 -20.190  91.942  3.9100 
  3.5670  4.0940 -999.25 -999.25 -999.25 -999.25  82.913  9.8000  4.4256 
  3.5855  3.9070 -999.25 -999.25 -999.25 
  2706.500 
 -40.825  92.142  3.8760  3.4080  3.7020  81.307  9.8210 -999.25 -999.25 
 -999.25 -999.25 -999.25 -999.25 -999.25 -999.25 -16.825  92.142  3.8760 
  3.4080  3.7020 -999.25 -999.25 -999.25 -999.25  79.268  9.8117  4.0071 
  3.4250  3.8730 -999.25 -999.25 -999.25 
  2707.000 
 -39.043  92.540  3.8070  3.2570  3.3170  84.693  9.8210 -999.25 -999.25 
 -999.25 -999.25 -999.25 -999.25 -999.25 -999.25 -15.043  92.540  3.8070 
  3.2570  3.3170 -999.25 -999.25 -999.25 -999.25  79.517  9.8206  3.5953 
  3.2726  3.8041 -999.25 -999.25 -999.25 
  2707.500 
 -36.865  94.718  3.7060  3.1990  3.0000  87.082  9.8310 -999.25 -999.25 
 -999.25 -999.25 -999.25 -999.25 -999.25 -999.25 -12.865  94.718  3.7060 
  3.1990  3.0000 -999.25 -999.25 -999.25 -999.25  83.273  9.8210  3.2554 
  3.2141  3.7033 -999.25 -999.25 -999.25 
  2708.000 
 -34.687  96.698  3.6400  3.2000  2.8930  87.277  9.8410 -999.25 -999.25 
 -999.25 -999.25 -999.25 -999.25 -999.25 -999.25 -10.687  96.698  3.6400 
  3.2000  2.8930 -999.25 -999.25 -999.25 -999.25  86.077  9.8268  3.1409 
  3.2152  3.6374 -999.25 -999.25 -999.25 
  2708.500 
 -33.102  97.294  3.5420  3.2310  2.7900  86.773  9.8410 -999.25 -999.25 
 -999.25 -999.25 -999.25 -999.25 -999.25 -999.25 -9.1020  97.294  3.5420 
  3.2310  2.7900 -999.25 -999.25 -999.25 -999.25  87.195  9.8368  3.0309 
  3.2466  3.5395 -999.25 -999.25 -999.25 
  2709.000 
 -32.309  99.076  3.5440  3.2780  2.8170  85.870  9.8310 -999.25 -999.25 
 -999.25 -999.25 -999.25 -999.25 -999.25 -999.25 -8.3090  99.076  3.5440 
  3.2780  2.8170 -999.25 -999.25 -999.25 -999.25  86.987  9.8410  3.0602 
  3.2941  3.5415 -999.25 -999.25 -999.25 
  2709.500 
 -32.109  99.672  3.4810  3.3250  2.8700  84.369  9.8220 -999.25 -999.25 
 -999.25 -999.25 -999.25 -999.25 -999.25 -999.25 -8.1090  99.672  3.4810 
  3.3250  2.8700 -999.25 -999.25 -999.25 -999.25  86.254  9.8353  3.1167 
  3.3415  3.4786 -999.25 -999.25 -999.25 
  2710.000 
 -32.898  98.289  3.4510  3.3570  2.9520  83.367  9.8120 -999.25 -999.25 
 -999.25 -999.25 -999.25 -999.25 -999.25 -999.25 -8.8980  98.289  3.4510 
  3.3570  2.9520 -999.25 -999.25 -999.25 -999.25  85.009  9.8258  3.2042 
  3.3737  3.4487 -999.25 -999.25 -999.25 
  2710.500 
 -31.511  95.917  3.4530  3.4210  3.0920  82.863  9.8020 -999.25 -999.25 
 -999.25 -999.25 -999.25 -999.25 -999.25 -999.25 -7.5110  95.917  3.4530 
  3.4210  3.0920 -999.25 -999.25 -999.25 -999.25  83.796  9.8163  3.3537 
  3.4382  3.4506 -999.25 -999.25 -999.25 
  2711.000 
 -30.125  94.732  3.4540  3.4230  3.0370  82.758  9.7430 -999.25 -999.25 
 -999.25 -999.25 -999.25 -999.25 -999.25 -999.25 -6.1250  94.732  3.4540 
  3.4230  3.0370 -999.25 -999.25 -999.25 -999.25  83.079  9.8063  3.2941 
  3.4401  3.4516 -999.25 -999.25 -999.25 
  2711.500 
 -30.716  94.734  3.5200  3.5200  2.9830  82.853  9.7430 -999.25 -999.25 
 -999.25 -999.25 -999.25 -999.25 -999.25 -999.25 -6.7160  94.734  3.5200 
  3.5200  2.9830 -999.25 -999.25 -999.25 -999.25  82.803  9.7684  3.2338 
  3.5376  3.5175 -999.25 -999.25 -999.25 
  2712.000 
 -32.099  96.120  3.5540  3.5540  3.0400  82.648  9.7340 -999.25 -999.25 
 -999.25 -999.25 -999.25 -999.25 -999.25 -999.25 -8.0990  96.120  3.5540 
  3.5540  3.0400 -999.25 -999.25 -999.25 -999.25  82.812  9.7430  3.2932 
  3.5716  3.5514 -999.25 -999.25 -999.25 
  2712.500 
 -33.482  95.133  3.6210  3.5550  3.3960  82.444  9.7240 -999.25 -999.25 
 -999.25 -999.25 -999.25 -999.25 -999.25 -999.25 -9.4820  95.133  3.6210 
  3.5550  3.3960 -999.25 -999.25 -999.25 -999.25  82.737  9.7379  3.6737 
  3.5725  3.6183 -999.25 -999.25 -999.25 
  2713.000 
 -33.876  93.750  3.6900  3.5570  3.5570  82.539  9.7040 -999.25 -999.25 
 -999.25 -999.25 -999.25 -999.25 -999.25 -999.25 -9.8760  93.750  3.6900 
  3.5570  3.5570 -999.25 -999.25 -999.25 -999.25  82.533  9.7284  3.8450 
  3.5744  3.6872 -999.25 -999.25 -999.25 
  2713.500 
 -34.072  93.357  3.7950  3.6250  3.6250  83.033  9.7050 -999.25 -999.25 
 -999.25 -999.25 -999.25 -999.25 -999.25 -999.25 -10.072  93.357  3.7950 
  3.6250  3.6250 -999.25 -999.25 -999.25 -999.25  82.497  9.7127  3.9164 
  3.6429  3.7920 -999.25 -999.25 -999.25 
