~Version Information
VERS.                     2.0: CWLS log ASCII Standard Version 2.00
WRAP.                     YES: Multiple lines per depth step
~Well Information Block
#MNEM.UNIT                               Data Type  Information
#---------                               ---------  -----------
STRT.FT                                   850.0000:
STOP.FT                                  6800.0000:
STEP.FT                                     0.5000:
NULL.                 -999.25                     :
COMP.                                             :COMPANY            
WELL.     SANTIAGO D #26-27                       :WELL               
FLD .                                             :FIELD              
CTRY.                                             :COUNTRY            
STAT.                                             :STATE              
LOC .                                             :LOCATION           
UWI .                                             :UNIQUE WELL ID     
SRVC.                                             :Service company    
DATE.                                             :LOG DATE           
~Curve Information
#MNEM.UNIT           API CODE  Curve Description
#---------           --------  -----------------
DEPT.FT                      :   1 DEPTH
DCAL.IN                      :   2
DGR .GAPI                    :   3
NPHI.PU-S                    :   4
DPHI.PU-S                    :   5
DRHO.G/C3                    :   6
AGR .GAPI                    :   7
ACAL.IN                      :   8
DT  .US/F                    :   9
GR  .GAPI                    :  10
SP  .MV                      :  11
ILM .OHMM                    :  12
ILD .OHMM                    :  13
SFLU.OHMM                    :  14
RHOB.G/C3                    :  15
RS  .OHMM                    :  16
RM  .OHMM                    :  17
RD  .OHMM                    :  18
GRS .GAPI                    :  19
SBL .MV                      :  20
ROBS.G/C3                    :  21
DRHS.G/C3                    :  22
CALS.IN                      :  23
GRS .GAPI                    :  24
NPHS.PU-S                    :  25
CALS.IN                      :  26
GRS .GAPI                    :  27
SFLU.OHMM                    :  28
ILMC.OHMM                    :  29
ILDC.OHMM                    :  30
ROBC.G/C3                    :  31
GRC .GAPI                    :  32
NPHC.PU-S                    :  33
~A
# ...
  4025.500 
  10.637  62.621  0.3530  0.2880  0.0410  57.435  12.991  106.56  61.400 
 -49.429  2.6960  2.7000  2.3940  2.1748  2.3940  2.6960  2.7000  61.400 
 -11.567  2.1748  0.0410  10.637  62.621  0.3492  12.991  57.435  2.6436 
  2.7096  2.6993  2.1865  66.733  0.3515 
  4026.000 
  10.633  62.229  0.3490  0.2850  0.0390  61.765  13.035  103.96  61.364 
 -50.059  2.6760  2.6910  2.5110  2.1798  2.5110  2.6760  2.6910  61.364 
 -12.198  2.1798  0.0390  10.633  62.229  0.3515  13.035  61.765  2.7720 
  2.6894  2.6903  2.1914  66.307  0.3543 
  4026.500 
  10.634  63.342  0.3500  0.2850  0.0380  71.693  12.928  101.22  58.912 
 -50.649  2.6330  2.6820  2.5620  2.1798  2.5620  2.6330  2.6820  58.912 
 -12.789  2.1798  0.0380  10.634  63.342  0.3608  12.928  71.693  2.8281 
  2.6460  2.6813  2.1914  67.495  0.3655 
  4027.000 
  10.634  64.574  0.3590  0.2890  0.0310  75.388  12.651  99.493  57.134 
 -51.002  2.5910  2.6430  2.5390  2.1732  2.5390  2.5910  2.6430  57.134 
 -13.143  2.1732  0.0310  10.634  64.574  0.3701  12.651  75.388  2.8029 
  2.6035  2.6423  2.1848  68.808  0.3768 
  4027.500 
  10.634  65.845  0.3690  0.2880  0.0280  77.654  12.588  99.253  57.811 
 -51.158  2.5960  2.6290  2.4170  2.1748  2.4170  2.5960  2.6290  57.811 
 -13.300  2.1748  0.0280  10.634  65.845  0.3740  12.588  77.654  2.6688 
  2.6086  2.6283  2.1865  70.162  0.3815 
  4028.000 
  10.639  66.324  0.3750  0.2860  0.0310  78.253  12.612  100.94  61.021 
 -51.312  2.6340  2.6390  2.3480  2.1781  2.3480  2.6340  2.6390  61.021 
 -13.454  2.1781  0.0310  10.639  66.324  0.3666  12.612  78.253  2.5931 
  2.6470  2.6383  2.1898  70.683  0.3726 
  4028.500 
  10.643  64.901  0.3700  0.2890  0.0350  75.874  12.592  105.20  64.113 
 -51.388  2.6590  2.6640  2.3480  2.1732  2.3480  2.6590  2.6640  64.113 
 -13.531  2.1732  0.0350  10.643  64.901  0.3520  12.592  75.874  2.5933 
  2.6723  2.6633  2.1849  69.175  0.3549 
  4029.000 
  10.663  62.884  0.3530  0.2870  0.0430  73.098  12.517  108.21  63.998 
 -51.345  2.6790  2.7040  2.3620  2.1765  2.3620  2.6790  2.7040  63.998 
 -13.489  2.1765  0.0430  10.663  62.884  0.3495  12.517  73.098  2.6094 
  2.6926  2.7033  2.1883  67.067  0.3519 
  4029.500 
  10.683  62.016  0.3480  0.2820  0.0600  70.243  12.498  105.47  60.834 
 -51.223  2.6790  2.7140  2.4140  2.1847  2.4140  2.6790  2.7140  60.834 
 -13.368  2.1847  0.0600  10.683  62.016  0.3596  12.498  70.243  2.6674 
  2.6927  2.7133  2.1967  66.182  0.3642 
  4030.000 
  10.783  61.782  0.3550  0.2800  0.0660  72.509  12.700  100.85  58.224 
 -50.585  2.6750  2.7190  2.5090  2.1880  2.5090  2.6750  2.7190  58.224 
 -12.731  2.1880  0.0660  10.783  61.782  0.3808  12.700  72.509  2.7760 
  2.6893  2.7183  2.2007  66.136  0.3899 
  4030.500 
  10.819  62.341  0.3760  0.2880  0.0550  74.775  12.935  99.442  56.643 
 -50.067  2.6610  2.7100  2.5650  2.1748  2.5650  2.6610  2.7100  56.643 
 -12.214  2.1748  0.0550  10.819  62.341  0.4046  12.935  74.775  2.8394 
  2.6753  2.7094  2.1877  66.808  0.4187 
  4031.000 
  10.811  62.899  0.3970  0.2920  0.0380  75.175  13.054  101.72  55.894 
 -49.390  2.6520  2.6960  2.5890  2.1682  2.5890  2.6520  2.6960  55.894 
 -11.537  2.1682  0.0380  10.811  62.899  0.4300  13.054  75.175  2.8655 
  2.6662  2.6954  2.1811  67.390  0.4494 
  4031.500 
  10.804  64.012  0.4290  0.2930  0.0230  74.146  13.055  104.40  56.611 
 -49.349  2.6370  2.6860  2.5470  2.1666  2.5470  2.6370  2.6860  56.611 
 -11.497  2.1666  0.0230  10.804  64.012  0.4267  13.055  74.146  2.8189 
  2.6510  2.6854  2.1794  68.567  0.4455 
  4032.000 
  10.796  65.363  0.4330  0.2880  0.0200  71.688  12.908  103.92  58.831 
 -49.820  2.6330  2.6620  2.4520  2.1748  2.4520  2.6330  2.6620  58.831 
 -11.969  2.1748  0.0200  10.796  65.363  0.4031  12.908  71.688  2.7137 
  2.6469  2.6614  2.1876  69.997  0.4169 
  4032.500 
  10.793  66.912  0.4080  0.2820  0.0290  69.707  12.662  103.76  62.359 
 -50.370  2.6240  2.6430  2.3690  2.1847  2.3690  2.6240  2.6430  62.359 
 -12.520  2.1847  0.0290  10.793  66.912  0.3869  12.662  69.707  2.6219 
  2.6378  2.6424  2.1974  71.650  0.3973 
  4033.000 
  10.789  68.024  0.3890  0.2790  0.0360  69.789  12.504  104.73  64.342 
 -50.526  2.6150  2.6390  2.3950  2.1897  2.3950  2.6150  2.6390  64.342 
 -12.677  2.1897  0.0360  10.789  68.024  0.3813  12.504  69.789  2.6505 
  2.6287  2.6384  2.2024  72.831  0.3905 
  4033.500 
  10.781  68.543  0.3810  0.2790  0.0420  71.578  12.579  106.29  65.771 
 -50.483  2.6150  2.6200  2.4180  2.1897  2.4180  2.6150  2.6200  65.771 
 -12.635  2.1897  0.0420  10.781  68.543  0.3845  12.579  71.578  2.6755 
  2.6286  2.6194  2.2023  73.369  0.3944 
  4034.000 
  10.790  68.745  0.3820  0.2840  0.0450  73.487  12.627  107.70  65.259 
 -50.320  2.6110  2.6060  2.4090  2.1814  2.4090  2.6110  2.6060  65.259 
 -12.472  2.1814  0.0450  10.790  68.745  0.3947  12.627  73.487  2.6660 
  2.6246  2.6054  2.1941  73.606  0.4068 
  4034.500 
  10.790  68.392  0.3910  0.2930  0.0430  73.848  12.616  107.12  62.492 
 -50.160  2.6020  2.5780  2.3440  2.1666  2.3440  2.6020  2.5780  62.492 
 -12.313  2.1666  0.0430  10.790  68.392  0.4072  12.616  73.848  2.5942 
  2.6155  2.5774  2.1793  73.228  0.4219 
  4035.000 
  10.798  66.811  0.4040  0.2990  0.0320  72.144  12.612  106.67  60.594 
 -49.879  2.5930  2.5600  2.3020  2.1567  2.3020  2.5930  2.5600  60.594 
 -12.033  2.1567  0.0320  10.798  66.811  0.4144  12.612  72.144  2.5481 
  2.6065  2.5594  2.1694  71.552  0.4306 
  4035.500 
  10.807  63.883  0.4150  0.3010  0.0260  70.162  12.573  106.49  60.716 
 -49.598  2.5880  2.5480  2.3200  2.1534  2.3200  2.5880  2.5480  60.716 
 -11.753  2.1534  0.0260  10.807  63.883  0.4080  12.573  70.162  2.5683 
  2.6015  2.5474  2.1662  68.435  0.4229 
  4036.000 
  10.811  61.826  0.4130  0.2910  0.0280  70.284  12.561  106.96  61.195 
 -49.278  2.5890  2.5370  2.3540  2.1699  2.3540  2.5890  2.5370  61.195 
 -11.434  2.1699  0.0280  10.811  61.826  0.3951  12.561  70.284  2.6060 
  2.6025  2.5364  2.1827  66.240  0.4072 
  4036.500 
  10.795  63.137  0.3970  0.2850  0.0300  72.550  12.562  107.21  60.683 
 -49.036  2.5850  2.5260  2.3720  2.1798  2.3720  2.5850  2.5260  60.683 
 -11.193  2.1798  0.0300  10.795  63.137  0.3923  12.562  72.550  2.6253 
  2.5984  2.5254  2.1925  67.611  0.4038 
  4037.000 
  10.756  64.686  0.3910  0.2850  0.0270  75.253  12.570  107.10  58.984 
 -48.953  2.5900  2.5150  2.3640  2.1798  2.3640  2.5900  2.5150  58.984 
 -11.110  2.1798  0.0270  10.756  64.686  0.3957  12.570  75.253  2.6150 
  2.6032  2.5144  2.1922  69.187  0.4078 
  4037.500 
  10.717  64.650  0.3950  0.2850  0.0210  77.162  12.590  106.32  60.176 
 -48.872  2.5900  2.5060  2.3420  2.1798  2.3420  2.5900  2.5060  60.176 
 -11.030  2.1798  0.0210  10.717  64.650  0.3956  12.590  77.162  2.5894 
  2.6030  2.5054  2.1920  69.066  0.4078 
  4038.000 
  10.702  62.990  0.3970  0.2810  0.0280  77.919  12.515  105.57  62.713 
 -48.868  2.5860  2.5000  2.3170  2.1864  2.3170  2.5860  2.5000  62.713 
 -11.027  2.1864  0.0280  10.702  62.990  0.3906  12.515  77.919  2.5613 
  2.5989  2.4994  2.1985  67.261  0.4016 
  4038.500 
  10.702  62.875  0.3930  0.2800  0.0320  77.724  12.352  105.05  64.143 
 -48.864  2.5770  2.4930  2.3090  2.1880  2.3090  2.5770  2.4930  64.143 
 -11.024  2.1880  0.0320  10.702  62.875  0.3825  12.352  77.724  2.5525 
  2.5898  2.4924  2.2001  67.138  0.3918 
  4039.000 
  10.706  64.027  0.3860  0.2960  0.0300  76.616  12.353  105.86  63.235 
 -48.821  2.5680  2.4780  2.3100  2.1616  2.3100  2.5680  2.4780  63.235 
 -10.982  2.1616  0.0300  10.706  64.027  0.3749  12.353  76.616  2.5537 
  2.5807  2.4774  2.1738  68.377  0.3827 
  4039.500 
  10.711  65.814  0.3760  0.3050  0.0180  73.681  12.397  106.51  62.882 
 -48.779  2.5590  2.4620  2.3060  2.1467  2.3060  2.5590  2.4620  62.882 
 -10.940  2.1467  0.0180  10.711  65.814  0.3745  12.397  73.681  2.5495 
  2.5717  2.4614  2.1590  70.296  0.3822 
