~Version Information
VERS.                     2.0: CWLS log ASCII Standard Version 2.00
WRAP.                     YES: Multiple lines per depth step
~Well Information Block
#MNEM.UNIT                               Data Type  Information
#---------                               ---------  -----------
STRT.FT                                   120.0000:
STOP.FT                                  3000.0000:
STEP.FT                                     0.5000:
NULL.                 -999.25                     :
COMP.                                             :COMPANY            
WELL.     LOS LOBOS 62X-30                        :WELL               
FLD .                                             :FIELD              
CTRY.                                             :COUNTRY            
STAT.                                             :STATE              
LOC .                                             :LOCATION           
UWI .                                             :UNIQUE WELL ID     
SRVC.                                             :Service company    
DATE.                                             :LOG DATE           
~Curve Information
#MNEM.UNIT           API CODE  Curve Description
#---------           --------  -----------------
DEPT.FT                      :   1 DEPTH
CALI.IN                      :   2
GR  .GAPI                    :   3
NPHI.PU-S                    :   4
DPHI.PU-S                    :   5
DRHO.G/C3                    :   6
SP  .MV                      :   7
ILD .OHMM                    :   8
ILM .OHMM                    :   9
LL8U.OHMM                    :  10
DT  .US/F                    :  11
ROP .                        :  12
GASR.                        :  13
C1R .                        :  14
C2R .                        :  15
C3R .                        :  16
C4R .                        :  17
KSCI.                        :  18
PSCI.                        :  19
OSCI.                        :  20
WSCI.                        :  21
KWCI.                        :  22
PWCI.                        :  23
OWCI.                        :  24
WWCI.                        :  25
ROBS.G/C3                    :  26
NPHS.PU-S                    :  27
PWCL.                        :  28
OWCL.                        :  29
WWCL.                        :  30
KWCL.                        :  31
VCLD.                        :  32
VCLW.                        :  33
VSHL.                        :  34
PHIE.                        :  35
PHIT.                        :  36
SWE .                        :  37
SWT .                        :  38
SWTU.                        :  39
RMAT.                        :  40
BVWE.                        :  41
RHOB.G/C3                    :  42
CALS.IN                      :  43
DTS .US/F                    :  44
SBL .MV                      :  45
RD  .OHMM                    :  46
RM  .OHMM                    :  47
RS  .OHMM                    :  48
DPHI.                        :  49
GRC .GAPI                    :  50
NPHC.PU-S                    :  51
LL8C.OHMM                    :  52
ILDC.OHMM                    :  53
ILMC.OHMM                    :  54
ROBC.G/C3                    :  55
~A
# ...
   975.000 
  12.688  49.448  0.6040  0.4790  0.0040 -38.025  2.6360  2.4500  2.2780 
  152.18  99.441  1.1290  4.9300 -999.25 -999.25 -999.25 -999.25 -999.25 
 -999.25 -999.25 -999.25 -999.25 -999.25 -999.25  1.9026  0.5930 -999.25 
 -999.25 -999.25 -999.25 -999.25 -999.25 -999.25 -999.25 -999.25 -999.25 
 -999.25 -999.25 -999.25 -999.25  1.8597  13.582  153.24 -6.0250  2.6360 
  2.4500  2.2780  0.4790  58.654  0.5838  2.2780  2.6480  2.5024  1.9308 
   975.500 
  12.254  48.823  0.5830  0.4720 -0.0010 -38.033  2.5960  2.4630  2.2490 
  151.54  98.960  1.1650  4.9060 -999.25 -999.25 -999.25 -999.25 -999.25 
 -999.25 -999.25 -999.25 -999.25 -999.25 -999.25  1.8861  0.6090 -999.25 
 -999.25 -999.25 -999.25 -999.25 -999.25 -999.25 -999.25 -999.25 -999.25 
 -999.25 -999.25 -999.25 -999.25  1.8712  13.661  152.18 -6.0330  2.5960 
  2.4630  2.2490  0.4720  59.611  0.6015  2.2490  2.6082  2.5168  1.9146 
   976.000 
  12.235  48.120  0.5760  0.4550 -0.0020 -38.045  2.5860  2.4710  2.3100 
  150.87  98.955  1.1890  4.9000 -999.25 -999.25 -999.25 -999.25 -999.25 
 -999.25 -999.25 -999.25 -999.25 -999.25 -999.25  1.8679  0.6170 -999.25 
 -999.25 -999.25 -999.25 -999.25 -999.25 -999.25 -999.25 -999.25 -999.25 
 -999.25 -999.25 -999.25 -999.25  1.8993  13.464  151.54 -6.0450  2.5860 
  2.4710  2.3100  0.4550  59.847  0.6102  2.3100  2.5967  2.5231  1.8956 
   976.500 
  12.168  47.574  0.5800  0.4460  0.0040 -38.053  2.5810  2.4840  2.3310 
  150.46  98.953  1.1950  4.8900 -999.25 -999.25 -999.25 -999.25 -999.25 
 -999.25 -999.25 -999.25 -999.25 -999.25 -999.25  1.8597  0.6040 -999.25 
 -999.25 -999.25 -999.25 -999.25 -999.25 -999.25 -999.25 -999.25 -999.25 
 -999.25 -999.25 -999.25 -999.25  1.9141  12.688  150.87 -6.0530  2.5810 
  2.4840  2.3310  0.4460  58.543  0.5956  2.3310  2.5860  2.5284  1.8835 
   977.000 
  11.971  46.950  0.6110  0.4410  0.0100 -38.144  2.5800  2.4830  2.3380 
  150.33  98.948  1.2070  4.8750 -999.25 -999.25 -999.25 -999.25 -999.25 
 -999.25 -999.25 -999.25 -999.25 -999.25 -999.25  1.8712  0.5830 -999.25 
 -999.25 -999.25 -999.25 -999.25 -999.25 -999.25 -999.25 -999.25 -999.25 
 -999.25 -999.25 -999.25 -999.25  1.9224  12.254  150.46 -6.1440  2.5800 
  2.4830  2.3380  0.4410  57.130  0.5723  2.3380  2.5818  2.5228  1.8927 
   977.500 
  11.790  47.035  0.6150  0.4390  0.0150 -38.191  2.5790  2.4780  2.3290 
  150.63  98.944  1.2200  4.8750 -999.25 -999.25 -999.25 -999.25 -999.25 
 -999.25 -999.25 -999.25 -999.25 -999.25 -999.25  1.8993  0.5760 -999.25 
 -999.25 -999.25 -999.25 -999.25 -999.25 -999.25 -999.25 -999.25 -999.25 
 -999.25 -999.25 -999.25 -999.25  1.9257  12.235  150.33 -6.1910  2.5790 
  2.4780  2.3290  0.4390  56.294  0.5646  2.3290  2.5807  2.5175  1.9206 
   978.000 
  11.865  48.382  0.5970  0.4400  0.0190 -38.320  2.5830  2.4770  2.3370 
  150.95  98.940  1.2320  4.8740 -999.25 -999.25 -999.25 -999.25 -999.25 
 -999.25 -999.25 -999.25 -999.25 -999.25 -999.25  1.9141  0.5800 -999.25 
 -999.25 -999.25 -999.25 -999.25 -999.25 -999.25 -999.25 -999.25 -999.25 
 -999.25 -999.25 -999.25 -999.25  1.9240  12.168  150.63 -6.3200  2.5830 
  2.4770  2.3370  0.4400  55.539  0.5690  2.3370  2.5842  2.5157  1.9351 
   978.500 
  12.296  50.912  0.5900  0.4530  0.0160 -38.331  2.5870  2.4810  2.3620 
  151.20  98.463  1.2440  4.8740 -999.25 -999.25 -999.25 -999.25 -999.25 
 -999.25 -999.25 -999.25 -999.25 -999.25 -999.25  1.9224  0.6110 -999.25 
 -999.25 -999.25 -999.25 -999.25 -999.25 -999.25 -999.25 -999.25 -999.25 
 -999.25 -999.25 -999.25 -999.25  1.9026  11.971  150.95 -6.3310  2.5870 
  2.4810  2.3620  0.4530  54.614  0.6030  2.3620  2.5870  2.5178  1.9423 
   979.000 
  12.489  53.284  0.5890  0.4610  0.0040 -38.379  2.5720  2.4800  2.3610 
  151.24  98.458  1.2500  4.8730 -999.25 -999.25 -999.25 -999.25 -999.25 
 -999.25 -999.25 -999.25 -999.25 -999.25 -999.25  1.9257  0.6150 -999.25 
 -999.25 -999.25 -999.25 -999.25 -999.25 -999.25 -999.25 -999.25 -999.25 
 -999.25 -999.25 -999.25 -999.25  1.8894  11.790  151.20 -6.3790  2.5720 
  2.4800  2.3610  0.4610  54.626  0.6073  2.3610  2.5718  2.5149  1.9445 
   979.500 
  12.556  55.183  0.5900  0.4610 -0.0010 -38.509  2.5660  2.4790  2.3730 
  149.18  98.453  1.2500  4.8680 -999.25 -999.25 -999.25 -999.25 -999.25 
 -999.25 -999.25 -999.25 -999.25 -999.25 -999.25  1.9240  0.5970 -999.25 
 -999.25 -999.25 -999.25 -999.25 -999.25 -999.25 -999.25 -999.25 -999.25 
 -999.25 -999.25 -999.25 -999.25  1.8894  11.865  151.24 -6.5090  2.5660 
  2.4790  2.3730  0.4610  56.494  0.5876  2.3730  2.5659  2.5146  1.9433 
   980.000 
  12.206  54.716  0.5970  0.4450  0.0020 -38.516  2.5610  2.4920  2.4160 
  148.59  99.404  1.2500  4.8720 -999.25 -999.25 -999.25 -999.25 -999.25 
 -999.25 -999.25 -999.25 -999.25 -999.25 -999.25  1.9026  0.5900 -999.25 
 -999.25 -999.25 -999.25 -999.25 -999.25 -999.25 -999.25 -999.25 -999.25 
 -999.25 -999.25 -999.25 -999.25  1.9158  12.296  149.18 -6.5160  2.5610 
  2.4920  2.4160  0.4450  60.122  0.5800  2.4160  2.5631  2.5325  1.9243 
   980.500 
  11.792  53.303  0.6180  0.4400  0.0240 -38.560  2.5600  2.4910  2.4060 
  148.67  100.36  1.2500  4.8720 -999.25 -999.25 -999.25 -999.25 -999.25 
 -999.25 -999.25 -999.25 -999.25 -999.25 -999.25  1.8894  0.5890 -999.25 
 -999.25 -999.25 -999.25 -999.25 -999.25 -999.25 -999.25 -999.25 -999.25 
 -999.25 -999.25 -999.25 -999.25  1.9240  12.489  148.59 -6.5600  2.5600 
  2.4910  2.4060  0.4400  63.162  0.5790  2.4060  2.5635  2.5336  1.9121 
   981.000 
  11.887  52.363  0.6210  0.4410  0.0380 -38.563  2.5640  2.4990  2.4400 
  148.95  100.59  1.2510  4.8710 -999.25 -999.25 -999.25 -999.25 -999.25 
 -999.25 -999.25 -999.25 -999.25 -999.25 -999.25  1.8894  0.5900 -999.25 
 -999.25 -999.25 -999.25 -999.25 -999.25 -999.25 -999.25 -999.25 -999.25 
 -999.25 -999.25 -999.25 -999.25  1.9224  12.556  148.67 -6.5630  2.5640 
  2.4990  2.4400  0.4410  65.113  0.5801  2.4400  2.5680  2.5425  1.9125 
   981.500 
  12.156  52.921  0.5910  0.4540  0.0460 -38.605  2.5490  2.4940  2.4400 
  149.27  100.82  1.2570  4.8710 -999.25 -999.25 -999.25 -999.25 -999.25 
 -999.25 -999.25 -999.25 -999.25 -999.25 -999.25  1.9158  0.5970 -999.25 
 -999.25 -999.25 -999.25 -999.25 -999.25 -999.25 -999.25 -999.25 -999.25 
 -999.25 -999.25 -999.25 -999.25  1.9009  12.206  148.95 -6.6050  2.5490 
  2.4940  2.4400  0.4540  63.790  0.5877  2.4400  2.5505  2.5337  1.9370 
   982.000 
  12.223  53.401  0.5860  0.4600  0.0500 -38.648  2.5390  2.4660  2.4260 
  149.77  100.82  1.2570  4.8800 -999.25 -999.25 -999.25 -999.25 -999.25 
 -999.25 -999.25 -999.25 -999.25 -999.25 -999.25  1.9240  0.6180 -999.25 
 -999.25 -999.25 -999.25 -999.25 -999.25 -999.25 -999.25 -999.25 -999.25 
 -999.25 -999.25 -999.25 -999.25  1.8910  11.792  149.27 -6.6480  2.5390 
  2.4660  2.4260  0.4600  61.509  0.6106  2.4260  2.5388  2.5005  1.9429 
   982.500 
  12.200  53.722  0.6030  0.4570  0.0490 -38.651  2.5150  2.4510  2.4070 
  149.93  100.58  1.2510  4.8890 -999.25 -999.25 -999.25 -999.25 -999.25 
 -999.25 -999.25 -999.25 -999.25 -999.25 -999.25  1.9224  0.6210 -999.25 
 -999.25 -999.25 -999.25 -999.25 -999.25 -999.25 -999.25 -999.25 -999.25 
 -999.25 -999.25 -999.25 -999.25  1.8960  11.887  149.77 -6.6510  2.5150 
  2.4510  2.4070  0.4570  60.860  0.6139  2.4070  2.5149  2.4860  1.9418 
   983.000 
  11.983  52.703  0.6130  0.4480  0.0490 -38.692  2.4950  2.4370  2.3890 
  150.10  100.33  1.2510  4.8880 -999.25 -999.25 -999.25 -999.25 -999.25 
 -999.25 -999.25 -999.25 -999.25 -999.25 -999.25  1.9009  0.5910 -999.25 
 -999.25 -999.25 -999.25 -999.25 -999.25 -999.25 -999.25 -999.25 -999.25 
 -999.25 -999.25 -999.25 -999.25  1.9108  12.156  149.93 -6.6920  2.4950 
  2.4370  2.3890  0.4480  61.953  0.5811  2.3890  2.4961  2.4743  1.9218 
   983.500 
  11.979  50.344  0.5900  0.4460  0.0580 -38.775  2.4950  2.4180  2.3840 
  150.26  100.21  1.2510  4.8880 -999.25 -999.25 -999.25 -999.25 -999.25 
 -999.25 -999.25 -999.25 -999.25 -999.25 -999.25  1.8910  0.5860 -999.25 
 -999.25 -999.25 -999.25 -999.25 -999.25 -999.25 -999.25 -999.25 -999.25 
 -999.25 -999.25 -999.25 -999.25  1.9141  12.223  150.10 -6.7750  2.4950 
  2.4180  2.3840  0.4460  62.598  0.5756  2.3840  2.4965  2.4554  1.9123 
