~Version Information
VERS.                     2.0: CWLS log ASCII Standard Version 2.00
WRAP.                     YES: Multiple lines per depth step
~Well Information Block
#MNEM.UNIT                               Data Type  Information
#---------                               ---------  -----------
STRT.FT                                   120.0000:
STOP.FT                                  3000.0000:
STEP.FT                                     0.5000:
NULL.                 -999.25                     :
COMP.                                             :COMPANY            
WELL.     LOS LOBOS 62X-30                        :WELL               
FLD .                                             :FIELD              
CTRY.                                             :COUNTRY            
STAT.                                             :STATE              
LOC .                                             :LOCATION           
UWI .                                             :UNIQUE WELL ID     
SRVC.                                             :Service company    
DATE.                                             :LOG DATE           
~Curve Information
#MNEM.UNIT           API CODE  Curve Description
#---------           --------  -----------------
DEPT.FT                      :   1 DEPTH
CALI.IN                      :   2
GR  .GAPI                    :   3
NPHI.PU-S                    :   4
DPHI.PU-S                    :   5
DRHO.G/C3                    :   6
SP  .MV                      :   7
ILD .OHMM                    :   8
ILM .OHMM                    :   9
LL8U.OHMM                    :  10
DT  .US/F                    :  11
ROP .                        :  12
GASR.                        :  13
C1R .                        :  14
C2R .                        :  15
C3R .                        :  16
C4R .                        :  17
KSCI.                        :  18
PSCI.                        :  19
OSCI.                        :  20
WSCI.                        :  21
KWCI.                        :  22
PWCI.                        :  23
OWCI.                        :  24
WWCI.                        :  25
ROBS.G/C3                    :  26
NPHS.PU-S                    :  27
PWCL.                        :  28
OWCL.                        :  29
WWCL.                        :  30
KWCL.                        :  31
VCLD.                        :  32
VCLW.                        :  33
VSHL.                        :  34
PHIE.                        :  35
PHIT.                        :  36
SWE .                        :  37
SWT .                        :  38
SWTU.                        :  39
RMAT.                        :  40
BVWE.                        :  41
RHOB.G/C3                    :  42
CALS.IN                      :  43
DTS .US/F                    :  44
SBL .MV                      :  45
RD  .OHMM                    :  46
RM  .OHMM                    :  47
RS  .OHMM                    :  48
DPHI.                        :  49
GRC .GAPI                    :  50
NPHC.PU-S                    :  51
LL8C.OHMM                    :  52
ILDC.OHMM                    :  53
ILMC.OHMM                    :  54
ROBC.G/C3                    :  55
~A
# ...
  1479.000 
  11.020  45.833  0.5700  0.4140  0.0160 -40.468  2.1980  2.2380  2.2630 
  148.47  78.602  4.8260  8.3240 -999.25 -999.25 -999.25 -999.25 -999.25 
 -999.25 -999.25 -999.25 -999.25 -999.25 -999.25  1.9632  0.5664 -999.25 
 -999.25 -999.25 -999.25 -999.25 -999.25 -999.25 -999.25 -999.25 -999.25 
 -999.25 -999.25 -999.25 -999.25  1.9669  11.182  148.46 -8.4680  2.1980 
  2.2380  2.2630  0.4140  51.322  0.5537  2.2630  2.1974  2.2612  1.9784 
  1479.500 
  11.227  45.127  0.5790  0.4240  0.0070 -40.434  2.2050  2.2420  2.2370 
  148.25  78.616  4.8730  8.3290 -999.25 -999.25 -999.25 -999.25 -999.25 
 -999.25 -999.25 -999.25 -999.25 -999.25 -999.25  1.9716  0.5636 -999.25 
 -999.25 -999.25 -999.25 -999.25 -999.25 -999.25 -999.25 -999.25 -999.25 
 -999.25 -999.25 -999.25 -999.25  1.9504  10.925  148.27 -8.4340  2.2050 
  2.2420  2.2370  0.4240  51.211  0.5505  2.2370  2.2042  2.2631  1.9852 
  1480.000 
  10.989  45.291  0.5810  0.4420  0.0000 -40.439  2.2130  2.2370  2.2330 
  148.59  78.635  4.9260  8.3380 -999.25 -999.25 -999.25 -999.25 -999.25 
 -999.25 -999.25 -999.25 -999.25 -999.25 -999.25  1.9688  0.5679 -999.25 
 -999.25 -999.25 -999.25 -999.25 -999.25 -999.25 -999.25 -999.25 -999.25 
 -999.25 -999.25 -999.25 -999.25  1.9207  10.973  148.62 -8.4390  2.2130 
  2.2370  2.2330  0.4420  52.362  0.5553  2.2330  2.2123  2.2584  1.9827 
  1480.500 
  10.819  46.249  0.5840  0.4520 -0.0040 -40.481  2.2240  2.2280  2.2320 
  149.05  78.770  4.9630  8.8040 -999.25 -999.25 -999.25 -999.25 -999.25 
 -999.25 -999.25 -999.25 -999.25 -999.25 -999.25  1.9553  0.5763 -999.25 
 -999.25 -999.25 -999.25 -999.25 -999.25 -999.25 -999.25 -999.25 -999.25 
 -999.25 -999.25 -999.25 -999.25  1.9042  11.165  149.07 -8.4810  2.2240 
  2.2280  2.2320  0.4520  53.587  0.5646  2.2320  2.2234  2.2509  1.9704 
  1481.000 
  10.998  47.046  0.5860  0.4560 -0.0050 -40.287  2.2320  2.2280  2.2320 
  149.45  78.906  5.0010  8.8270 -999.25 -999.25 -999.25 -999.25 -999.25 
 -999.25 -999.25 -999.25 -999.25 -999.25 -999.25  1.9298  0.5804 -999.25 
 -999.25 -999.25 -999.25 -999.25 -999.25 -999.25 -999.25 -999.25 -999.25 
 -999.25 -999.25 -999.25 -999.25  1.8976  11.062  149.43 -8.2870  2.2320 
  2.2280  2.2320  0.4560  54.159  0.5690  2.2320  2.2313  2.2500  1.9442 
  1481.500 
  11.180  47.845  0.5490  0.4540 -0.0040 -40.172  2.2350  2.2190  2.2150 
  149.19  78.926  5.0900  8.8310 -999.25 -999.25 -999.25 -999.25 -999.25 
 -999.25 -999.25 -999.25 -999.25 -999.25 -999.25  1.9093  0.5831 -999.25 
 -999.25 -999.25 -999.25 -999.25 -999.25 -999.25 -999.25 -999.25 -999.25 
 -999.25 -999.25 -999.25 -999.25  1.9009  10.872  149.15 -8.1720  2.2350 
  2.2190  2.2150  0.4540  53.567  0.5719  2.2150  2.2342  2.2393  1.9226 
  1482.000 
  11.228  47.614  0.5440  0.4450  0.0020 -40.176  2.2390  2.2150  2.2110 
  148.67  78.946  5.1160  8.8330 -999.25 -999.25 -999.25 -999.25 -999.25 
 -999.25 -999.25 -999.25 -999.25 -999.25 -999.25  1.8997  0.5854 -999.25 
 -999.25 -999.25 -999.25 -999.25 -999.25 -999.25 -999.25 -999.25 -999.25 
 -999.25 -999.25 -999.25 -999.25  1.9158  10.941  148.62 -8.1760  2.2390 
  2.2150  2.2110  0.4450  53.575  0.5744  2.2110  2.2382  2.2358  1.9134 
  1482.500 
  10.896  47.303  0.5390  0.4400  0.0100 -40.140  2.2510  2.2140  2.2260 
  148.08  78.972  5.1420  8.8350 -999.25 -999.25 -999.25 -999.25 -999.25 
 -999.25 -999.25 -999.25 -999.25 -999.25 -999.25  1.8998  0.5610 -999.25 
 -999.25 -999.25 -999.25 -999.25 -999.25 -999.25 -999.25 -999.25 -999.25 
 -999.25 -999.25 -999.25 -999.25  1.9240  11.121  148.04 -8.1400  2.2510 
  2.2140  2.2260  0.4400  54.807  0.5478  2.2260  2.2504  2.2362  1.9147 
  1483.000 
  10.599  48.182  0.5420  0.4360  0.0120 -40.065  2.2540  2.2180  2.2460 
  147.60  78.992  5.2060  8.8350 -999.25 -999.25 -999.25 -999.25 -999.25 
 -999.25 -999.25 -999.25 -999.25 -999.25 -999.25  1.9108  0.5457 -999.25 
 -999.25 -999.25 -999.25 -999.25 -999.25 -999.25 -999.25 -999.25 -999.25 
 -999.25 -999.25 -999.25 -999.25  1.9306  11.212  147.57 -8.0650  2.2540 
  2.2180  2.2460  0.4360  55.524  0.5309  2.2460  2.2534  2.2411  1.9262 
  1483.500 
  10.516  48.741  0.5770  0.4380  0.0090 -39.989  2.2580  2.2330  2.2460 
  147.22  78.770  5.2410  8.8340 -999.25 -999.25 -999.25 -999.25 -999.25 
 -999.25 -999.25 -999.25 -999.25 -999.25 -999.25  1.9212  0.5407 -999.25 
 -999.25 -999.25 -999.25 -999.25 -999.25 -999.25 -999.25 -999.25 -999.25 
 -999.25 -999.25 -999.25 -999.25  1.9273  11.008  147.27 -7.9890  2.2580 
  2.2330  2.2460  0.4380  54.880  0.5254  2.2460  2.2573  2.2547  1.9353 
  1484.000 
  10.734  48.985  0.5910  0.4450  0.0040 -40.071  2.2620  2.2330  2.2410 
  147.66  76.873  5.2760  8.8390 -999.25 -999.25 -999.25 -999.25 -999.25 
 -999.25 -999.25 -999.25 -999.25 -999.25 -999.25  1.9283  0.5410 -999.25 
 -999.25 -999.25 -999.25 -999.25 -999.25 -999.25 -999.25 -999.25 -999.25 
 -999.25 -999.25 -999.25 -999.25  1.9158  10.701  147.71 -8.0710  2.2620 
  2.2330  2.2410  0.4450  52.429  0.5256  2.2410  2.2610  2.2521  1.9405 
  1484.500 
  11.067  47.013  0.5610  0.4480  0.0170 -40.390  2.2570  2.2320  2.2360 
  148.12  72.822  5.3350  8.8430 -999.25 -999.25 -999.25 -999.25 -999.25 
 -999.25 -999.25 -999.25 -999.25 -999.25 -999.25  1.9285  0.5648 -999.25 
 -999.25 -999.25 -999.25 -999.25 -999.25 -999.25 -999.25 -999.25 -999.25 
 -999.25 -999.25 -999.25 -999.25  1.9108  10.545  148.16 -8.3900  2.2570 
  2.2320  2.2360  0.4480  51.403  0.5516  2.2360  2.2559  2.2498  1.9396 
  1485.000 
  11.222  46.147  0.5540  0.4500  0.0310 -40.592  2.2560  2.2440  2.2320 
  148.44  72.841  5.3640  8.8420 -999.25 -999.25 -999.25 -999.25 -999.25 
 -999.25 -999.25 -999.25 -999.25 -999.25 -999.25  1.9199  0.5860 -999.25 
 -999.25 -999.25 -999.25 -999.25 -999.25 -999.25 -999.25 -999.25 -999.25 
 -999.25 -999.25 -999.25 -999.25  1.9075  10.656  148.47 -8.5920  2.2560 
  2.2440  2.2320  0.4500  51.883  0.5750  2.2320  2.2550  2.2629  1.9317 
  1485.500 
  11.108  45.995  0.5550  0.4530  0.0370 -40.713  2.2560  2.2480  2.2230 
  148.70  72.864  5.3990  8.8460 -999.25 -999.25 -999.25 -999.25 -999.25 
 -999.25 -999.25 -999.25 -999.25 -999.25 -999.25  1.9126  0.5719 -999.25 
 -999.25 -999.25 -999.25 -999.25 -999.25 -999.25 -999.25 -999.25 -999.25 
 -999.25 -999.25 -999.25 -999.25  1.9026  10.946  148.69 -8.7130  2.2560 
  2.2480  2.2230  0.4530  53.744  0.5596  2.2230  2.2552  2.2694  1.9263 
  1486.000 
  10.874  47.349  0.5690  0.4620  0.0420 -40.598  2.2550  2.2470  2.2190 
  148.60  72.883  5.4270  8.8460 -999.25 -999.25 -999.25 -999.25 -999.25 
 -999.25 -999.25 -999.25 -999.25 -999.25 -999.25  1.9087  0.5566 -999.25 
 -999.25 -999.25 -999.25 -999.25 -999.25 -999.25 -999.25 -999.25 -999.25 
 -999.25 -999.25 -999.25 -999.25  1.8877  11.165  148.57 -8.5980  2.2550 
  2.2470  2.2190  0.4620  54.929  0.5429  2.2190  2.2544  2.2703  1.9238 
  1486.500 
  10.724  48.227  0.5720  0.4630  0.0480 -40.483  2.2470  2.2550  2.2340 
  148.36  73.135  5.4450  8.8500 -999.25 -999.25 -999.25 -999.25 -999.25 
 -999.25 -999.25 -999.25 -999.25 -999.25 -999.25  1.9044  0.5546 -999.25 
 -999.25 -999.25 -999.25 -999.25 -999.25 -999.25 -999.25 -999.25 -999.25 
 -999.25 -999.25 -999.25 -999.25  1.8861  11.151  148.36 -8.4830  2.2470 
  2.2550  2.2340  0.4630  55.321  0.5408  2.2340  2.2464  2.2783  1.9194 
  1487.000 
  10.732  48.587  0.5500  0.4530  0.0520 -40.329  2.2460  2.2500  2.2460 
  148.32  73.154  5.4620  8.8550 -999.25 -999.25 -999.25 -999.25 -999.25 
 -999.25 -999.25 -999.25 -999.25 -999.25 -999.25  1.8934  0.5637 -999.25 
 -999.25 -999.25 -999.25 -999.25 -999.25 -999.25 -999.25 -999.25 -999.25 
 -999.25 -999.25 -999.25 -999.25  1.9026  10.963  148.35 -8.3290  2.2460 
  2.2500  2.2460  0.4530  55.470  0.5506  2.2460  2.2452  2.2716  1.9072 
  1487.500 
  10.741  48.947  0.5440  0.4480  0.0540 -40.174  2.2500  2.2370  2.2460 
  148.52  73.174  5.4900  8.8590 -999.25 -999.25 -999.25 -999.25 -999.25 
 -999.25 -999.25 -999.25 -999.25 -999.25 -999.25  1.8867  0.5708 -999.25 
 -999.25 -999.25 -999.25 -999.25 -999.25 -999.25 -999.25 -999.25 -999.25 
 -999.25 -999.25 -999.25 -999.25  1.9108  10.782  148.41 -8.1740  2.2500 
  2.2370  2.2460  0.4480  55.588  0.5584  2.2460  2.2491  2.2568  1.8994 
