~Version Information
VERS.                     2.0: CWLS log ASCII Standard Version 2.00
WRAP.                     YES: Multiple lines per depth step
~Well Information Block
#MNEM.UNIT                               Data Type  Information
#---------                               ---------  -----------
STRT.FT                                   120.0000:
STOP.FT                                  3000.0000:
STEP.FT                                     0.5000:
NULL.                 -999.25                     :
COMP.                                             :COMPANY            
WELL.     LOS LOBOS 62X-30                        :WELL               
FLD .                                             :FIELD              
CTRY.                                             :COUNTRY            
STAT.                                             :STATE              
LOC .                                             :LOCATION           
UWI .                                             :UNIQUE WELL ID     
SRVC.                                             :Service company    
DATE.                                             :LOG DATE           
~Curve Information
#MNEM.UNIT           API CODE  Curve Description
#---------           --------  -----------------
DEPT.FT                      :   1 DEPTH
CALI.IN                      :   2
GR  .GAPI                    :   3
NPHI.PU-S                    :   4
DPHI.PU-S                    :   5
DRHO.G/C3                    :   6
SP  .MV                      :   7
ILD .OHMM                    :   8
ILM .OHMM                    :   9
LL8U.OHMM                    :  10
DT  .US/F                    :  11
ROP .                        :  12
GASR.                        :  13
C1R .                        :  14
C2R .                        :  15
C3R .                        :  16
C4R .                        :  17
KSCI.                        :  18
PSCI.                        :  19
OSCI.                        :  20
WSCI.                        :  21
KWCI.                        :  22
PWCI.                        :  23
OWCI.                        :  24
WWCI.                        :  25
ROBS.G/C3                    :  26
NPHS.PU-S                    :  27
PWCL.                        :  28
OWCL.                        :  29
WWCL.                        :  30
KWCL.                        :  31
VCLD.                        :  32
VCLW.                        :  33
VSHL.                        :  34
PHIE.                        :  35
PHIT.                        :  36
SWE .                        :  37
SWT .                        :  38
SWTU.                        :  39
RMAT.                        :  40
BVWE.                        :  41
RHOB.G/C3                    :  42
CALS.IN                      :  43
DTS .US/F                    :  44
SBL .MV                      :  45
RD  .OHMM                    :  46
RM  .OHMM                    :  47
RS  .OHMM                    :  48
DPHI.                        :  49
GRC .GAPI                    :  50
NPHC.PU-S                    :  51
LL8C.OHMM                    :  52
ILDC.OHMM                    :  53
ILMC.OHMM                    :  54
ROBC.G/C3                    :  55
~A
# ...
  2811.000 
  9.9080  97.486  0.4890  0.4430  0.0050 -36.497  2.6330  2.7510  2.6670 
  127.81  58.006  3.2600  6.2790  0.8335 -999.25 -999.25 -999.25 -999.25 
 -999.25 -999.25 -999.25 -999.25 -999.25 -999.25  1.9087  0.4968 -999.25 
 -999.25 -999.25 -999.25 -999.25 -999.25 -999.25 -999.25 -999.25 -999.25 
 -999.25 -999.25 -999.25 -999.25  1.9191  9.9044  126.07 -4.4970  2.6330 
  2.7510  2.6670  0.4430  108.58  0.4769  2.6670  2.6309  2.7699  1.9154 
  2811.500 
  9.8960  93.824  0.5150  0.4640 -0.0030 -37.568  2.6340  2.7490  2.6660 
  132.58  58.018  3.3020  6.2830  0.8330 -999.25 -999.25 -999.25 -999.25 
 -999.25 -999.25 -999.25 -999.25 -999.25 -999.25  1.8805  0.5171 -999.25 
 -999.25 -999.25 -999.25 -999.25 -999.25 -999.25 -999.25 -999.25 -999.25 
 -999.25 -999.25 -999.25 -999.25  1.8844  9.8898  127.81 -5.5680  2.6340 
  2.7490  2.6660  0.4640  105.09  0.4991  2.6660  2.6319  2.7677  1.8871 
  2812.000 
  9.8750  89.372  0.5220  0.4720 -0.0030 -38.206  2.6350  2.7480  2.6260 
  136.55  57.557  3.3370  6.2880  0.8330  0.1260 -999.25 -999.25 -999.25 
 -999.25 -999.25 -999.25 -999.25 -999.25 -999.25  1.8707  0.5183 -999.25 
 -999.25 -999.25 -999.25 -999.25 -999.25 -999.25 -999.25 -999.25 -999.25 
 -999.25 -999.25 -999.25 -999.25  1.8712  9.8644  132.58 -6.2060  2.6350 
  2.7480  2.6260  0.4720  100.71  0.5004  2.6260  2.6329  2.7664  1.8772 
  2812.500 
  9.8380  86.422  0.5090  0.4730 -0.0020 -38.605  2.6340  2.7420  2.6000 
  149.97  57.333  3.3670  6.2870  0.8375  0.1500 -999.25 -999.25 -999.25 
 -999.25 -999.25 -999.25 -999.25 -999.25 -999.25  1.8691  0.5042 -999.25 
 -999.25 -999.25 -999.25 -999.25 -999.25 -999.25 -999.25 -999.25 -999.25 
 -999.25 -999.25 -999.25 -999.25  1.8696  9.8321  136.55 -6.6050  2.6340 
  2.7420  2.6000  0.4730  96.265  0.4850  2.6000  2.6318  2.7599  1.8753 
  2813.000 
  9.8170  85.451  0.4920  0.4740 -0.0010 -39.121  2.6090  2.7350  2.6330 
  145.10  57.110  3.4260  6.2870  0.8420  0.1500 -999.25 -999.25 -999.25 
 -999.25 -999.25 -999.25 -999.25 -999.25 -999.25  1.8652  0.4887 -999.25 
 -999.25 -999.25 -999.25 -999.25 -999.25 -999.25 -999.25 -999.25 -999.25 
 -999.25 -999.25 -999.25 -999.25  1.8679  9.8156  149.97 -7.1210  2.6090 
  2.7350  2.6330  0.4740  93.713  0.4680  2.6330  2.6068  2.7526  1.8713 
  2813.500 
  9.8120  84.484  0.4800  0.4800 -0.0010 -40.270  2.5840  2.7390  2.7090 
  139.38  57.127  3.5030  6.2870  0.8510  0.1590 -999.25 -999.25 -999.25 
 -999.25 -999.25 -999.25 -999.25 -999.25 -999.25  1.8545  0.4765 -999.25 
 -999.25 -999.25 -999.25 -999.25 -999.25 -999.25 -999.25 -999.25 -999.25 
 -999.25 -999.25 -999.25 -999.25  1.8580  9.8139  145.10 -8.2700  2.5840 
  2.7390  2.7090  0.4800  92.646  0.4546  2.7090  2.5819  2.7566  1.8605 
  2814.000 
  9.8190  83.198  0.4670  0.4880 -0.0010 -41.261  2.5590  2.7480  2.7480 
  138.00  56.435  3.6110  6.2860  0.8560  0.1580 -999.25 -999.25 -999.25 
 -999.25 -999.25 -999.25 -999.25 -999.25 -999.25  1.8444  0.4644 -999.25 
 -999.25 -999.25 -999.25 -999.25 -999.25 -999.25 -999.25 -999.25 -999.25 
 -999.25 -999.25 -999.25 -999.25  1.8448  9.8190  139.38 -9.2610  2.5590 
  2.7480  2.7480  0.4880  91.481  0.4413  2.7480  2.5569  2.7658  1.8505 
  2814.500 
  9.8190  80.487  0.4570  0.4890  0.0010 -42.568  2.5210  2.7220  2.7020 
  144.07  56.210  5.1510  6.2810  0.8550  0.1630 -999.25 -999.25 -999.25 
 -999.25 -999.25 -999.25 -999.25 -999.25 -999.25  1.8432  0.4557 -999.25 
 -999.25 -999.25 -999.25 -999.25 -999.25 -999.25 -999.25 -999.25 -999.25 
 -999.25 -999.25 -999.25 -999.25  1.8432  9.8116  138.00 -10.568  2.5210 
  2.7220  2.7020  0.4890  89.496  0.4318  2.7020  2.5190  2.7394  1.8492 
  2815.000 
  9.7900  77.063  0.4520  0.4890  0.0010 -43.795  2.5060  2.6760  2.6470 
  150.14  55.510  5.7070  6.2760  3.7780  0.1630 -999.25 -999.25 -999.25 
 -999.25 -999.25 -999.25 -999.25 -999.25 -999.25  1.8427  0.4552 -999.25 
 -999.25 -999.25 -999.25 -999.25 -999.25 -999.25 -999.25 -999.25 -999.25 
 -999.25 -999.25 -999.25 -999.25  1.8432  9.7828  144.07 -11.795  2.5060 
  2.6760  2.6470  0.4890  86.161  0.4313  2.6470  2.5040  2.6924  1.8486 
  2815.500 
  9.7610  73.954  0.4650  0.4900  0.0000 -45.298  2.5050  2.6410  2.7290 
  162.28  75.608  6.1500  9.4220  3.7780  0.1670 -999.25 -999.25 -999.25 
 -999.25 -999.25 -999.25 -999.25 -999.25 -999.25  1.8383  0.4733 -999.25 
 -999.25 -999.25 -999.25 -999.25 -999.25 -999.25 -999.25 -999.25 -999.25 
 -999.25 -999.25 -999.25 -999.25  1.8415  9.7540  150.14 -13.298  2.5050 
  2.6410  2.7290  0.4900  82.462  0.4510  2.7290  2.5030  2.6567  1.8439 
  2816.000 
  9.7320  72.667  0.4990  0.4980 -0.0040 -46.525  2.5130  2.6150  3.0090 
  193.44  76.820  6.5340  9.4240  3.7730  0.9510  0.0990 -999.25 -999.25 
 -999.25 -999.25 -999.25 -999.25 -999.25 -999.25  1.8240  0.5014 -999.25 
 -999.25 -999.25 -999.25 -999.25 -999.25 -999.25 -999.25 -999.25 -999.25 
 -999.25 -999.25 -999.25 -999.25  1.8283  9.7318  162.28 -14.525  2.5130 
  2.6150  3.0090  0.4980  79.747  0.4818  3.0090  2.5109  2.6301  1.8295 
  2816.500 
  9.7310  72.571  0.5090  0.5090 -0.0100 -47.555  2.5250  2.5950  2.9430 
  187.26  76.115  7.5040  9.4260  3.7680  0.9500  0.2970 -999.25 -999.25 
 -999.25 -999.25 -999.25 -999.25 -999.25 -999.25  1.8075  0.5092 -999.25 
 -999.25 -999.25 -999.25 -999.25 -999.25 -999.25 -999.25 -999.25 -999.25 
 -999.25 -999.25 -999.25 -999.25  1.8102  9.7335  193.44 -15.555  2.5250 
  2.5950  2.9430  0.5090  78.839  0.4905  2.9430  2.5229  2.6099  1.8130 
  2817.000 
  9.7420  72.550  0.5100  0.5160 -0.0150 -47.602  2.5520  2.6320  2.6750 
  186.30  75.181  8.9060  9.4200  3.7620  0.9600  0.3060 -999.25 -999.25 
 -999.25 -999.25 -999.25 -999.25 -999.25 -999.25  1.7979  0.5053 -999.25 
 -999.25 -999.25 -999.25 -999.25 -999.25 -999.25 -999.25 -999.25 -999.25 
 -999.25 -999.25 -999.25 -999.25  1.7986  9.7489  187.26 -15.602  2.5520 
  2.6320  2.6750  0.5160  78.807  0.4862  2.6750  2.5499  2.6475  1.8035 
  2817.500 
  9.7730  71.581  0.4890  0.5180 -0.0120 -47.490  2.6110  2.6640  2.6640 
  188.43  75.195  9.3010  9.4200  3.7640  0.9640  0.3085 -999.25 -999.25 
 -999.25 -999.25 -999.25 -999.25 -999.25 -999.25  1.7957  0.4870 -999.25 
 -999.25 -999.25 -999.25 -999.25 -999.25 -999.25 -999.25 -999.25 -999.25 
 -999.25 -999.25 -999.25 -999.25  1.7953  9.7710  186.30 -15.490  2.6110 
  2.6640  2.6640  0.5180  78.439  0.4661  2.6640  2.6088  2.6802  1.8014 
  2818.000 
  9.7640  70.449  0.4800  0.5170 -0.0090 -47.259  2.6630  2.6970  2.9120 
  195.28  74.970  18.625  9.4150  3.7660  0.9685  0.3110 -999.25 -999.25 
 -999.25 -999.25 -999.25 -999.25 -999.25 -999.25  1.7973  0.4785 -999.25 
 -999.25 -999.25 -999.25 -999.25 -999.25 -999.25 -999.25 -999.25 -999.25 
 -999.25 -999.25 -999.25 -999.25  1.7970  9.7629  188.43 -15.259  2.6630 
  2.6970  2.9120  0.5170  77.288  0.4568  2.9120  2.6607  2.7135  1.8030 
  2818.500 
  9.7590  69.483  0.4730  0.5160 -0.0090 -47.106  2.7160  2.7450  3.0290 
  189.57  74.979  19.279  9.4100  3.7660  0.9730  0.3150 -999.25 -999.25 
 -999.25 -999.25 -999.25 -999.25 -999.25 -999.25  1.7966  0.4728 -999.25 
 -999.25 -999.25 -999.25 -999.25 -999.25 -999.25 -999.25 -999.25 -999.25 
 -999.25 -999.25 -999.25 -999.25  1.7986  9.7588  195.28 -15.106  2.7160 
  2.7450  3.0290  0.5160  76.113  0.4505  3.0290  2.7136  2.7620  1.8023 
  2819.000 
  9.7580  68.909  0.4720  0.5220 -0.0110 -46.916  2.7640  2.7890  3.0780 
  188.32  74.522  19.273  9.4070  3.7650  0.9870  0.3190  1.5000  41.000 
  16.300  75.600 -999.25 -999.25 -999.25 -999.25  1.7867  0.4736 -999.25 
 -999.25 -999.25 -999.25 -999.25 -999.25 -999.25 -999.25 -999.25 -999.25 
 -999.25 -999.25 -999.25 -999.25  1.7887  9.7602  189.57 -14.916  2.7640 
  2.7890  3.0780  0.5220  75.235  0.4514  3.0780  2.7615  2.8066  1.7924 
  2819.500 
  9.7690  69.760  0.4800  0.5280 -0.0120 -46.721  2.8190  2.8190  3.0150 
  184.92  74.064  18.489  9.4040  3.7650  0.9870  0.3290 -999.25 -999.25 
 -999.25 -999.25 -999.25 -999.25 -999.25 -999.25  1.7775  0.4827 -999.25 
 -999.25 -999.25 -999.25 -999.25 -999.25 -999.25 -999.25 -999.25 -999.25 
 -999.25 -999.25 -999.25 -999.25  1.7788  9.7719  188.32 -14.721  2.8190 
  2.8190  3.0150  0.5280  75.283  0.4614  3.0150  2.8164  2.8371  1.7833 
