~Version Information
VERS.                     2.0: CWLS log ASCII Standard Version 2.00
WRAP.                      NO: One line per depth step
~Well Information Block
#MNEM.UNIT                               Data Type  Information
#---------                               ---------  -----------
STRT.FT                                   318.0000:
STOP.FT                                  2700.0000:
STEP.FT                                     0.5000:
NULL.                 -999.25                     :
COMP.                                             :COMPANY            
WELL.     LOS LOBOS 82X-30                        :WELL               
FLD .                                             :FIELD              
CTRY.                                             :COUNTRY            
STAT.                                             :STATE              
LOC .                                             :LOCATION           
UWI .                                             :UNIQUE WELL ID     
SRVC.                                             :Service company    
DATE.                                             :LOG DATE           
~Curve Information
#MNEM.UNIT           API CODE  Curve Description
#---------           --------  -----------------
DEPT.FT                      :   1 DEPTH
SP  .MV                      :   2
ILD .OHMM                    :   3
ILM .OHMM                    :   4
SFLU.OHMM                    :   5
CALI.IN                      :   6
GR  .GAPI                    :   7
NPHI.PU-S                    :   8
DPHI.PU-S                    :   9
DRHO.G/C3                    :  10
CALI.IN                      :  11
DT  .US/F                    :  12
SBL .MV                      :  13
RS  .OHMM                    :  14
RM  .OHMM                    :  15
RD  .OHMM                    :  16
DTS .US/F                    :  17
CALS.IN                      :  18
RHOB.G/C3                    :  19
ROBS.G/C3                    :  20
DROS.G/C3                    :  21
CALS.IN                      :  22
GRS .GAPI                    :  23
NPHS.PU-S                    :  24
SFLU.OHMM                    :  25
ILMC.OHMM                    :  26
ILDC.OHMM                    :  27
ROBC.G/C3                    :  28
GRC .GAPI                    :  29
NPHC.PU-S                    :  30
~A
# ...
  1423.500 -57.496  6.9680  5.1510  5.0120  12.532  142.35  0.4260  0.5130  0.0130  12.564  138.82 -5.4960  5.0120  5.1510  6.9680  135.88  12.571  1.8036  1.8038  0.0133  12.527  135.86  0.4303  5.7359  5.2301  6.9800  1.8268  150.91  0.4073 
  1424.000 -57.547  6.9780  5.1870  4.8830  12.502  133.76  0.4220  0.5120  0.0150  12.559  144.40 -5.5470  4.8830  5.1870  6.9780  137.32  12.569  1.8052  1.8057  0.0154  12.488  132.45  0.4237  5.5821  5.2664  6.9892  1.8284  146.97  0.4000 
  1424.500 -57.872  6.9860  5.2130  4.6290  12.403  132.01  0.4230  0.5100  0.0180  12.551  148.98 -5.8720  4.6290  5.2130  6.9860  139.05  12.564  1.8085  1.8102  0.0184  12.390  132.97  0.4226  5.2781  5.2913  6.9949  1.8324  147.17  0.3987 
  1425.000 -58.159  7.0090  5.2120  4.5100  12.300  133.29  0.4340  0.5020  0.0210  12.544  148.10 -6.1590  4.5100  5.2120  7.0090  144.60  12.559  1.8217  1.8215  0.0210  12.304  135.77  0.4292  5.1324  5.2885  7.0160  1.8433  149.93  0.4060 
  1425.500 -58.406  7.0440  5.2180  4.4590  12.338  136.63  0.4480  0.5030  0.0210  12.533  142.54 -6.4060  4.4590  5.2180  7.0440  148.94  12.551  1.8201  1.8197  0.0209  12.355  138.04  0.4418  5.0786  5.2957  7.0523  1.8418  152.65  0.4199 
  1426.000 -58.537  7.0810  5.2740  4.4570  12.514  138.55  0.4520  0.5050  0.0200  12.501  138.45 -6.5370  4.4570  5.2740  7.0810  147.83  12.543  1.8168  1.8178  0.0199  12.525  138.96  0.4502  5.0924  5.3569  7.0934  1.8408  154.34  0.4293 
  1426.500 -58.468  7.1180  5.3500  4.5540  12.647  139.11  0.4410  0.4970  0.0190  12.458  139.12 -6.4680  4.5540  5.3500  7.1180  142.33  12.531  1.8300  1.8306  0.0194  12.652  135.87  0.4459  5.2173  5.4380  7.1335  1.8542  151.41  0.4245 
  1427.000 -58.377  7.4040  5.4270  4.7820  12.728  134.66  0.4380  0.4910  0.0250  12.467  152.47 -6.3770  4.7820  5.4270  7.4040  138.48  12.499  1.8399  1.8399  0.0251  12.730  131.04  0.4393  5.4906  5.5192  7.4228  1.8640  146.31  0.4173 
  1427.500 -58.286  7.5250  5.6880  5.1060  12.765  129.65  0.4350  0.4900  0.0270  12.483  150.01 -6.2860  5.1060  5.6880  7.5250  139.86  12.458  1.8415  1.8412  0.0269  12.766  127.60  0.4363  5.8726  5.7903  7.5454  1.8654  142.60  0.4140 
  1428.000 -58.178  7.6480  5.8010  5.3820  12.793  126.79  0.4370  0.4950  0.0250  12.507  148.05 -6.1780  5.3820  5.8010  7.6480  152.33  12.468  1.8333  1.8328  0.0248  12.792  126.68  0.4361  6.1981  5.9080  7.6698  1.8572  141.67  0.4138 
  1428.500 -58.143  7.8700  5.9600  5.6930  12.713  126.63  0.4380  0.5110  0.0150  12.516  141.27 -6.1430  5.6930  5.9600  7.8700  149.89  12.484  1.8069  1.8068  0.0150  12.713  128.89  0.4375  6.5510  6.0710  7.8908  1.8308  143.86  0.4153 
  1429.000 -58.209  7.9830  6.0330  5.8930  12.618  129.82  0.4360  0.5210  0.0150  12.524  140.22 -6.2090  5.8930  6.0330  7.9830  147.63  12.508  1.7904  1.7906  0.0150  12.619  131.89  0.4369  6.7711  6.1442  8.0016  1.8141  146.86  0.4146 
  1429.500 -58.276  8.0530  6.0100  5.9880  12.583  132.76  0.4320  0.5140  0.0210  12.530  144.15 -6.2760  5.9880  6.0100  8.0530  141.21  12.517  1.8019  1.8015  0.0208  12.584  133.77  0.4338  6.8766  6.1194  8.0708  1.8248  148.81  0.4112 
  1430.000 -58.504  8.0500  5.8980  5.8660  12.658  134.20  0.3990  0.5080  0.0240  12.537  244.86 -6.5040  5.8660  5.8980  8.0500  140.48  12.524  1.8118  1.8113  0.0239  12.655  132.65  0.4140  6.7446  6.0052  8.0700  1.8350  147.83  0.3894 
  1430.500 -58.733  7.9140  5.7250  5.8000  12.885  131.98  0.3890  0.5100  0.0250  12.538  236.66 -6.7330  5.8000  5.7250  7.9140  151.02  12.530  1.8085  1.8087  0.0249  12.871  132.03  0.3936  6.6978  5.8311  7.9397  1.8335  147.95  0.3669 
  1431.000 -59.143  7.8110  5.4770  5.6090  12.989  132.06  0.3910  0.5130  0.0180  12.536  232.63 -7.1430  5.6090  5.4770  7.8110  244.28  12.537  1.8036  1.8039  0.0185  12.981  132.12  0.3901  6.4885  5.5765  7.8392  1.8293  148.45  0.3631 
  1431.500 -59.447  7.7100  5.1920  5.0980  13.060  132.14  0.3970  0.5200  0.0070  12.534  234.69 -7.4470  5.0980  5.1920  7.7100  236.37  12.538  1.7920  1.7931  0.0080  13.053  133.45  0.3942  5.8965  5.2828  7.7395  1.8188  150.22  0.3677 
  1432.000 -59.752  7.5120  4.9130  4.7970  13.088  134.05  0.4020  0.5210  0.0000  12.533  240.86 -7.7520  4.7970  4.9130  7.5120  232.78  12.536  1.7904  1.7905  0.0008  13.085  134.70  0.3997  5.5458  4.9947  7.5408  1.8164  151.75  0.3737 
  1432.500 -59.881  7.3190  4.9110  4.7340  13.009  135.01  0.4060  0.5190  0.0170  12.531  151.99 -7.8810  4.7340  4.9110  7.3190  235.16  12.534  1.7937  1.7932  0.0149  13.019  134.43  0.4041  5.4648  4.9915  7.3447  1.8187  151.19  0.3786 
  1433.000 -60.010  7.0000  4.9100  4.8020  12.751  134.14  0.4200  0.5150  0.0250  12.534  150.53 -8.0100  4.8020  4.9100  7.0000  233.81  12.533  1.8003  1.7993  0.0239  12.788  132.97  0.4135  5.5201  4.9864  7.0182  1.8236  148.69  0.3888 
  1433.500 -60.040  6.8830  5.0890  4.8000  12.584  132.39  0.4320  0.5120  0.0380  12.536  149.07 -8.0400  4.8000  5.0890  6.8830  151.87  12.531  1.8052  1.8044  0.0360  12.610  131.24  0.4264  5.4989  5.1677  6.8966  1.8278  146.09  0.4030 
  1434.000 -60.069  7.0190  5.2670  4.8240  12.493  130.65  0.4370  0.5080  0.0460  12.537  145.95 -8.0690  4.8240  5.2670  7.0190  150.41  12.534  1.8118  1.8107  0.0446  12.509  129.81  0.4347  5.5160  5.3493  7.0308  1.8335  144.12  0.4121 
  1434.500 -60.157  7.3040  5.4610  5.0020  12.449  129.38  0.4410  0.5110  0.0500  12.538  166.97 -8.1570  5.0020  5.4610  7.3040  148.80  12.536  1.8069  1.8078  0.0492  12.457  129.12  0.4391  5.7164  5.5484  7.3155  1.8304  143.16  0.4170 
  1435.000 -60.244  7.5460  5.6520  5.2150  12.435  128.98  0.4620  0.5130  0.0490  12.535  175.74 -8.2440  5.2150  5.6520  7.5460  147.80  12.537  1.8036  1.8042  0.0492  12.438  128.65  0.4521  5.9606  5.7452  7.5577  1.8267  142.57  0.4313 
  1435.500 -60.338  7.8100  5.9030  5.3290  12.422  128.47  0.4660  0.5110  0.0320  12.533  171.61 -8.3380  5.3290  5.9030  7.8100  167.76  12.538  1.8069  1.8061  0.0358  12.425  128.14  0.4641  6.0909  6.0044  7.8222  1.8285  141.96  0.4445 
  1436.000 -60.305  8.0620  6.1320  5.3070  12.432  127.96  0.4500  0.5090  0.0360  12.531  158.98 -8.3050  5.3070  6.1320  8.0620  175.36  12.535  1.8102  1.8094  0.0351  12.430  126.08  0.4576  6.0660  6.2417  8.0751  1.8318  139.69  0.4374 
  1436.500 -60.037  8.3210  6.4270  5.3000  12.442  125.02  0.4200  0.5030  0.0470  12.523  148.86 -8.0370  5.3000  6.4270  8.3210  170.41  12.533  1.8201  1.8175  0.0442  12.439  123.10  0.4343  6.0592  6.5479  8.3353  1.8400  136.43  0.4117 
  1437.000 -59.648  8.9790  6.5800  5.2940  12.462  122.00  0.4150  0.5050  0.0540  12.516  143.65 -7.6480  5.2940  6.5800  8.9790  158.00  12.530  1.8168  1.8176  0.0521  12.457  120.20  0.4174  6.0543  6.7073  8.9963  1.8402  133.27  0.3930 
  1437.500 -59.260  9.4130  6.7370  5.6200  12.490  119.14  0.4170  0.5120  0.0620  12.502  149.23 -7.2600  5.6200  6.7370  9.4130  148.34  12.522  1.8052  1.8085  0.0597  12.482  118.89  0.4160  6.4352  6.8714  9.4331  1.8312  131.91  0.3915 
  1438.000 -58.794  9.7590  7.0100  5.8330  12.482  118.75  0.4280  0.5270  0.0690  12.489  149.66 -6.7940  5.8330  7.0100  9.7590  144.22  12.515  1.7805  1.7879  0.0669  12.484  119.88  0.4227  6.6824  7.1557  9.7807  1.8106  133.02  0.3989 
  1438.500 -58.523  10.044  7.2950  6.0540  12.415  120.58  0.4430  0.5340  0.0710  12.486  142.51 -6.5230  6.0540  7.2950  10.044  149.28  12.501  1.7689  1.7726  0.0704  12.436  119.84  0.4357  6.9315  7.4510  10.065  1.7950  132.81  0.4132 
  1439.000 -58.252  10.338  7.6310  6.1610  12.284  119.39  0.4540  0.5350  0.0530  12.482  134.25 -6.2520  6.1610  7.6310  10.338  148.91  12.489  1.7673  1.7678  0.0590  12.327  118.22  0.4487  7.0391  7.7972  10.354  1.7897  130.63  0.4275 
  1439.500 -57.910  10.758  7.8260  5.8620  12.172  117.48  0.4680  0.5340  0.0390  12.479  141.70 -5.9100  5.8620  7.8260  10.758  141.62  12.486  1.7689  1.7683  0.0439  12.211  120.33  0.4612  6.6775  7.9956  10.769  1.7896  132.56  0.4412 
