~Version Information
VERS.                     2.0: CWLS log ASCII Standard Version 2.00
WRAP.                     YES: Multiple lines per depth step
~Well Information Block
#MNEM.UNIT                               Data Type  Information
#---------                               ---------  -----------
STRT.FT                                   800.0000:
STOP.FT                                  5530.0000:
STEP.FT                                     0.5000:
NULL.                 -999.25                     :
COMP.                                             :COMPANY            
WELL.     SANTIAGO B 73-29                        :WELL               
FLD .                                             :FIELD              
CTRY.                                             :COUNTRY            
STAT.                                             :STATE              
LOC .                                             :LOCATION           
UWI .                                             :UNIQUE WELL ID     
SRVC.                                             :Service company    
DATE.                                             :LOG DATE           
~Curve Information
#MNEM.UNIT           API CODE  Curve Description
#---------           --------  -----------------
DEPT.FT                      :   1 DEPTH
SP  .MV                      :   2
GR  .GAPI                    :   3
ILD .OHMM                    :   4
ILM .OHMM                    :   5
SFL .OHMM                    :   6
DT  .US/F                    :   7
CALI.IN                      :   8
KSCI.                        :   9
PSCI.                        :  10
OSCI.                        :  11
WSCI.                        :  12
GR  .GAPI                    :  13
RHOB.G/C3                    :  14
NPHI.PU-S                    :  15
DRHO.G/C3                    :  16
SBL .MV                      :  17
GRS .GAPI                    :  18
RD  .OHMM                    :  19
RM  .OHMM                    :  20
RS  .OHMM                    :  21
R0BS.G/C3                    :  22
DRHS.G/C3                    :  23
GRS .GAPI                    :  24
NPHS.PU-S                    :  25
DTS .US/F                    :  26
CALS.IN                      :  27
SFLC.OHMM                    :  28
ILMC.OHMM                    :  29
ILDC.OHMM                    :  30
R0BC.G/C3                    :  31
GRC .GAPI                    :  32
NPHC.PU-S                    :  33
~A
# ...
  3946.500 
 -37.706  98.619  5.5060  5.1630  4.6670  74.842  10.589 -999.25 -999.25 
 -999.25 -999.25  101.22  1.9010  0.3530 -0.0140 -14.158  98.619  5.5060 
  5.1630  4.6670  1.9502  0.0063  103.12  0.3552  75.106  10.589  5.1318 
  5.2239  5.5021  1.9616  110.48  0.3300 
  3947.000 
 -36.329  100.79  5.4540  5.1150  4.7090  86.704  10.588 -999.25 -999.25 
 -999.25 -999.25  103.00  1.9090  0.3620 -0.0130 -12.782  100.79  5.4540 
  5.1150  4.7090  1.9716  0.0108  105.99  0.3592  85.148  10.588  5.1777 
  5.1748  5.4502  1.9830  113.55  0.3345 
  3947.500 
 -35.940  104.14  5.4030  5.0670  4.7510  93.981  10.588 -999.25 -999.25 
 -999.25 -999.25  105.78  1.9200  0.3750 -0.0100 -12.394  104.14  5.4030 
  5.0670  4.7510  1.9851  0.0133  109.50  0.3709  92.991  10.588  5.2237 
  5.1256  5.3993  1.9965  117.31  0.3476 
  3948.000 
 -35.354  106.90  5.3770  4.9270  4.7930  87.009  10.548 -999.25 -999.25 
 -999.25 -999.25  109.16  1.9330  0.3740 -0.0060 -11.808  106.90  5.3770 
  4.9270  4.7930  1.9943  0.0137  113.77  0.3743  87.991  10.554  5.2655 
  4.9815  5.3732  2.0054  121.76  0.3515 
  3948.500 
 -34.370  110.45  5.3510  4.8810  4.7050  78.343  10.547 -999.25 -999.25 
 -999.25 -999.25  113.33  1.9440  0.3740  0.0050 -10.825  110.45  5.3510 
  4.8810  4.7050  1.9913  0.0111  118.08  0.3740  79.606  10.547  5.1684 
  4.9344  5.3472  2.0024  126.34  0.3511 
  3949.000 
 -33.586  115.58  5.3010  4.8580  4.6610  78.544  10.566 -999.25 -999.25 
 -999.25 -999.25  117.69  1.9680  0.3750  0.0100 -10.042  115.58  5.3010 
  4.8580  4.6610  1.9764  0.0049  120.81  0.3747  78.514  10.563  5.1221 
  4.9113  5.2973  1.9877  129.33  0.3519 
  3949.500 
 -33.197  116.37  5.2510  4.8350  4.7020  77.651  10.605 -999.25 -999.25 
 -999.25 -999.25  120.87  1.9820  0.3720  0.0130 -9.6536  116.37  5.2510 
  4.8350  4.7020  1.9632  0.0023  120.48  0.3730  77.790  10.599  5.1713 
  4.8886  5.2475  1.9747  129.11  0.3500 
  3950.000 
 -33.599  115.57  5.2480  4.8560  4.8320  75.063  10.624 -999.25 -999.25 
 -999.25 -999.25  120.48  1.9940  0.3670  0.0140 -10.056  115.57  5.2480 
  4.8560  4.8320  1.9629  0.0038  120.59  0.3686  75.478  10.621  5.3166 
  4.9107  5.2446  1.9745  129.32  0.3451 
  3950.500 
 -33.599  118.73  5.2480  4.8770  4.9210  71.178  10.664 -999.25 -999.25 
 -999.25 -999.25  120.48  1.9950  0.3630  0.0130 -10.057  118.73  5.2480 
  4.8770  4.9210  1.9705  0.0071  121.35  0.3643  71.820  10.657  5.4188 
  4.9330  5.2446  1.9823  130.29  0.3403 
  3951.000 
 -33.598  121.50  5.2460  4.8750  4.9660  74.369  10.663 -999.25 -999.25 
 -999.25 -999.25  121.07  1.9810  0.3720  0.0060 -10.057  121.50  5.2460 
  4.8750  4.9660  1.9811  0.0111  122.91  0.3691  73.826  10.663  5.4690 
  4.9311  5.2427  1.9930  131.98  0.3456 
  3951.500 
 -32.612  126.63  5.1980  4.9190  4.9190  78.158  10.644 -999.25 -999.25 
 -999.25 -999.25  122.46  1.9640  0.3810  0.0020 -9.0714  126.63  5.1980 
  4.9190  4.9190  1.9942  0.0165  125.22  0.3781  77.495  10.647  5.4153 
  4.9758  5.1947  2.0060  134.40  0.3557 
  3952.000 
 -31.626  126.67  5.1970  4.9190  4.8730  81.448  10.604 -999.25 -999.25 
 -999.25 -999.25  124.44  1.9610  0.3860  0.0030 -8.0861  126.67  5.1970 
  4.9190  4.8730  2.0028  0.0250  132.36  0.3844  80.856  10.611  5.3603 
  4.9748  5.1936  2.0143  141.91  0.3628 
  3952.500 
 -30.644 -999.25  5.1960  4.9180  4.8730  77.962  10.465 -999.25 -999.25 
 -999.25 -999.25  127.62  1.9680  0.3850  0.0060 -7.1048 -999.25  5.1960 
  4.9180  4.8730  2.0142  0.0322  150.19  0.3853  78.606  10.491  5.3452 
  4.9707  5.1923  2.0250  160.40  0.3638 
  3953.000 
 -31.040 -999.25  5.1950  4.9400  4.8950  76.271  10.386 -999.25 -999.25 
 -999.25 -999.25  145.48  1.9770  0.3840  0.0100 -7.5015 -999.25  5.1950 
  4.9400  4.8950  2.0287  0.0406  167.05  0.3843  76.591  10.401  5.3579 
  4.9909  5.1911  2.0388  177.90  0.3626 
  3953.500 
 -31.438 -999.25  5.1940  4.9620  4.9160  75.973  10.386 -999.25 -999.25 
 -999.25 -999.25  161.95  1.9920  0.3870  0.0140 -7.9002 -999.25  5.1940 
  4.9620  4.9160  2.0389  0.0473  180.17  0.3860  76.031  10.386  5.3789 
  5.0130  5.1901  2.0489  191.78  0.3645 
  3954.000 
 -31.638 -999.25  5.1930  5.0060  4.8700  75.776  10.504 -999.25 -999.25 
 -999.25 -999.25  178.61  2.0000  0.4060  0.0230 -8.1010 -999.25  5.1930 
  5.0060  4.8700  2.0350  0.0463  185.85  0.3996  75.815  10.480  5.3407 
  5.0604  5.1893  2.0456  198.43  0.3798 
  3954.500 
 -31.639 -999.25  5.2160  4.9820  4.8250  77.273  10.583 -999.25 -999.25 
 -999.25 -999.25  183.37  2.0100  0.4210  0.0300 -8.1027 -999.25  5.2160 
  4.9820  4.8250  2.0075  0.0391  192.63  0.4160  76.967  10.567  5.3022 
  5.0381  5.2125  2.0188  206.23  0.3982 
  3955.000 
 -31.839 -999.25  5.2400  4.9590  4.6930  75.880  10.583 -999.25 -999.25 
 -999.25 -999.25  190.52  2.0250  0.4250  0.0380 -8.3034 -999.25  5.2400 
  4.9590  4.6930  1.9761  0.0311  200.12  0.4236  76.171  10.583  5.1596 
  5.0150  5.2365  1.9875  214.36  0.4068 
  3955.500 
 -31.740 -999.25  5.2390  4.9570  4.4810  74.287  10.543 -999.25 -999.25 
 -999.25 -999.25  196.27  2.0380  0.4250  0.0470 -8.2051 -999.25  5.2390 
  4.9570  4.4810  1.9778  0.0296  207.57  0.4250  74.628  10.552  4.9237 
  5.0122  5.2354  1.9890  222.12  0.4083 
  3956.000 
 -31.642 -999.25  5.2370  4.9340  4.2400  69.307  10.503 -999.25 -999.25 
 -999.25 -999.25  206.19  2.0410  0.4220  0.0480 -8.1078 -999.25  5.2370 
  4.9340  4.2400  2.0050  0.0357  210.67  0.4230  70.396  10.512  4.6557 
  4.9876  5.2333  2.0159  225.15  0.4061 
  3956.500 
 -31.253 -999.25  5.1880  4.9110  4.3180  73.295  10.543 -999.25 -999.25 
 -999.25 -999.25  209.56  2.0200  0.4180  0.0420 -7.7195 -999.25  5.1880 
  4.9110  4.3180  2.0450  0.0476  213.39  0.4194  72.404  10.534  4.7434 
  4.9647  5.1844  2.0561  228.22  0.4020 
  3957.000 
 -30.859 -999.25  5.1880  4.8870  4.4380  84.458  10.602 -999.25 -999.25 
 -999.25 -999.25  212.14  1.9770  0.4100  0.0320 -7.3262 -999.25  5.1880 
  4.8870  4.4380  2.0317  0.0466  213.43  0.4127  81.909  10.589  4.8807 
  4.9415  5.1846  2.0431  228.66  0.3946 
  3957.500 
 -30.663 -999.25  5.2340  4.8640  4.5190  83.961  10.602 -999.25 -999.25 
 -999.25 -999.25  214.92  1.9740  0.4040  0.0290 -7.1309 -999.25  5.2340 
  4.8640  4.5190  1.9971  0.0377  207.37  0.4061  84.077  10.602  4.9710 
  4.9184  5.2305  2.0086  222.26  0.3871 
  3958.000 
 -31.850 -999.25  5.2810  4.9070  4.6020  82.170  10.542 -999.25 -999.25 
 -999.25 -999.25  211.75  1.9870  0.3980  0.0310 -8.3186 -999.25  5.2810 
  4.9070  4.6020  1.9486  0.0270  200.79  0.4001  82.596  10.556  5.0567 
  4.9612  5.2773  1.9598  214.90  0.3804 
  3958.500 
 -32.050 -999.25  5.2800  4.9060  4.5590  80.577  10.443 -999.25 -999.25 
 -999.25 -999.25  202.82  2.0480  0.3970  0.0470 -8.5193 -999.25  5.2800 
  4.9060  4.5590  1.9473  0.0194  197.80  0.3973  80.964  10.467  4.9994 
  4.9579  5.2761  1.9579  211.09  0.3773 
  3959.000 
 -31.854 -999.25  5.3280  4.9060  4.4750  80.181  10.403 -999.25 -999.25 
 -999.25 -999.25  198.85  2.0380  0.3940  0.0490 -8.3240 -999.25  5.3280 
  4.9060  4.4750  1.9622  0.0186  196.87  0.3950  80.279  10.413  4.9017 
  4.9565  5.3239  1.9724  209.73  0.3746 
  3959.500 
 -31.461 -999.25  5.3030  4.9060  4.4140  80.581  10.384 -999.25 -999.25 
 -999.25 -999.25  196.87  2.0170  0.3920  0.0410 -7.9318 -999.25  5.3030 
  4.9060  4.4140  1.9811  0.0215  197.21  0.3927  80.480  10.389  4.8325 
  4.9559  5.2989  1.9912  209.93  0.3720 
  3960.000 
 -31.464 -999.25  5.2780  4.8590  4.3530  83.074  10.364 -999.25 -999.25 
 -999.25 -999.25  196.87  1.9510  0.3910  0.0300 -7.9355 -999.25  5.2780 
  4.8590  4.3530  2.0029  0.0253  198.17  0.3914  82.432  10.369  4.7640 
  4.9075  5.2739  2.0128  210.82  0.3705 
  3960.500 
 -31.861 -999.25  5.2760  4.8140  4.1950  87.660  10.403 -999.25 -999.25 
 -999.25 -999.25  197.46  1.9430  0.3890  0.0200 -8.3332 -999.25  5.2760 
  4.8140  4.1950  2.0129  0.0263  199.26  0.3897  86.457  10.393  4.5943 
  4.8621  5.2719  2.0230  212.15  0.3686 
