~Version Information
VERS.                     2.0: CWLS log ASCII Standard Version 2.00
WRAP.                      NO: One line per depth step
~Well Information Block
#MNEM.UNIT                               Data Type  Information
#---------                               ---------  -----------
STRT.FT                                   318.0000:
STOP.FT                                  2700.0000:
STEP.FT                                     0.5000:
NULL.                 -999.25                     :
COMP.                                             :COMPANY            
WELL.     LOS LOBOS 82X-30                        :WELL               
FLD .                                             :FIELD              
CTRY.                                             :COUNTRY            
STAT.                                             :STATE              
LOC .                                             :LOCATION           
UWI .                                             :UNIQUE WELL ID     
SRVC.                                             :Service company    
DATE.                                             :LOG DATE           
~Curve Information
#MNEM.UNIT           API CODE  Curve Description
#---------           --------  -----------------
DEPT.FT                      :   1 DEPTH
SP  .MV                      :   2
ILD .OHMM                    :   3
ILM .OHMM                    :   4
SFLU.OHMM                    :   5
CALI.IN                      :   6
GR  .GAPI                    :   7
NPHI.PU-S                    :   8
DPHI.PU-S                    :   9
DRHO.G/C3                    :  10
CALI.IN                      :  11
DT  .US/F                    :  12
SBL .MV                      :  13
RS  .OHMM                    :  14
RM  .OHMM                    :  15
RD  .OHMM                    :  16
DTS .US/F                    :  17
CALS.IN                      :  18
RHOB.G/C3                    :  19
ROBS.G/C3                    :  20
DROS.G/C3                    :  21
CALS.IN                      :  22
GRS .GAPI                    :  23
NPHS.PU-S                    :  24
SFLU.OHMM                    :  25
ILMC.OHMM                    :  26
ILDC.OHMM                    :  27
ROBC.G/C3                    :  28
GRC .GAPI                    :  29
NPHC.PU-S                    :  30
~A
# ...
  1572.000 -13.049  6.5520  6.5640  6.1460  7.1570  133.61  0.4960  0.5370  0.0110  6.8070  115.90 -15.732  6.1460  6.5640  6.5520  121.64  6.8087  1.7640  1.8302  0.0165  7.0795  131.18  0.4575  6.1004  6.5364  6.5263  1.8302  122.41  0.4444 
  1572.500 -13.268  6.3570  5.7970  4.3750  7.2560  135.66  0.5130  0.5330  0.0080  6.7990  116.87 -15.964  4.3750  5.7970  6.3570  117.10  6.8076  1.7706  1.8098  0.0174  7.0266  134.39  0.4970  4.3815  5.7745  6.3325  1.8098  125.12  0.4887 
  1573.000 -13.487  6.1680  5.3090  3.7450  7.4260  137.71  0.5310  0.5300  0.0050  6.7910  123.55 -16.196  3.7450  5.3090  6.1680  116.57  6.8014  1.7755  1.7889  0.0180  6.9799  136.43  0.5140  3.7653  5.2895  6.1447  1.7889  126.76  0.5078 
  1573.500 -14.041  5.9680  4.7930  3.6900  7.4810  147.74  0.5340  0.5260  0.0050  6.7830  127.93 -16.762  3.6900  4.7930  5.9680  121.53  6.7934  1.7821  1.7695  0.0172  6.9950  141.42  0.5312  3.7133  4.7773  5.9463  1.7695  131.48  0.5271 
  1574.000 -14.003  5.7740  4.6970  4.3030  7.4890  156.66  0.5370  0.5250  0.0050  6.7730  129.10 -16.737  4.3030  4.6970  5.7740  126.62  6.7854  1.7838  1.7619  0.0141  7.0969  151.00  0.5342  4.3199  4.6830  5.7541  1.7619  141.01  0.5305 
  1574.500 -13.905  5.4860  4.7060  4.6460  7.4690  163.53  0.5400  0.5260  0.0080  6.7670  124.30 -16.651  4.6460  4.7060  5.4860  128.76  6.7760  1.7821  1.7664  0.0099  7.1937  159.14  0.5372  4.6655  4.6931  5.4684  1.7664  149.23  0.5339 
  1575.000 -13.808  5.4070  4.7840  4.9890  7.4410  167.95  0.5500  0.5250  0.0110  6.7650  121.95 -16.567  4.9890  4.7840  5.4070  125.72  6.7688  1.7838  1.7723  0.0069  7.3163  165.10  0.5405  5.0166  4.7721  5.3903  1.7723  155.63  0.5378 
  1575.500 -13.332  5.4060  4.8760  5.0810  7.4130  175.21  0.5490  0.5210  0.0150  6.7680  121.09 -16.104  5.0810  4.8760  5.4060  122.63  6.7656  1.7904  1.7777  0.0050  7.4446  170.50  0.5500  5.1250  4.8652  5.3898  1.7777  161.58  0.5485 
  1576.000 -12.898  5.4860  4.9700  4.9890  7.3420  181.92  0.5440  0.5090  0.0190  6.7780  122.46 -15.682  4.9890  4.9700  5.4860  121.34  6.7671  1.8102  1.7826  0.0050  7.4836  177.54  0.5488  5.0403  4.9592  5.4694  1.7826  168.53  0.5472 
  1576.500 -12.582  5.6690  5.4360  4.9430  7.2910  182.31  0.5390  0.4830  0.0230  6.7880  127.73 -15.379  4.9430  5.4360  5.6690  122.07  6.7751  1.8531  1.7832  0.0059  7.4829  182.06  0.5438  4.9949  5.4231  5.6513  1.7832  172.81  0.5416 
  1577.000 -12.306  6.0990  5.9450  4.8980  7.2590  177.65  0.5120  0.4750  0.0220  6.7980  130.51 -15.115  4.8980  5.9450  6.0990  126.22  6.7851  1.8663  1.7826  0.0089  7.4608  180.74  0.5378  4.9477  5.9292  6.0784  1.7826  171.40  0.5349 
  1577.500 -11.714  6.4310  6.1770  4.8800  7.2320  172.36  0.4740  0.4670  0.0110  6.7990  131.16 -14.536  4.8800  6.1770  6.4310  129.72  6.7952  1.8795  1.7856  0.0121  7.4333  175.89  0.5104  4.9262  6.1594  6.4080  1.7856  166.62  0.5041 
  1578.000 -10.646  7.1100  6.4180  4.9700  7.2120  125.38  0.4450  0.4710  0.0090  6.7990  130.97 -13.481  4.9700  6.4180  7.1100  130.98  6.7987  1.8729  1.7955  0.0160  7.3946  156.93  0.4729  5.0091  6.3982  7.0816  1.7955  148.41  0.4619 
  1578.500 -9.9740  7.6210  6.9110  5.8360  7.1980  119.69  0.3780  0.4870  0.0070  6.8030  131.34 -12.821  5.8360  6.9110  7.6210  131.02  6.7990  1.8465  1.8206  0.0200  7.3296  123.54  0.4425  5.8447  6.8865  7.5880  1.8206  116.52  0.4277 
  1579.000 -9.4210  7.8540  7.4420  7.4280  7.1840  111.25  0.3690  0.5080  0.0120  6.8080  131.23 -12.281  7.4280  7.4420  7.8540  131.23  6.8019  1.8118  1.8561  0.0228  7.2837  117.00  0.3777  7.3803  7.4123  7.8186  1.8561  110.13  0.3550 
  1579.500 -9.4610  8.0940  8.0060  11.903  7.1920  109.74  0.3700  0.5170  0.0140  6.8120  132.07 -12.333  11.903  8.0060  8.0940  131.26  6.8066  1.7970  1.8690  0.0197  7.2533  110.77  0.3690  11.721  7.9706  8.0561  1.8690  104.14  0.3452 
  1580.000 -10.175  8.3040  8.0940  14.031  7.2000  117.87  0.3790  0.5260  0.0150  6.8170  131.54 -13.060  14.031  8.0940  8.3040  131.84  6.8109  1.7821  1.8782  0.0106  7.2281  112.26  0.3703  13.771  8.0570  8.2640  1.8782  105.43  0.3466 
  1580.500 -10.889  8.1830  7.9910  14.289  7.2110  144.88  0.4050  0.5250  0.0030  6.8300  128.77 -13.787  14.289  7.9910  8.1830  131.69  6.8156  1.7838  1.8681  0.0086  7.2095  126.12  0.3798  14.012  7.9543  8.1440  1.8681  118.35  0.3573 
  1581.000 -13.066  7.3600  7.1870  10.189  7.2230  168.96  0.4470  0.5150  0.0070  6.8330  126.46 -15.976  10.189  7.1870  7.3600  129.52  6.8265  1.8003  1.8408  0.0078  7.1957  152.12  0.4062  10.037  7.1569  7.3283  1.8408  142.66  0.3869 
  1581.500 -13.859  6.6920  6.8660  6.9420  7.2370  175.59  0.5010  0.4890  0.0220  6.8360  126.83 -16.782  6.9420  6.8660  6.6920  127.08  6.8322  1.8432  1.8096  0.0123  7.1852  170.92  0.4485  6.8889  6.8383  6.6657  1.8096  160.22  0.4344 
  1582.000 -13.543  6.3000  6.5590  5.4630  7.2500  173.69  0.5390  0.4720  0.0300  6.8370  127.40 -16.478  5.4630  6.5590  6.3000  126.73  6.8352  1.8712  1.7950  0.0141  7.1931  175.04  0.5010  5.4595  6.5339  6.2768  1.7950  164.13  0.4933 
  1582.500 -13.188  6.1860  6.2430  5.1620  7.2420  159.00  0.5190  0.4650  0.0310  6.8400  124.83 -16.136  5.1620  6.2430  6.1860  127.25  6.8367  1.8828  1.7823  0.0136  7.2013  169.48  0.5390  5.1685  6.2204  6.1636  1.7823  158.98  0.5360 
  1583.000 -12.476  6.6670  6.4630  5.9860  7.2340  144.24  0.4630  0.4680  0.0250  6.8430  122.36 -15.437  5.9860  6.4630  6.6670  125.50  6.8392  1.8778  1.7854  0.0034  7.2122  154.83  0.5190  5.9698  6.4390  6.6411  1.7854  145.31  0.5136 
  1583.500 -11.646  8.0330  8.2260  8.3020  7.2030  132.87  0.3940  0.4870  0.0200  6.8530  122.25 -14.619  8.3020  8.2260  8.0330  123.00  6.8422  1.8465  1.8039  0.0083  7.2242  141.08  0.4630  8.2103  8.1876  7.9955  1.8039  132.47  0.4507 
  1584.000 -11.053  8.5790  8.7860  10.742  7.1710  131.44  0.3790  0.5080  0.0150  6.8630  124.42 -14.039  10.742  8.7860  8.5790  122.28  6.8504  1.8118  1.8451  0.0225  7.2379  132.48  0.3940  10.588  8.7428  8.5363  1.8451  124.46  0.3732 
  1584.500 -10.975  8.7210  9.0130  11.514  7.0970  143.52  0.3830  0.5090  0.0090  6.8730  126.00 -13.973  11.514  9.0130  8.7210  123.87  6.8605  1.8102  1.8718  0.0301  7.2496  134.69  0.3790  11.342  8.9680  8.6770  1.8718  126.60  0.3564 
  1585.000 -11.293  8.8820  9.0130  11.019  7.0690  173.53  0.3990  0.5100  0.0030  6.8810  127.77 -14.304  11.019  9.0130  8.8820  125.60  6.8705  1.8085  1.8826  0.0308  7.2417  151.44  0.3830  10.858  8.9677  8.8363  1.8826  142.30  0.3609 
  1585.500 -11.571  8.3920  8.8330  8.6410  7.0690  187.11  0.4330  0.4820  0.0000  6.8900  122.82 -14.595  8.6410  8.8330  8.3920  127.33  6.8790  1.8547  1.8775  0.0250  7.2337  177.05  0.3990  8.5432  8.7892  8.3511  1.8775  166.31  0.3789 
  1586.000 -11.334  7.2240  7.7580  6.7520  7.1360  188.37  0.5060  0.4700  0.0130  6.9040  112.54 -14.370  6.7520  7.7580  7.2240  124.04  6.8878  1.8745  1.8459  0.0199  7.2025  187.43  0.4330  6.7091  7.7232  7.1935  1.8459  175.82  0.4170 
  1586.500 -10.702  6.4970  6.6900  6.0390  7.2070  182.84  0.5040  0.4680  0.0220  6.9260  110.91 -13.751  6.0390  6.6900  6.4970  115.06  6.9006  1.8778  1.8118  0.0148  7.1692  186.98  0.5060  6.0134  6.6633  6.4722  1.8118  175.16  0.4989 
  1587.000 -9.7920  6.4970  6.1390  6.1950  7.2770  165.62  0.4840  0.4740  0.0240  6.9640  110.40 -12.853  6.1950  6.1390  6.4970  111.31  6.9207  1.8679  1.8101  0.0088  7.0961  178.61  0.5040  6.1507  6.1151  6.4718  1.8101  166.79  0.4966 
  1587.500 -9.2790  6.8880  6.7020  6.3550  7.4240  147.85  0.4240  0.4930  0.0210  6.9900  109.21 -12.353  6.3550  6.7020  6.8880  110.52  6.9549  1.8366  1.8104  0.0029  7.0690  161.34  0.4840  6.2997  6.6730  6.8595  1.8104  150.49  0.4742 
  1588.000 -9.1210  7.3970  7.5740  7.0340  7.4830  128.12  0.4060  0.5030  0.0120  7.0210  108.36 -12.208  7.0340  7.5740  7.3970  109.49  6.9838  1.8201  1.8557  0.0006  7.0723  143.19  0.4240  6.9530  7.5370  7.3642  1.8557  133.58  0.4068 
