~Version Information
VERS.                     2.0: CWLS log ASCII Standard Version 2.00
WRAP.                     YES: Multiple lines per depth step
~Well Information Block
#MNEM.UNIT                               Data Type  Information
#---------                               ---------  -----------
STRT.FT                                   850.0000:
STOP.FT                                  6800.0000:
STEP.FT                                     0.5000:
NULL.                 -999.25                     :
COMP.                                             :COMPANY            
WELL.     SANTIAGO D #26-27                       :WELL               
FLD .                                             :FIELD              
CTRY.                                             :COUNTRY            
STAT.                                             :STATE              
LOC .                                             :LOCATION           
UWI .                                             :UNIQUE WELL ID     
SRVC.                                             :Service company    
DATE.                                             :LOG DATE           
~Curve Information
#MNEM.UNIT           API CODE  Curve Description
#---------           --------  -----------------
DEPT.FT                      :   1 DEPTH
DCAL.IN                      :   2
DGR .GAPI                    :   3
NPHI.PU-S                    :   4
DPHI.PU-S                    :   5
DRHO.G/C3                    :   6
AGR .GAPI                    :   7
ACAL.IN                      :   8
DT  .US/F                    :   9
GR  .GAPI                    :  10
SP  .MV                      :  11
ILM .OHMM                    :  12
ILD .OHMM                    :  13
SFLU.OHMM                    :  14
RHOB.G/C3                    :  15
RS  .OHMM                    :  16
RM  .OHMM                    :  17
RD  .OHMM                    :  18
GRS .GAPI                    :  19
SBL .MV                      :  20
ROBS.G/C3                    :  21
DRHS.G/C3                    :  22
CALS.IN                      :  23
GRS .GAPI                    :  24
NPHS.PU-S                    :  25
CALS.IN                      :  26
GRS .GAPI                    :  27
SFLU.OHMM                    :  28
ILMC.OHMM                    :  29
ILDC.OHMM                    :  30
ROBC.G/C3                    :  31
GRC .GAPI                    :  32
NPHC.PU-S                    :  33
~A
# ...
  5925.000 
  10.243  178.97  0.4630  0.4180  0.0260  200.21  10.701  109.26  187.53 
 -44.822  5.0010  4.8490  5.5000  1.9603  5.5000  5.0010  4.8490  187.53 
 -10.123  1.9571  0.0183  10.246  188.65  0.4430  10.691  209.27  6.0017 
  5.0397  4.8460  1.9662  198.56  0.4644 
  5925.500 
  10.234  162.23  0.4430  0.4280  0.0260  183.42  10.720  107.92  182.56 
 -46.000  5.0300  4.8410  5.9300  1.9438  5.9300  5.0300  4.8410  182.56 
 -11.302  1.9544  0.0260  10.240  172.98  0.3690  10.698  205.19  6.4671 
  5.0691  4.8380  1.9634  182.04  0.3749 
  5926.000 
  10.234  159.68  0.3690  0.4280  0.0220  173.47  10.739  106.77  159.99 
 -46.743  4.9780  4.8080  5.9320  1.9438  5.9320  4.9780  4.8080  159.99 
 -12.045  1.9438  0.0246  10.234  161.32  0.3310  10.712  190.33  6.4684 
  5.0161  4.8050  1.9528  169.73  0.3259 
  5926.500 
  10.229  161.34  0.3310  0.4030  0.0230  168.00  10.750  105.96  150.70 
 -46.379  4.8450  4.6880  5.4660  1.9851  5.4660  4.8450  4.6880  150.70 
 -11.682  1.9586  0.0224  10.232  160.28  0.3300  10.731  177.58  5.9630 
  4.8811  4.6852  1.9676  168.63  0.3247 
  5927.000 
  10.240  162.53  0.3300  0.3780  0.0310  170.77  10.750  105.27  149.25 
 -45.579  4.6390  4.5300  4.7850  2.0263  4.7850  4.6390  4.5300  149.25 
 -10.883  1.9999  0.0259  10.233  161.77  0.3410  10.745  170.27  5.2247 
  4.6721  4.5273  2.0089  170.20  0.3378 
  5927.500 
  10.291  157.13  0.3410  0.3560  0.0380  171.95  10.749  104.64  150.32 
 -44.899  4.4820  4.3290  4.0610  2.0626  4.0610  4.4820  4.3290  150.32 
 -10.204  2.0394  0.0335  10.258  160.57  0.3570  10.750  169.62  4.4414 
  4.5133  4.3266  2.0486  169.08  0.3605 
  5928.000 
  10.354  154.11  0.3570  0.3550  0.0480  166.76  10.733  104.65  148.71 
 -44.457  4.3150  4.1450  3.7550  2.0643  3.7550  4.3150  4.1450  148.71 
 -9.7627  2.0632  0.0416  10.314  156.03  0.3580  10.749  171.46  4.1134 
  4.3449  4.1429  2.0728  164.59  0.3617 
  5928.500 
  10.405  155.65  0.3580  0.3570  0.0540  162.16  10.708  105.28  146.11 
 -44.486  4.1850  4.0120  3.5430  2.0610  3.5430  4.1850  4.0120  146.11 
 -9.7926  2.0631  0.0502  10.373  154.67  0.3610  10.740  168.92  3.8870 
  4.2140  4.0101  2.0730  163.46  0.3654 
  5929.000 
  10.436  156.51  0.3610  0.3630  0.0580  160.61  10.684  106.50  143.27 
 -44.756  4.0580  3.8840  3.5450  2.0511  3.5450  4.0580  3.8840  143.27 
 -10.063  2.0573  0.0555  10.416  155.96  0.3740  10.718  164.08  3.8923 
  4.0858  3.8823  2.0676  165.05  0.3812 
  5929.500 
  10.451  154.48  0.3740  0.3800  0.0610  159.53  10.659  107.57  136.79 
 -45.540  3.9360  3.7810  3.6320  2.0230  3.6320  3.9360  3.7810  136.79 
 -10.848  2.0408  0.0591  10.441  155.77  0.4050  10.694  161.26  3.9892 
  3.9625  3.7794  2.0512  164.98  0.4187 
  5930.000 
  10.438  146.82  0.4050  0.4150  0.0620  151.92  10.639  108.32  125.26 
 -46.955  3.8660  3.7610  3.9800  1.9653  3.9800  3.8660  3.7610  125.26 
 -12.264  2.0018  0.0614  10.446  151.67  0.4070  10.669  159.98  4.3697 
  3.8916  3.7594  2.0123  160.67  0.4211 
  5930.500 
  10.319  137.93  0.4070  0.4450  0.0590  146.89  10.622  108.66  122.26 
 -48.924  3.8670  3.7840  4.4270  1.9158  4.4270  3.8670  3.7840  122.26 
 -14.234  1.9471  0.0609  10.394  143.55  0.3990  10.647  155.12  4.8526 
  3.8920  3.7823  1.9572  151.82  0.4114 
  5931.000 
  10.243  139.99  0.3990  0.4650  0.0330  145.18  10.637  109.14  122.66 
 -50.774  3.8970  3.8270  4.5020  1.8828  4.5020  3.8970  3.8270  122.66 
 -16.085  1.9036  0.0494  10.291  138.69  0.3840  10.629  149.01  4.9237 
  3.9211  3.8252  1.9130  146.19  0.3931 
  5931.500 
  10.199  147.04  0.3840  0.4750  0.0150  153.84  10.668  110.63  129.13 
 -50.845  3.9420  3.8630  4.2100  1.8663  4.2100  3.9420  3.8630  129.13 
 -16.157  1.8767  0.0264  10.227  142.59  0.3830  10.631  145.90  4.6003 
  3.9658  3.8611  1.8856  149.99  0.3918 
  5932.000 
  10.170  151.79  0.3830  0.4640  0.0060  162.98  10.691  111.09  135.60 
 -50.756  3.9580  3.8790  4.0080  1.8844  4.0080  3.9580  3.8790  135.60 
 -16.068  1.8730  0.0117  10.188  148.80  0.3800  10.655  150.17  4.3777 
  3.9815  3.8770  1.8817  156.33  0.3882 
  5932.500 
  10.165  153.29  0.3800  0.4600  0.0100  169.55  10.703  110.62  149.06 
 -50.591  3.9740  3.8950  4.4580  1.8910  4.4580  3.9740  3.8950  149.06 
 -15.904  1.8869  0.0075  10.168  152.35  0.3690  10.681  159.10  4.8633 
  3.9974  3.8930  1.8954  159.95  0.3748 
  5933.000 
  10.165  152.33  0.3690  0.4630  0.0110  167.76  10.702  110.15  148.36 
 -50.306  3.9900  3.8960  4.8160  1.8861  4.8160  3.9900  3.8960  148.36 
 -15.620  1.8892  0.0104  10.165  152.93  0.3620  10.698  166.75  5.2506 
  4.0135  3.8940  1.8977  160.55  0.3664 
  5933.500 
  10.164  154.71  0.3620  0.4640  0.0070  164.23  10.701  109.75  145.60 
 -49.466  3.9760  3.8970  4.8800  1.8844  4.8800  3.9760  3.8970  145.60 
 -14.781  1.8854  0.0095  10.165  153.22  0.3610  10.702  168.52  5.3198 
  3.9994  3.8950  1.8940  160.85  0.3652 
  5934.000 
  10.163  160.69  0.3610  0.4580  0.0050  166.87  10.701  109.82  145.09 
 -48.745  3.9630  3.8850  4.4630  1.8943  4.4630  3.9630  3.8850  145.09 
 -14.061  1.8881  0.0063  10.164  156.95  0.3730  10.701  165.74  4.8683 
  3.9862  3.8830  1.8966  164.75  0.3797 
  5934.500 
  10.163  172.18  0.3730  0.4430  0.0130  181.83  10.696  110.33  152.38 
 -48.067  3.9010  3.8580  3.9650  1.9191  3.9650  3.9010  3.8580  152.38 
 -13.384  1.9036  0.0080  10.163  165.00  0.3950  10.701  165.74  4.3289 
  3.9235  3.8560  1.9121  173.21  0.4062 
  5935.000 
  10.174  174.20  0.3950  0.4300  0.0250  196.71  10.691  110.34  165.83 
 -47.189  3.8880  3.8320  3.7340  1.9405  3.7340  3.8880  3.8320  165.83 
 -12.506  1.9271  0.0175  10.167  172.94  0.4070  10.698  175.41  4.0790 
  3.9104  3.8300  1.9357  181.57  0.4208 
  5935.500 
  10.175  175.38  0.4070  0.4170  0.0320  203.20  10.691  110.24  167.10 
 -46.232  3.8820  3.8120  3.5690  1.9620  3.5690  3.8820  3.8120  167.10 
 -11.550  1.9486  0.0276  10.174  174.64  0.4180  10.693  190.31  3.9007 
  3.9044  3.8101  1.9572  183.40  0.4341 
  5936.000 
  10.177  180.53  0.4180  0.4080  0.0370  204.14  10.698  110.24  167.23 
 -45.076  3.8620  3.7790  3.6500  1.9768  3.6500  3.8620  3.7790  167.23 
 -10.395  1.9676  0.0339  10.176  177.33  0.4210  10.691  200.40  3.9886 
  3.8842  3.7771  1.9762  186.23  0.4377 
  5936.500 
  10.180  187.70  0.4210  0.4030  0.0390  205.24  10.709  110.72  168.50 
 -44.278  3.8570  3.7740  3.7730  1.9851  3.7730  3.8570  3.7740  168.50 
 -9.5979  1.9799  0.0378  10.178  183.25  0.4140  10.695  203.73  4.1221 
  3.8792  3.7721  1.9886  192.46  0.4292 
  5937.000 
  10.179  203.56  0.4140  0.4040  0.0310  208.52  10.720  111.38  177.76 
 -43.519  3.8730  3.7750  4.0240  1.9834  4.0240  3.8730  3.7750  177.76 
 -8.8397  1.9844  0.0360  10.180  193.73  0.4100  10.704  204.76  4.3943 
  3.8954  3.7731  1.9931  203.48  0.4244 
  5937.500 
  10.179  211.01  0.4100  0.4130  0.0170  219.84  10.740  112.39  188.21 
 -42.678  3.9240  3.8040  4.2990  1.9686  4.2990  3.9240  3.8040  188.21 
 -7.9995  1.9777  0.0257  10.179  206.40  0.4150  10.715  207.10  4.6922 
  3.9469  3.8021  1.9864  216.78  0.4304 
  5938.000 
  10.178  213.18  0.4150  0.4150  0.0140  225.33  10.755  113.21  195.45 
 -42.317  3.9900  3.8330  4.7210  1.9653  4.7210  3.9900  3.8330  195.45 
 -7.6394  1.9673  0.0159  10.179  211.84  0.4210  10.731  214.91  5.1492 
  4.0137  3.8310  1.9759  222.49  0.4377 
  5938.500 
  10.193  211.35  0.4210  0.4140  0.0150  224.29  10.754  113.19  194.55 
 -42.151  4.1100  3.8840  5.0070  1.9669  5.0070  4.1100  3.8840  194.55 
 -7.4742  1.9659  0.0144  10.184  212.48  0.4140  10.748  222.93  5.4595 
  4.1352  3.8820  1.9745  223.20  0.4292 
  5939.000 
  10.204  198.10  0.4140  0.4130  0.0230  213.36  10.730  111.39  188.55 
 -42.695  4.2570  3.9210  5.1580  1.9686  5.1580  4.2570  3.9210  188.55 
 -8.0190  1.9675  0.0181  10.197  206.26  0.3960  10.754  224.75  5.6247 
  4.2843  3.9190  1.9763  216.76  0.4075 
