~Version Information
VERS.                     2.0: CWLS log ASCII Standard Version 2.00
WRAP.                     YES: Multiple lines per depth step
~Well Information Block
#MNEM.UNIT                               Data Type  Information
#---------                               ---------  -----------
STRT.FT                                   805.0000:
STOP.FT                                  5010.0000:
STEP.FT                                     0.5000:
NULL.                 -999.25                     :
COMP.                                             :COMPANY            
WELL.     SANTIAGO C 55-28                        :WELL               
FLD .                                             :FIELD              
CTRY.                                             :COUNTRY            
STAT.                                             :STATE              
LOC .                                             :LOCATION           
UWI .                                             :UNIQUE WELL ID     
SRVC.                                             :Service company    
DATE.                                             :LOG DATE           
~Curve Information
#MNEM.UNIT           API CODE  Curve Description
#---------           --------  -----------------
DEPT.FT                      :   1 DEPTH
CALI.IN                      :   2
GR  .GAPI                    :   3
NPHI.PU-S                    :   4
DPHI.PU-S                    :   5
DRHO.G/C3                    :   6
SP  .MV                      :   7
ILD .OHMM                    :   8
ILM .OHMM                    :   9
SFLU.OHMM                    :  10
LLD .OHMM                    :  11
LLS .OHMM                    :  12
MSFL.OHMM                    :  13
DT  .US/F                    :  14
SPHI.                        :  15
KSCI.                        :  16
PSCI.                        :  17
OSCI.                        :  18
WSCI.                        :  19
KWCI.                        :  20
PWCI.                        :  21
OWCI.                        :  22
WWCI.                        :  23
SBL .MV                      :  24
RS  .OHMM                    :  25
RM  .OHMM                    :  26
RD  .OHMM                    :  27
DTS .US/F                    :  28
RHOB.G/C3                    :  29
ROBS.G/C3                    :  30
DROS.G/C3                    :  31
CALS.IN                      :  32
GRS .GAPI                    :  33
NPHS.PU-S                    :  34
SFLU.OHMM                    :  35
ILMC.OHMM                    :  36
ILDC.OHMM                    :  37
ROBC.G/C3                    :  38
GRC .GAPI                    :  39
NPHC.PU-S                    :  40
~A
# ...
  2389.000 
  10.687  92.274  0.3630  0.1930  0.0410 -26.462  4.8800  4.5670  4.8800 
 -999.25 -999.25 -999.25  120.13 -999.25 -999.25 -999.25 -999.25 -999.25 
 -999.25 -999.25 -999.25 -999.25 -6.0533  4.8800  4.5670  4.8800  113.88 
  2.3316  2.3172  0.0360  10.298  92.319  0.3740  4.8800  4.5670  4.8800 
  2.3267  97.773  0.3481 
  2389.500 
  10.832  91.840  0.3730  0.1900  0.0380 -27.727  4.9670  4.7090  4.9030 
 -999.25 -999.25 -999.25  120.25 -999.25 -999.25 -999.25 -999.25 -999.25 
 -999.25 -999.25 -999.25 -999.25 -7.3232  4.9030  4.7090  4.9670  114.33 
  2.3365  2.3286  0.0399  10.576  92.230  0.3600  4.9030  4.7090  4.9670 
  2.3399  98.547  0.3327 
  2390.000 
  10.887  91.406  0.3740  0.1950  0.0290 -29.865  4.9810  4.9260  4.8990 
 -999.25 -999.25 -999.25  120.91 -999.25 -999.25 -999.25 -999.25 -999.25 
 -999.25 -999.25 -999.25 -999.25 -9.4660  4.8990  4.9260  4.9810  114.80 
  2.3283  2.3350  0.0389  10.787  91.854  0.3520  4.8990  4.9260  4.9810 
  2.3477  98.793  0.3238 
  2390.500 
  10.828  91.122  0.3600  0.1990  0.0190 -31.648  5.0090  5.0640  5.2440 
 -999.25 -999.25 -999.25  121.79 -999.25 -999.25 -999.25 -999.25 -999.25 
 -999.25 -999.25 -999.25 -999.25 -11.254  5.2440  5.0640  5.0090  113.30 
  2.3217  2.3304  0.0314  10.873  91.429  0.3450  5.2440  5.0640  5.0090 
  2.3437  98.596  0.3161 
  2391.000 
  10.718  91.726  0.3520  0.2020  0.0090 -34.067  5.0640  5.3030  6.0310 
 -999.25 -999.25 -999.25  123.09 -999.25 -999.25 -999.25 -999.25 -999.25 
 -999.25 -999.25 -999.25 -999.25 -13.678  6.0310  5.3030  5.0640  107.38 
  2.3167  2.3231  0.0211  10.841  91.302  0.3330  6.0310  5.3030  5.0640 
  2.3361  98.362  0.2998 
  2391.500 
  10.513  92.807  0.3450  0.2050  0.0030 -36.088  5.1870  5.5320  7.0390 
 -999.25 -999.25 -999.25  124.23 -999.25 -999.25 -999.25 -999.25 -999.25 
 -999.25 -999.25 -999.25 -999.25 -15.703  7.0390  5.5320  5.1870  102.77 
  2.3118  2.3175  0.0106  10.736  91.912  0.3070  7.0390  5.5320  5.1870 
  2.3299  98.700  0.2717 
  2392.000 
  10.256  93.771  0.3330  0.2030  0.0010 -38.626  5.2830  5.6140  7.9330 
 -999.25 -999.25 -999.25  126.35 -999.25 -999.25 -999.25 -999.25 -999.25 
 -999.25 -999.25 -999.25 -999.25 -18.246  7.9330  5.6140  5.2830  101.19 
  2.3151  2.3123  0.0037  10.537  92.960  0.2900  7.9330  5.6140  5.2830 
  2.3234  99.205  0.2537 
  2392.500 
  10.150  91.644  0.3070  0.1930  0.0030 -40.965  5.3610  5.6240  8.1850 
 -999.25 -999.25 -999.25  128.58 -999.25 -999.25 -999.25 -999.25 -999.25 
 -999.25 -999.25 -999.25 -999.25 -20.590  8.1850  5.6240  5.3610  104.75 
  2.3316  2.3148  0.0011  10.273  93.156  0.2840  8.1850  5.6240  5.3610 
  2.3241  98.579  0.2473 
  2393.000 
  10.111  88.448  0.2900  0.1860  0.0060 -41.914  5.4510  5.5520  7.3030 
 -999.25 -999.25 -999.25  130.18 -999.25 -999.25 -999.25 -999.25 -999.25 
 -999.25 -999.25 -999.25 -999.25 -21.544  7.3030  5.5520  5.4510  109.41 
  2.3431  2.3313  0.0030  10.152  90.768  0.2930  7.3030  5.5520  5.4510 
  2.3397  95.674  0.2567 
  2393.500 
  10.072  85.135  0.2840  0.1860  0.0090 -42.069  5.4610  5.5110  6.3970 
 -999.25 -999.25 -999.25  130.38 -999.25 -999.25 -999.25 -999.25 -999.25 
 -999.25 -999.25 -999.25 -999.25 -21.704  6.3970  5.5110  5.4610  116.80 
  2.3431  2.3431  0.0061  10.110  87.381  0.3150  6.3970  5.5110  5.4610 
  2.3513  91.977  0.2800 
  2394.000 
  10.025  81.522  0.2930  0.1970  0.0070 -42.065  5.3910  5.5520  5.9540 
 -999.25 -999.25 -999.25  130.76 -999.25 -999.25 -999.25 -999.25 -999.25 
 -999.25 -999.25 -999.25 -999.25 -21.704  5.9540  5.5520  5.3910  121.73 
  2.3250  2.3416  0.0088  10.068  83.911  0.3250  5.9540  5.5520  5.3910 
  2.3495  88.203  0.2908 
  2394.500 
  9.9990  81.060  0.3150  0.2070  0.0010 -42.181  5.2930  5.7070  5.8030 
 -999.25 -999.25 -999.25  133.04 -999.25 -999.25 -999.25 -999.25 -999.25 
 -999.25 -999.25 -999.25 -999.25 -21.825  5.8030  5.7070  5.2930  121.36 
  2.3084  2.3228  0.0062  10.022  81.570  0.3250  5.8030  5.7070  5.2930 
  2.3303  85.610  0.2908 
  2395.000 
  9.9640  85.468  0.3250  0.2140 -0.0030 -42.574  5.2730  5.8560  5.9430 
 -999.25 -999.25 -999.25  138.37 -999.25 -999.25 -999.25 -999.25 -999.25 
 -999.25 -999.25 -999.25 -999.25 -22.223  5.9430  5.8560  5.2730  120.33 
  2.2969  2.3064  0.0003  9.9927  83.055  0.3190  5.9430  5.8560  5.2730 
  2.3137  87.085  0.2843 
  2395.500 
  9.9410  88.626  0.3250  0.2160 -0.0050 -43.523  5.3030  5.9870  6.2110 
 -999.25 -999.25 -999.25  149.79 -999.25 -999.25 -999.25 -999.25 -999.25 
 -999.25 -999.25 -999.25 -999.25 -23.177  6.2110  5.9870  5.3030  120.22 
  2.2936  2.2961 -0.0035  9.9587  86.989  0.3150  6.2110  5.9870  5.3030 
  2.3032  91.107  0.2800 
  2396.000 
  9.9380  90.183  0.3190  0.2200 -0.0050 -45.306  5.3420  6.0310  6.6120 
 -999.25 -999.25 -999.25  142.09 -999.25 -999.25 -999.25 -999.25 -999.25 
 -999.25 -999.25 -999.25 -999.25 -24.965  6.6120  6.0310  5.3420  120.74 
  2.2870  2.2918 -0.0050  9.9402  88.989  0.3200  6.6120  6.0310  5.3420 
  2.2987  93.144  0.2854 
  2396.500 
  9.9390  85.979  0.3150  0.2260 -0.0070 -47.049  5.4010  6.0650  7.2890 
 -999.25 -999.25 -999.25  139.51 -999.25 -999.25 -999.25 -999.25 -999.25 
 -999.25 -999.25 -999.25 -999.25 -26.712  7.2890  6.0650  5.4010  121.55 
  2.2771  2.2838 -0.0057  9.9383  87.502  0.3200  7.2890  6.0650  5.4010 
  2.2907  91.583  0.2854 
  2397.000 
  9.9470  81.119  0.3200  0.2280 -0.0110 -48.634  5.4510  6.1430  7.8890 
 -999.25 -999.25 -999.25  137.30 -999.25 -999.25 -999.25 -999.25 -999.25 
 -999.25 -999.25 -999.25 -999.25 -28.302  7.8890  6.1430  5.4510  122.73 
  2.2738  2.2759 -0.0085  9.9420  82.830  0.3120  7.8890  6.1430  5.4510 
  2.2828  86.703  0.2768 
  2397.500 
  9.8970  77.212  0.3200  0.2270 -0.0100 -50.258  5.5020  6.1770  8.4290 
 -999.25 -999.25 -999.25  134.56 -999.25 -999.25 -999.25 -999.25 -999.25 
 -999.25 -999.25 -999.25 -999.25 -29.931  8.4290  6.1770  5.5020  123.91 
  2.2754  2.2745 -0.0106  9.9257  78.474  0.3080  8.4290  6.1770  5.5020 
  2.2814  82.099  0.2725 
  2398.000 
  9.8220  74.610  0.3120  0.2300 -0.0080 -51.327  5.5520  6.2110  8.6970 
 -999.25 -999.25 -999.25  137.88 -999.25 -999.25 -999.25 -999.25 -999.25 
 -999.25 -999.25 -999.25 -999.25 -31.005  8.6970  6.2110  5.5520  125.76 
  2.2705  2.2731 -0.0090  9.8613  75.371  0.3090  8.6970  6.2110  5.5520 
  2.2795  78.682  0.2735 
  2398.500 
  9.8110  73.137  0.3080  0.2370 -0.0050 -51.998  5.5620  6.2110  8.8100 
 -999.25 -999.25 -999.25  139.65 -999.25 -999.25 -999.25 -999.25 -999.25 
 -999.25 -999.25 -999.25 -999.25 -31.681  8.8100  6.2110  5.5620  127.96 
  2.2589  2.2644 -0.0064  9.8162  73.457  0.3110  8.8100  6.2110  5.5620 
  2.2705  76.568  0.2757 
  2399.000 
  9.8160  72.021  0.3090  0.2390 -0.0030 -52.312  5.5730  6.1430  8.4920 
 -999.25 -999.25 -999.25  130.25 -999.25 -999.25 -999.25 -999.25 -999.25 
 -999.25 -999.25 -999.25 -999.25 -32.000  8.4920  6.1430  5.5730  129.73 
  2.2557  2.2571 -0.0039  9.8139  72.258  0.3100  8.4920  6.1430  5.5730 
  2.2631  75.312  0.2746 
  2399.500 
  9.8280  71.439  0.3110  0.2360 -0.0020 -52.228  5.5520  6.0530  7.9030 
 -999.25 -999.25 -999.25  119.25 -999.25 -999.25 -999.25 -999.25 -999.25 
 -999.25 -999.25 -999.25 -999.25 -31.920  7.9030  6.0530  5.5520  130.33 
  2.2606  2.2587 -0.0024  9.8235  71.632  0.3080  7.9030  6.0530  5.5520 
  2.2649  74.684  0.2725 
  2400.000 
  9.8690  71.629  0.3100  0.2320 -0.0020 -51.827  5.5320  6.0200  7.7310 
 -999.25 -999.25 -999.25  115.12 -999.25 -999.25 -999.25 -999.25 -999.25 
 -999.25 -999.25 -999.25 -999.25 -31.524  7.7310  6.0200  5.5320  130.65 
  2.2672  2.2650 -0.0020  9.8556  71.869  0.3050  7.7310  6.0200  5.5320 
  2.2714  75.011  0.2693 
  2400.500 
  9.8850  73.004  0.3080  0.2300 -0.0020 -51.505  5.4910  6.0200  7.5210 
 -999.25 -999.25 -999.25  114.10 -999.25 -999.25 -999.25 -999.25 -999.25 
 -999.25 -999.25 -999.25 -999.25 -31.207  7.5210  6.0200  5.4910  132.38 
  2.2705  2.2696 -0.0020  9.8805  73.022  0.3030  7.5210  6.0200  5.4910 
  2.2761  76.279  0.2672 
