~Version Information
VERS.                     2.0: CWLS log ASCII Standard Version 2.00
WRAP.                     YES: Multiple lines per depth step
~Well Information Block
#MNEM.UNIT                               Data Type  Information
#---------                               ---------  -----------
STRT.FT                                   805.0000:
STOP.FT                                  5010.0000:
STEP.FT                                     0.5000:
NULL.                 -999.25                     :
COMP.                                             :COMPANY            
WELL.     SANTIAGO C 55-28                        :WELL               
FLD .                                             :FIELD              
CTRY.                                             :COUNTRY            
STAT.                                             :STATE              
LOC .                                             :LOCATION           
UWI .                                             :UNIQUE WELL ID     
SRVC.                                             :Service company    
DATE.                                             :LOG DATE           
~Curve Information
#MNEM.UNIT           API CODE  Curve Description
#---------           --------  -----------------
DEPT.FT                      :   1 DEPTH
CALI.IN                      :   2
GR  .GAPI                    :   3
NPHI.PU-S                    :   4
DPHI.PU-S                    :   5
DRHO.G/C3                    :   6
SP  .MV                      :   7
ILD .OHMM                    :   8
ILM .OHMM                    :   9
SFLU.OHMM                    :  10
LLD .OHMM                    :  11
LLS .OHMM                    :  12
MSFL.OHMM                    :  13
DT  .US/F                    :  14
SPHI.                        :  15
KSCI.                        :  16
PSCI.                        :  17
OSCI.                        :  18
WSCI.                        :  19
KWCI.                        :  20
PWCI.                        :  21
OWCI.                        :  22
WWCI.                        :  23
SBL .MV                      :  24
RS  .OHMM                    :  25
RM  .OHMM                    :  26
RD  .OHMM                    :  27
DTS .US/F                    :  28
RHOB.G/C3                    :  29
ROBS.G/C3                    :  30
DROS.G/C3                    :  31
CALS.IN                      :  32
GRS .GAPI                    :  33
NPHS.PU-S                    :  34
SFLU.OHMM                    :  35
ILMC.OHMM                    :  36
ILDC.OHMM                    :  37
ROBC.G/C3                    :  38
GRC .GAPI                    :  39
NPHC.PU-S                    :  40
~A
# ...
  3385.000 
  10.539  78.765  0.1880  0.1290  0.0070 -26.901 -999.25 -999.25 -999.25 
  6.9190  6.3810  9.7690  165.09 -999.25 -999.25 -999.25 -999.25 -999.25 
 -999.25 -999.25 -999.25 -999.25 -12.105  9.7690  6.3810  6.9190  115.19 
  2.4372  2.4504  0.0190  10.216  76.891  0.2110  9.7690  6.3810  6.9190 
  2.4504  76.891  0.2110 
  3385.500 
  10.216  81.434  0.2110  0.1210  0.0190 -26.590 -999.25 -999.25 -999.25 
  6.5940  5.6580  11.319  157.26 -999.25 -999.25 -999.25 -999.25 -999.25 
 -999.25 -999.25 -999.25 -999.25 -11.783  11.319  5.6580  6.5940  128.67 
  2.4504  2.4536  0.0340  9.9760  79.371  0.2310  11.319  5.6580  6.5940 
  2.4536  79.371  0.2310 
  3386.000 
  9.9760  83.685  0.2310  0.1190  0.0340 -26.238 -999.25 -999.25 -999.25 
  6.4470  5.5430  8.3950  149.39 -999.25 -999.25 -999.25 -999.25 -999.25 
 -999.25 -999.25 -999.25 -999.25 -11.419  8.3950  5.5430  6.4470  132.52 
  2.4536  2.4388  0.0520  9.8630  81.942  0.2410  8.3950  5.5430  6.4470 
  2.4388  81.942  0.2410 
  3386.500 
  9.8630  85.041  0.2410  0.1280  0.0520 -26.046 -999.25 -999.25 -999.25 
  6.4220  5.9980  6.3750  149.71 -999.25 -999.25 -999.25 -999.25 -999.25 
 -999.25 -999.25 -999.25 -999.25 -11.216  6.3750  5.9980  6.4220  146.82 
  2.4388  2.3992  0.0540  9.8310  83.989  0.2490  6.3750  5.9980  6.4220 
  2.3992  83.989  0.2490 
  3387.000 
  9.8310  86.219  0.2490  0.1520  0.0540 -26.290 -999.25 -999.25 -999.25 
  6.6000  6.3850  5.9860  150.04 -999.25 -999.25 -999.25 -999.25 -999.25 
 -999.25 -999.25 -999.25 -999.25 -11.448  5.9860  6.3850  6.6000  148.52 
  2.3992  2.3662  0.0430  9.8260  85.303  0.2500  5.9860  6.3850  6.6000 
  2.3662  85.303  0.2500 
  3387.500 
  9.8260  86.859  0.2500  0.1720  0.0430 -27.131 -999.25 -999.25 -999.25 
  6.9100  6.6840  5.6930  156.97 -999.25 -999.25 -999.25 -999.25 -999.25 
 -999.25 -999.25 -999.25 -999.25 -12.278  5.6930  6.6840  6.9100  150.29 
  2.3662  2.3184  0.0220  9.8400  86.361  0.2410  5.6930  6.6840  6.9100 
  2.3184  86.361  0.2410 
  3388.000 
  9.8400  86.844  0.2410  0.2010  0.0220 -28.526 -999.25 -999.25 -999.25 
  7.3140  6.7070  7.4780  152.36 -999.25 -999.25 -999.25 -999.25 -999.25 
 -999.25 -999.25 -999.25 -999.25 -13.661  7.4780  6.7070  7.3140  154.58 
  2.3184  2.3019  0.0150  9.8390  86.856  0.2370  7.4780  6.7070  7.3140 
  2.3019  86.856  0.2370 
  3388.500 
  9.8390  82.771  0.2370  0.2110  0.0150 -30.595 -999.25 -999.25 -999.25 
  7.6150  6.8680  9.5720  138.58 -999.25 -999.25 -999.25 -999.25 -999.25 
 -999.25 -999.25 -999.25 -999.25 -15.719  9.5720  6.8680  7.6150  171.82 
  2.3019  2.3184  0.0380  9.8340  85.954  0.2340  9.5720  6.8680  7.6150 
  2.3184  85.954  0.2340 
  3389.000 
  9.8340  78.103  0.2340  0.2010  0.0380 -32.586 -999.25 -999.25 -999.25 
  7.6840  7.0710  10.669  135.11 -999.25 -999.25 -999.25 -999.25 -999.25 
 -999.25 -999.25 -999.25 -999.25 -17.698  10.669  7.0710  7.6840  179.98 
  2.3184  2.3332  0.0610  9.8770  81.758  0.2330  10.669  7.0710  7.6840 
  2.3332  81.758  0.2330 
  3389.500 
  9.8770  73.791  0.2330  0.1920  0.0610 -32.950 -999.25 -999.25 -999.25 
  7.3770  6.7630  12.249  131.35 -999.25 -999.25 -999.25 -999.25 -999.25 
 -999.25 -999.25 -999.25 -999.25 -18.051  12.249  6.7630  7.3770  176.51 
  2.3332  2.3448  0.0750  9.9750  77.174  0.2550  12.249  6.7630  7.3770 
  2.3448  77.174  0.2550 
  3390.000 
  9.9750  71.092  0.2550  0.1850  0.0750 -31.131 -999.25 -999.25 -999.25 
  5.1660  5.1850  3.8310  124.92 -999.25 -999.25 -999.25 -999.25 -999.25 
 -999.25 -999.25 -999.25 -999.25 -16.220  3.8310  5.1850  5.1660  171.80 
  2.3448  2.3283  0.0810  10.074  73.213  0.3080  3.8310  5.1850  5.1660 
  2.3283  73.213  0.3080 
  3390.500 
  10.074  68.691  0.3080  0.1950  0.0810 -31.171 -999.25 -999.25 -999.25 
  5.4770  5.6730  4.8950  108.16 -999.25 -999.25 -999.25 -999.25 -999.25 
 -999.25 -999.25 -999.25 -999.25 -16.249  4.8950  5.6730  5.4770  163.91 
  2.3283  2.2870  0.0750  9.9970  70.582  0.3270  4.8950  5.6730  5.4770 
  2.2870  70.582  0.3270 
  3391.000 
  9.9970  66.647  0.3270  0.2200  0.0750 -29.279 -999.25 -999.25 -999.25 
  6.8190  7.8160  4.4370  107.25 -999.25 -999.25 -999.25 -999.25 -999.25 
 -999.25 -999.25 -999.25 -999.25 -14.345  4.4370  7.8160  6.8190  156.04 
  2.2870  2.1979  0.0540  9.7740  68.259  0.3160  4.4370  7.8160  6.8190 
  2.1979  68.259  0.3160 
  3391.500 
  9.7740  66.989  0.3160  0.2740  0.0540 -30.003 -999.25 -999.25 -999.25 
  9.0560  9.2760  77.204  110.38 -999.25 -999.25 -999.25 -999.25 -999.25 
 -999.25 -999.25 -999.25 -999.25 -15.058  77.204  9.2760  9.0560  149.44 
  2.1979  2.1484  0.0210  9.6730  66.719  0.2410  77.204  9.2760  9.0560 
  2.1484  66.719  0.2410 
  3392.000 
  9.6730  75.742  0.2410  0.3040  0.0210 -32.992 -999.25 -999.25 -999.25 
  9.7810  9.7810  47.779  110.42 -999.25 -999.25 -999.25 -999.25 -999.25 
 -999.25 -999.25 -999.25 -999.25 -18.035  47.779  9.7810  9.7810  149.77 
  2.1484  2.1451  0.0060  9.6760  68.811  0.2340  47.779  9.7810  9.7810 
  2.1451  68.811  0.2340 
  3392.500 
  9.6760  83.959  0.2340  0.3060  0.0060 -34.153 -999.25 -999.25 -999.25 
  7.5670  7.5810  15.852  106.45 -999.25 -999.25 -999.25 -999.25 -999.25 
 -999.25 -999.25 -999.25 -999.25 -19.185  15.852  7.5810  7.5670  151.23 
  2.1451  2.1930  0.0130  9.7620  77.441  0.2370  15.852  7.5810  7.5670 
  2.1930  77.441  0.2370 
  3393.000 
  9.7620  87.343  0.2370  0.2770  0.0130 -33.805 -999.25 -999.25 -999.25 
  5.5590  4.6480  5.7570  106.02 -999.25 -999.25 -999.25 -999.25 -999.25 
 -999.25 -999.25 -999.25 -999.25 -18.825  5.7570  4.6480  5.5590  156.15 
  2.1930  2.2293  0.0320  9.9440  84.654  0.2930  5.7570  4.6480  5.5590 
  2.2293  84.654  0.2930 
  3393.500 
  9.9440  82.793  0.2930  0.2550  0.0320 -30.918 -999.25 -999.25 -999.25 
  3.0120  2.9250  2.8350  105.39 -999.25 -999.25 -999.25 -999.25 -999.25 
 -999.25 -999.25 -999.25 -999.25 -15.927  2.8350  2.9250  3.0120  149.84 
  2.2293  2.2491  0.0450  10.253  86.416  0.3490  2.8350  2.9250  3.0120 
  2.2491  86.416  0.3490 
  3394.000 
  10.253  77.708  0.3490  0.2430  0.0450 -27.553 -999.25 -999.25 -999.25 
  2.6220  2.5460  2.2050  101.60 -999.25 -999.25 -999.25 -999.25 -999.25 
 -999.25 -999.25 -999.25 -999.25 -12.550  2.2050  2.5460  2.6220  137.93 
  2.2491  2.2557  0.0480  10.419  81.764  0.4010  2.2050  2.5460  2.6220 
  2.2557  81.764  0.4010 
  3394.500 
  10.419  74.769  0.4010  0.2390  0.0480 -24.189 -999.25 -999.25 -999.25 
  2.4210  2.4130  2.0700  93.111 -999.25 -999.25 -999.25 -999.25 -999.25 
 -999.25 -999.25 -999.25 -999.25 -9.1746  2.0700  2.4130  2.4210  134.38 
  2.2557  2.2589  0.0470  10.478  77.118  0.4140  2.0700  2.4130  2.4210 
  2.2589  77.118  0.4140 
  3395.000 
  10.478  72.426  0.4140  0.2370  0.0470 -22.649 -999.25 -999.25 -999.25 
  2.4980  2.5540  2.4160  92.500 -999.25 -999.25 -999.25 -999.25 -999.25 
 -999.25 -999.25 -999.25 -999.25 -7.6231  2.4160  2.5540  2.4980  130.07 
  2.2589  2.2639  0.0170  10.425  74.302  0.4050  2.4160  2.5540  2.4980 
  2.2639  74.302  0.4050 
  3395.500 
  10.425  69.846  0.4050  0.2340  0.0170 -21.628 -999.25 -999.25 -999.25 
  3.0470  3.1970  4.4640  98.652 -999.25 -999.25 -999.25 -999.25 -999.25 
 -999.25 -999.25 -999.25 -999.25 -6.5906  4.4640  3.1970  3.0470  121.49 
  2.2639  2.2738 -0.0030  10.337  71.915  0.3830  4.4640  3.1970  3.0470 
  2.2738  71.915  0.3830 
  3396.000 
  10.337  66.013  0.3830  0.2280 -0.0030 -21.280 -999.25 -999.25 -999.25 
  3.9070  3.8640  5.8190  116.54 -999.25 -999.25 -999.25 -999.25 -999.25 
 -999.25 -999.25 -999.25 -999.25 -6.2311  5.8190  3.8640  3.9070  107.97 
  2.2738  2.3382 -0.0080  10.232  69.093  0.3410  5.8190  3.8640  3.9070 
  2.3382  69.093  0.3410 
  3396.500 
  10.232  62.060  0.3410  0.1890 -0.0080 -21.410 -999.25 -999.25 -999.25 
  5.0650  5.3730  13.537  126.85 -999.25 -999.25 -999.25 -999.25 -999.25 
 -999.25 -999.25 -999.25 -999.25 -6.3496  13.537  5.3730  5.0650  107.92 
  2.3382  2.3712 -0.0070  10.100  65.242  0.3170  13.537  5.3730  5.0650 
  2.3712  65.242  0.3170 
