~Version Information
VERS.                     2.0: CWLS log ASCII Standard Version 2.00
WRAP.                     YES: Multiple lines per depth step
~Well Information Block
#MNEM.UNIT                               Data Type  Information
#---------                               ---------  -----------
STRT.FT                                   100.0000:
STOP.FT                                  3000.0000:
STEP.FT                                     0.5000:
NULL.                 -999.25                     :
COMP.                                             :COMPANY            
WELL.     LOS LOBOS 51X-30                        :WELL               
FLD .                                             :FIELD              
CTRY.                                             :COUNTRY            
STAT.                                             :STATE              
LOC .                                             :LOCATION           
UWI .                                             :UNIQUE WELL ID     
SRVC.                                             :Service company    
DATE.                                             :LOG DATE           
~Curve Information
#MNEM.UNIT           API CODE  Curve Description
#---------           --------  -----------------
DEPT.FT                      :   1 DEPTH
GR  .GAPI                    :   2
CALI.IN                      :   3
DPHI.PU-S                    :   4
NPHI.PU-S                    :   5
DRHO.G/C3                    :   6
DT  .US/F                    :   7
ROP .                        :   8
GAS .                        :   9
CGAS.                        :  10
C1R .                        :  11
C2R .                        :  12
C3R .                        :  13
SP  .MV                      :  14
ILD .OHMM                    :  15
ILM .OHMM                    :  16
SFLU.OHMM                    :  17
GRS .GAPI                    :  18
CALS.IN                      :  19
ROBS.G/C3                    :  20
NPHS.PU-S                    :  21
DROS.G/C3                    :  22
DTS .US/F                    :  23
SBL .MV                      :  24
 RD .OHMM                    :  25
RM  .OHMM                    :  26
RS  .OHMM                    :  27
SFLU.OHMM                    :  28
ILMC.OHMM                    :  29
ILDC.OHMM                    :  30
ROBC.G/C3                    :  31
GRC .GAPI                    :  32
NPHC.PU-S                    :  33
~A
# ...
  2942.000 
  102.10  7.2550  0.5210  0.4970  0.0050  140.10  13.962  5.7698  3.2862 
  3.4469 -999.25 -999.25 -999.25  1.2960  1.3420 -999.25  102.80  7.0154 
  1.7902  0.5060 -0.0034  133.31 -999.25  1.2960  1.3420 -999.25 -999.25 
  1.3420  1.2960  1.7902  95.817  0.4983 
  2942.500 
  105.67  7.2790  0.5220  0.5130  0.0080  149.10  14.106  5.6299  2.8843 
  3.4443 -999.25 -999.25 -999.25  1.3210  1.4050 -999.25  101.86  7.0999 
  1.7904  0.4978  0.0006  132.28 -999.25  1.3210  1.4050 -999.25 -999.25 
  1.4050  1.3210  1.7904  95.294  0.4892 
  2943.000 
  109.17  7.2670  0.5200  0.5440  0.0010  152.71  36.997  5.4765  2.6471 
  3.4418 -999.25 -999.25 -999.25  1.3790  1.5190 -999.25  102.08  7.2423 
  1.7904  0.4970  0.0047  140.10 -999.25  1.3790  1.5190 -999.25 -999.25 
  1.5190  1.3790  1.7904  96.081  0.4884 
  2943.500 
  107.90  7.2830  0.5160  0.5470  0.0000  150.19  36.862  5.2575  2.4937 
  3.4393 -999.25 -999.25 -999.25  1.4500  1.6180 -999.25  105.39  7.2771 
  1.7888  0.5117  0.0078  149.10 -999.25  1.4500  1.6180 -999.25 -999.25 
  1.6180  1.4500  1.7888  99.346  0.5049 
  2944.000 
  103.23  7.3190  0.5080  0.5290  0.0020  149.66  36.751  5.3074  2.3861 
  3.4368 -999.25 -999.25 -999.25  1.5000  1.7300 -999.25  108.91  7.2679 
  1.7918  0.5417  0.0015  152.71 -999.25  1.5000  1.7300 -999.25 -999.25 
  1.7300  1.5000  1.7918  102.62  0.5385 
  2944.500 
  101.73  7.4380  0.4920  0.5070  0.0060  140.68  36.639  5.4299  2.3039 
  3.4343 -999.25 -999.25 -999.25  1.5800  1.8730 -999.25  107.99  7.2819 
  1.7982  0.5468  0.0001  150.19 -999.25  1.5800  1.8730 -999.25 -999.25 
  1.8730  1.5800  1.7982  101.82  0.5442 
  2945.000 
  101.97  7.5540  0.4760  0.4940  0.0150  142.15  36.528  5.5788  2.1052 
  3.4318 -999.25 -999.25 -999.25  1.6490  2.0130 -999.25  103.52  7.3168 
  1.8110  0.5301  0.0019  149.66 -999.25  1.6490  2.0130 -999.25 -999.25 
  2.0130  1.6490  1.8110  97.747  0.5255 
  2945.500 
  102.93  7.6050  0.4360  0.5250  0.0200  140.98  36.417  5.6046  1.9126 
  2.9468 -999.25 -999.25 -999.25  1.7820  2.1600 -999.25  101.81  7.4315 
  1.8368  0.5082  0.0058  140.68 -999.25  1.7820  2.1600 -999.25 -999.25 
  2.1600  1.7820  1.8368  96.605  0.5010 
  2946.000 
  104.52  7.6090  0.4150  0.5410  0.0100  141.12  23.763  5.6117  1.7786 
  2.9558 -999.25 -999.25 -999.25  1.8850  2.2880 -999.25  101.96  7.5484 
  1.8633  0.4946  0.0146  142.15 -999.25  1.8850  2.2880 -999.25 -999.25 
  2.2880  1.8850  1.8633  97.220  0.4859 
  2946.500 
  107.46  7.6370  0.3560  0.5460  0.0020  150.02  24.386  5.6187  1.6729 
  2.9631 -999.25 -999.25 -999.25  1.9640  2.3880 -999.25  102.89  7.6029 
  1.9278  0.5237  0.0198  140.98 -999.25  1.9640  2.3880 -999.25 -999.25 
  2.3880  1.9640  1.9278  98.325  0.5186 
  2947.000 
  106.35  7.7290  0.3460  0.5400  0.0090  155.44  25.352  5.6296  1.9142 
  2.9704 -999.25 -999.25 -999.25  2.0280  2.5480 -999.25  104.46  7.6089 
  1.9640  0.5404  0.0104  141.12 -999.25  2.0280  2.5480 -999.25 -999.25 
  2.5480  2.0280  1.9640  99.853  0.5373 
  2947.500 
  104.22  7.6220  0.3590  0.5210  0.0170  158.77  26.584  5.7036  2.1166 
  2.9777 -999.25 -999.25 -999.25  2.0750  2.6260 -999.25  107.37  7.6362 
  2.0598  0.5459  0.0022  150.02 -999.25  2.0750  2.6260 -999.25 -999.25 
  2.6260  2.0750  2.0598  102.75  0.5434 
  2948.000 
  106.28  7.4880  0.4010  0.5160  0.0170  156.00  14.917  5.8454  2.1879 
  2.9850 -999.25 -999.25 -999.25  2.0580  2.6430 -999.25  106.38  7.7269 
  2.0787  0.5401  0.0088  155.44 -999.25  2.0580  2.6430 -999.25 -999.25 
  2.6430  2.0580  2.0787  102.18  0.5371 
  2948.500 
  110.64  7.4920  0.4500  0.5110  0.0100  152.45  14.678  5.9720  2.2592 
  2.9924 -999.25 -999.25 -999.25  2.0190  2.5000 -999.25  104.25  7.6237 
  2.0580  0.5213  0.0169  158.77 -999.25  2.0190  2.5000 -999.25 -999.25 
  2.5000  2.0190  2.0580  99.712  0.5159 
  2949.000 
  113.42  7.4920  0.4580  0.5040  0.0020  151.09  14.439  5.8494  2.2738 
  2.9997 -999.25 -999.25 -999.25  1.9340  2.3600 -999.25  106.26  7.4893 
  1.9890  0.5160  0.0170  156.00 -999.25  1.9340  2.3600 -999.25 -999.25 
  2.3600  1.9340  1.9890  101.07  0.5099 
  2949.500 
  113.43  7.3180  0.4800  0.4940  0.0040  150.99  14.199  5.4824  2.0893 
  2.7945 -999.25 -999.25 -999.25  1.8700  2.1720 -999.25  110.63  7.4920 
  1.9078  0.5110  0.0100  152.45 -999.25  1.8700  2.1720 -999.25 -999.25 
  2.1720  1.8700  1.9078  105.24  0.5042 
  2950.000 
  110.10  6.9380  0.5070  0.4950  0.0090  151.11  13.998  4.8952  1.8294 
  2.7975 -999.25 -999.25 -999.25  1.7910  1.9660 -999.25  113.42  7.4915 
  1.8942  0.5040  0.0020  151.09 -999.25  1.7910  1.9660 -999.25 -999.25 
  1.9660  1.7910  1.8942  107.89  0.4963 
  2950.500 
  109.94  6.8230  0.5200  0.5150  0.0090 -999.25  20.010  4.6264  1.6013 
  2.8009 -999.25 -999.25 -999.25 -999.25 -999.25 -999.25  113.43  7.3180 
  1.8580  0.4940  0.0040  150.99 -999.25 -999.25 -999.25 -999.25 -999.25 
 -999.25 -999.25  1.8580  107.11  0.4850 
  2951.000 
  109.46  6.7750  0.5350  0.5170  0.0040 -999.25  20.249  4.7539  1.4040 
  2.8043 -999.25 -999.25 -999.25 -999.25 -999.25 -999.25  110.10  6.9380 
  1.8135  0.4950  0.0090  151.11 -999.25 -999.25 -999.25 -999.25 -999.25 
 -999.25 -999.25  1.8135  102.28  0.4859 
  2951.500 
  107.31  6.7540  0.5390  0.5190 -0.0020 -999.25  13.124  5.0814  1.3004 
  2.8077 -999.25 -999.25 -999.25 -999.25 -999.25 -999.25  109.94  6.8230 
  1.7920  0.5150  0.0090 -999.25 -999.25 -999.25 -999.25 -999.25 -999.25 
 -999.25 -999.25  1.7920  101.61  0.5083 
  2952.000 
  102.31  6.7820  0.5370  0.5290 -0.0060 -999.25  13.473  5.5820  1.1968 
  2.8111 -999.25 -999.25 -999.25 -999.25 -999.25 -999.25  109.46  6.7750 
  1.7673  0.5170  0.0040 -999.25 -999.25 -999.25 -999.25 -999.25 -999.25 
 -999.25 -999.25  1.7673  100.94  0.5105 
  2952.500 
  98.419  6.9560  0.5280  0.5310 -0.0080 -999.25  28.262  6.3616  1.1118 
  2.8146 -999.25 -999.25 -999.25 -999.25 -999.25 -999.25  107.31  6.7540 
  1.7607  0.5190 -0.0020 -999.25 -999.25 -999.25 -999.25 -999.25 -999.25 
 -999.25 -999.25  1.7607  98.870  0.5127 
  2953.000 
  98.095  6.9200  0.5160  0.5310 -0.0080 -999.25  28.247  6.7719  1.1200 
  2.8180 -999.25 -999.25 -999.25 -999.25 -999.25 -999.25  102.31  6.7820 
  1.7640  0.5290 -0.0060 -999.25 -999.25 -999.25 -999.25 -999.25 -999.25 
 -999.25 -999.25  1.7640  94.382  0.5239 
  2953.500 
  101.10  6.7330  0.5060  0.5310 -0.0050 -999.25  28.230  7.0052  1.2180 
  2.8214 -999.25 -999.25 -999.25 -999.25 -999.25 -999.25  98.419  6.9560 
  1.7788  0.5310 -0.0080 -999.25 -999.25 -999.25 -999.25 -999.25 -999.25 
 -999.25 -999.25  1.7788  91.496  0.5263 
  2954.000 
  105.85  6.7170  0.5040  0.5420  0.0000 -999.25  15.648  7.2542  1.3288 
  2.8248 -999.25 -999.25 -999.25 -999.25 -999.25 -999.25  98.095  6.9200 
  1.7986  0.5310 -0.0080 -999.25 -999.25 -999.25 -999.25 -999.25 -999.25 
 -999.25 -999.25  1.7986  91.051  0.5263 
  2954.500 
  109.09  6.7720  0.5040  0.5470  0.0010 -999.25  15.186  6.1312  1.4395 
  2.8282 -999.25 -999.25 -999.25 -999.25 -999.25 -999.25  101.10  6.7330 
  1.8151  0.5310 -0.0050 -999.25 -999.25 -999.25 -999.25 -999.25 -999.25 
 -999.25 -999.25  1.8151  93.060  0.5261 
  2955.000 
  108.68  6.8310  0.4970  0.5420 -0.0020 -999.25  14.643  6.3805  1.5478 
  2.9151 -999.25 -999.25 -999.25 -999.25 -999.25 -999.25  105.85  6.7170 
  1.8184  0.5420  0.0000 -999.25 -999.25 -999.25 -999.25 -999.25 -999.25 
 -999.25 -999.25  1.8184  97.360  0.5385 
  2955.500 
  102.42  6.8470  0.4690  0.5380  0.0010 -999.25  23.767  6.2559  1.6451 
  2.9116 -999.25 -999.25 -999.25 -999.25 -999.25 -999.25  109.09  6.7720 
  1.8184  0.5470  0.0010 -999.25 -999.25 -999.25 -999.25 -999.25 -999.25 
 -999.25 -999.25  1.8184  100.59  0.5441 
  2956.000 
  100.75  6.7830  0.4560  0.5340  0.0090 -999.25  23.636  5.7019  1.6922 
  2.9082 -999.25 -999.25 -999.25 -999.25 -999.25 -999.25  108.68  6.8310 
  1.8300  0.5420 -0.0020 -999.25 -999.25 -999.25 -999.25 -999.25 -999.25 
 -999.25 -999.25  1.8300  100.48  0.5385 
