~Version Information
VERS.                     2.0: CWLS log ASCII Standard Version 2.00
WRAP.                     YES: Multiple lines per depth step
~Well Information Block
#MNEM.UNIT                               Data Type  Information
#---------                               ---------  -----------
STRT.FT                                   100.0000:
STOP.FT                                  3000.0000:
STEP.FT                                     0.5000:
NULL.                 -999.25                     :
COMP.                                             :COMPANY            
WELL.     LOS LOBOS 51X-30                        :WELL               
FLD .                                             :FIELD              
CTRY.                                             :COUNTRY            
STAT.                                             :STATE              
LOC .                                             :LOCATION           
UWI .                                             :UNIQUE WELL ID     
SRVC.                                             :Service company    
DATE.                                             :LOG DATE           
~Curve Information
#MNEM.UNIT           API CODE  Curve Description
#---------           --------  -----------------
DEPT.FT                      :   1 DEPTH
GR  .GAPI                    :   2
CALI.IN                      :   3
DPHI.PU-S                    :   4
NPHI.PU-S                    :   5
DRHO.G/C3                    :   6
DT  .US/F                    :   7
ROP .                        :   8
GAS .                        :   9
CGAS.                        :  10
C1R .                        :  11
C2R .                        :  12
C3R .                        :  13
SP  .MV                      :  14
ILD .OHMM                    :  15
ILM .OHMM                    :  16
SFLU.OHMM                    :  17
GRS .GAPI                    :  18
CALS.IN                      :  19
ROBS.G/C3                    :  20
NPHS.PU-S                    :  21
DROS.G/C3                    :  22
DTS .US/F                    :  23
SBL .MV                      :  24
 RD .OHMM                    :  25
RM  .OHMM                    :  26
RS  .OHMM                    :  27
SFLU.OHMM                    :  28
ILMC.OHMM                    :  29
ILDC.OHMM                    :  30
ROBC.G/C3                    :  31
GRC .GAPI                    :  32
NPHC.PU-S                    :  33
~A
# ...
  1071.500 
 -999.25 -999.25 -999.25 -999.25 -999.25 -999.25  244.49  21.612  57.483 
  4.3509  0.9861 -999.25 -37.901  1.9240  2.1080  1.9340 -999.25 -999.25 
 -999.25 -999.25 -999.25 -999.25 -13.630  1.9240  2.1080  1.9340  1.9340 
  2.1080  1.9240 -999.25 -999.25 -999.25 
  1072.000 
 -999.25 -999.25 -999.25 -999.25 -999.25 -999.25  244.49  21.542  57.177 
  4.3526  0.9863 -999.25 -37.437  1.9090  2.1030  1.9330 -999.25 -999.25 
 -999.25 -999.25 -999.25 -999.25 -13.172  1.9090  2.1030  1.9330  1.9330 
  2.1030  1.9090 -999.25 -999.25 -999.25 
  1072.500 
 -999.25 -999.25 -999.25 -999.25 -999.25 -999.25  244.49  21.441  56.919 
  4.3543  0.9866 -999.25 -37.208  1.9110  2.0860  1.9180 -999.25 -999.25 
 -999.25 -999.25 -999.25 -999.25 -12.950  1.9110  2.0860  1.9180  1.9180 
  2.0860  1.9110 -999.25 -999.25 -999.25 
  1073.000 
 -999.25 -999.25 -999.25 -999.25 -999.25 -999.25  244.48  21.318  56.686 
  4.3560  0.9869 -999.25 -36.981  1.9240  2.0890  1.9060 -999.25 -999.25 
 -999.25 -999.25 -999.25 -999.25 -12.729  1.9240  2.0890  1.9060  1.9060 
  2.0890  1.9240 -999.25 -999.25 -999.25 
  1073.500 
 -999.25 -999.25 -999.25 -999.25 -999.25 -999.25  244.48  21.107  56.471 
  4.3577  0.9872 -999.25 -36.716  1.9440  2.0920  1.9080 -999.25 -999.25 
 -999.25 -999.25 -999.25 -999.25 -12.471  1.9440  2.0920  1.9080  1.9080 
  2.0920  1.9440 -999.25 -999.25 -999.25 
  1074.000 
 -999.25 -999.25 -999.25 -999.25 -999.25 -999.25  244.48  20.749  56.260 
  4.3594  0.9874 -999.25 -36.413  1.9460  2.0750  1.9210 -999.25 -999.25 
 -999.25 -999.25 -999.25 -999.25 -12.174  1.9460  2.0750  1.9210  1.9210 
  2.0750  1.9460 -999.25 -999.25 -999.25 
  1074.500 
 -999.25 -999.25 -999.25 -999.25 -999.25 -999.25  244.47  20.435  56.130 
  4.3611  0.9877 -999.25 -36.187  1.9340  2.0690  1.9130 -999.25 -999.25 
 -999.25 -999.25 -999.25 -999.25 -11.955  1.9340  2.0690  1.9130  1.9130 
  2.0690  1.9340 -999.25 -999.25 -999.25 
  1075.000 
 -999.25 -999.25 -999.25 -999.25 -999.25 -999.25  244.47  19.967  56.001 
  4.3629  0.9880 -999.25 -35.838  1.9330  2.0640  1.9150 -999.25 -999.25 
 -999.25 -999.25 -999.25 -999.25 -11.612  1.9330  2.0640  1.9150  1.9150 
  2.0640  1.9330 -999.25 -999.25 -999.25 
  1075.500 
 -999.25 -999.25 -999.25 -999.25 -999.25 -999.25  244.47  19.656  55.754 
  4.3646  0.9883 -999.25 -35.413  1.9140  2.0630  1.9250 -999.25 -999.25 
 -999.25 -999.25 -999.25 -999.25 -11.194  1.9140  2.0630  1.9250  1.9250 
  2.0630  1.9140 -999.25 -999.25 -999.25 
  1076.000 
 -999.25 -999.25 -999.25 -999.25 -999.25 -999.25  244.46  19.306  55.469 
  4.3663  0.9886 -999.25 -35.426  1.9020  2.0350  1.9170 -999.25 -999.25 
 -999.25 -999.25 -999.25 -999.25 -11.213  1.9020  2.0350  1.9170  1.9170 
  2.0350  1.9020 -999.25 -999.25 -999.25 
  1076.500 
 -999.25 -999.25 -999.25 -999.25 -999.25 -999.25  244.46  18.915  55.183 
  4.3680  0.9888 -999.25 -35.680  1.8980  2.0360  1.9080 -999.25 -999.25 
 -999.25 -999.25 -999.25 -999.25 -11.474  1.8980  2.0360  1.9080  1.9080 
  2.0360  1.8980 -999.25 -999.25 -999.25 
  1077.000 
 -999.25 -999.25 -999.25 -999.25 -999.25 -999.25  244.46  18.510  54.898 
  4.3697  0.9891 -999.25 -35.974  1.8900  2.0360  1.9140 -999.25 -999.25 
 -999.25 -999.25 -999.25 -999.25 -11.774  1.8900  2.0360  1.9140  1.9140 
  2.0360  1.8900 -999.25 -999.25 -999.25 
  1077.500 
 -999.25 -999.25 -999.25 -999.25 -999.25 -999.25  244.45  18.095  54.568 
  4.3714  0.9894 -999.25 -36.142  1.9020  2.0360  1.9340 -999.25 -999.25 
 -999.25 -999.25 -999.25 -999.25 -11.948  1.9020  2.0360  1.9340  1.9340 
  2.0360  1.9020 -999.25 -999.25 -999.25 
  1078.000 
 -999.25 -999.25 -999.25 -999.25 -999.25 -999.25  244.45  17.819  54.309 
  4.3731  0.9897 -999.25 -36.396  1.9260  2.0190  1.9470 -999.25 -999.25 
 -999.25 -999.25 -999.25 -999.25 -12.209  1.9260  2.0190  1.9470  1.9470 
  2.0190  1.9260 -999.25 -999.25 -999.25 
  1078.500 
 -999.25 -999.25 -999.25 -999.25 -999.25 -999.25  244.45  17.551  54.118 
  4.3745  0.9900 -999.25 -36.608  1.9460  2.0250  1.9670 -999.25 -999.25 
 -999.25 -999.25 -999.25 -999.25 -12.427  1.9460  2.0250  1.9670  1.9670 
  2.0250  1.9460 -999.25 -999.25 -999.25 
  1079.000 
 -999.25 -999.25 -999.25 -999.25 -999.25 -999.25  244.44  17.394  53.927 
  3.9406  0.8518 -999.25 -36.824  1.9620  2.0470  1.9800 -999.25 -999.25 
 -999.25 -999.25 -999.25 -999.25 -12.650  1.9620  2.0470  1.9800  1.9800 
  2.0470  1.9620 -999.25 -999.25 -999.25 
  1079.500 
 -999.25 -999.25 -999.25 -999.25 -999.25 -999.25  244.44  17.399  53.736 
  3.9407  0.8521 -999.25 -36.913  1.9830  2.0640  2.0010 -999.25 -999.25 
 -999.25 -999.25 -999.25 -999.25 -12.745  1.9830  2.0640  2.0010  2.0010 
  2.0640  1.9830 -999.25 -999.25 -999.25 
  1080.000 
 -999.25 -999.25 -999.25 -999.25 -999.25 -999.25  244.44  17.088  53.455 
  3.9408  0.8525 -999.25 -37.086  1.9850  2.0670  2.0180 -999.25 -999.25 
 -999.25 -999.25 -999.25 -999.25 -12.925  1.9850  2.0670  2.0180  2.0180 
  2.0670  1.9850 -999.25 -999.25 -999.25 
  1080.500 
 -999.25 -999.25 -999.25 -999.25 -999.25 -999.25  244.43  17.097  53.164 
  3.9408  0.8529 -999.25 -37.177  1.9800  2.0610  2.0090 -999.25 -999.25 
 -999.25 -999.25 -999.25 -999.25 -13.022  1.9800  2.0610  2.0090  2.0090 
  2.0610  1.9800 -999.25 -999.25 -999.25 
  1081.000 
 -999.25 -999.25 -999.25 -999.25 -999.25 -999.25  244.43  17.332  52.873 
  3.9409  0.8532 -999.25 -37.191  1.9650  2.0570  1.9940 -999.25 -999.25 
 -999.25 -999.25 -999.25 -999.25 -13.043  1.9650  2.0570  1.9940  1.9940 
  2.0570  1.9650 -999.25 -999.25 -999.25 
  1081.500 
 -999.25 -999.25 -999.25 -999.25 -999.25 -999.25  244.43  17.739  52.582 
  3.9410  0.8536 -999.25 -37.124  1.9420  2.0470  1.9670 -999.25 -999.25 
 -999.25 -999.25 -999.25 -999.25 -12.982  1.9420  2.0470  1.9670  1.9670 
  2.0470  1.9420 -999.25 -999.25 -999.25 
  1082.000 
 -999.25 -999.25 -999.25 -999.25 -999.25 -999.25  244.42  18.095  52.300 
  3.9410  0.8540 -999.25 -36.901  1.9130  2.0470  1.9440 -999.25 -999.25 
 -999.25 -999.25 -999.25 -999.25 -12.766  1.9130  2.0470  1.9440  1.9440 
  2.0470  1.9130 -999.25 -999.25 -999.25 
  1082.500 
 -999.25 -999.25 -999.25 -999.25 -999.25 -999.25  244.42  17.990  52.109 
  3.9411  0.8543 -999.25 -36.712  1.9120  2.0640  1.9400 -999.25 -999.25 
 -999.25 -999.25 -999.25 -999.25 -12.583  1.9120  2.0640  1.9400  1.9400 
  2.0640  1.9120 -999.25 -999.25 -999.25 
  1083.000 
 -999.25 -999.25 -999.25 -999.25 -999.25 -999.25  244.42  17.832  51.917 
  3.9412  0.8547 -999.25 -36.485  1.9490  2.0740  1.9560 -999.25 -999.25 
 -999.25 -999.25 -999.25 -999.25 -12.362  1.9490  2.0740  1.9560  1.9560 
  2.0740  1.9490 -999.25 -999.25 -999.25 
  1083.500 
 -999.25 -999.25 -999.25 -999.25 -999.25 -999.25  244.41  17.596  51.713 
  3.9412  0.8551 -999.25 -36.340  1.9770  2.0880  1.9910 -999.25 -999.25 
 -999.25 -999.25 -999.25 -999.25 -12.224  1.9770  2.0880  1.9910  1.9910 
  2.0880  1.9770 -999.25 -999.25 -999.25 
  1084.000 
 -999.25 -999.25 -999.25 -999.25 -999.25 -999.25  144.14  17.134  51.509 
  3.9413  0.8554 -999.25 -36.272  2.0150  2.1020  2.0080 -999.25 -999.25 
 -999.25 -999.25 -999.25 -999.25 -12.162  2.0150  2.1020  2.0080  2.0080 
  2.1020  2.0150 -999.25 -999.25 -999.25 
  1084.500 
 -999.25 -999.25 -999.25 -999.25 -999.25 -999.25  144.37  16.577  51.308 
  3.9413  0.8558 -999.25 -36.285  2.0180  2.1190  2.0030 -999.25 -999.25 
 -999.25 -999.25 -999.25 -999.25 -12.182  2.0180  2.1190  2.0030  2.0030 
  2.1190  2.0180 -999.25 -999.25 -999.25 
  1085.000 
 -999.25 -999.25 -999.25 -999.25 -999.25 -999.25  144.56  15.791  51.169 
  3.9414  0.8562 -999.25 -36.258  2.0060  2.1220  1.9950 -999.25 -999.25 
 -999.25 -999.25 -999.25 -999.25 -12.161  2.0060  2.1220  1.9950  1.9950 
  2.1220  2.0060 -999.25 -999.25 -999.25 
  1085.500 
 -999.25 -999.25 -999.25 -999.25 -999.25 -999.25  144.74  14.875  51.030 
  3.9415  0.8565 -999.25 -36.112  1.9860  2.1210  1.9720 -999.25 -999.25 
 -999.25 -999.25 -999.25 -999.25 -12.022  1.9860  2.1210  1.9720  1.9720 
  2.1210  1.9860 -999.25 -999.25 -999.25 
