~Version Information
VERS.                     2.0: CWLS log ASCII Standard Version 2.00
WRAP.                      NO: One line per depth step
~Well Information Block
#MNEM.UNIT                               Data Type  Information
#---------                               ---------  -----------
STRT.FT                                    90.0000:
STOP.FT                                  2000.0000:
STEP.FT                                     0.5000:
NULL.                 -999.25                     :
COMP.                                             :COMPANY            
WELL.     LL 76-30 OR MUDDY CREEK 76-30           :WELL               
FLD .                                             :FIELD              
CTRY.                                             :COUNTRY            
STAT.                                             :STATE              
LOC .                                             :LOCATION           
UWI .                                             :UNIQUE WELL ID     
SRVC.                                             :Service company    
DATE.                                             :LOG DATE           
~Curve Information
#MNEM.UNIT           API CODE  Curve Description
#---------           --------  -----------------
DEPT.FT                      :   1 DEPTH
GR  .GAPI                    :   2
CALI.IN                      :   3
DPHI.PU-S                    :   4
NPHI.PU-S                    :   5
DRHO.G/C3                    :   6
SP  .MV                      :   7
ILD .OHMM                    :   8
ILM .OHMM                    :   9
SFLU.OHMM                    :  10
DT  .US/F                    :  11
RHOB.G/C3                    :  12
ROBS.G/C3                    :  13
CALS.IN                      :  14
DRHS.G/C3                    :  15
GRS .GAPI                    :  16
NPHS.PU-S                    :  17
DTS .US/F                    :  18
SBL .MV                      :  19
RD  .OHMM                    :  20
RM  .OHMM                    :  21
RS  .OHMM                    :  22
SFLU.OHMM                    :  23
ILMC.OHMM                    :  24
ILDC.OHMM                    :  25
ROBC.G/C3                    :  26
GRC .GAPI                    :  27
NPHC.PU-S                    :  28
~A
# ...
  1476.000  117.40  6.6980  0.5840  0.5370 -0.0050 -999.25  1.1920  1.2140 -999.25  144.90  1.6864  1.7290  6.6990 -0.0073  129.88  0.5001  145.10 -999.25  1.1920  1.2140 -999.25 -999.25  1.2140  1.1920  1.7290  116.97  0.4701 
  1476.500  129.97  6.6990  0.5760  0.5230 -0.0090 -999.25  1.2150  1.2260 -999.25  145.10  1.6996  1.7496  6.6993 -0.0050  128.66  0.4899  145.29 -999.25  1.2150  1.2260 -999.25 -999.25  1.2260  1.2150  1.7496  115.88  0.4592 
  1477.000  130.27  6.6990  0.5650  0.5130 -0.0080 -999.25  1.2260  1.2490 -999.25  145.29  1.7178  1.7484  6.7003 -0.0021  128.49  0.4977  145.29 -999.25  1.2260  1.2490 -999.25 -999.25  1.2490  1.2260  1.7484  115.72  0.4676 
  1477.500  129.18  6.6990  0.5460  0.4870 -0.0060 -999.25  1.2370  1.2490 -999.25  145.29  1.7491  1.7387  6.7010 -0.0010  132.52  0.5039  145.08 -999.25  1.2370  1.2490 -999.25 -999.25  1.2490  1.2370  1.7387  119.36  0.4742 
  1478.000  127.59  6.7000  0.5450  0.4930 -0.0030 -999.25  1.2600  1.2600 -999.25  145.08  1.7508  1.7284  6.7012 -0.0042  139.29  0.5028  143.38 -999.25  1.2600  1.2600 -999.25 -999.25  1.2600  1.2600  1.7284  125.46  0.4730 
  1478.500  130.68  6.7010  0.5500  0.5030  0.0000 -999.25  1.2840  1.2960 -999.25  143.38  1.7425  1.7322  6.7039 -0.0048  146.09  0.5022  142.58 -999.25  1.2840  1.2960 -999.25 -999.25  1.2960  1.2840  1.7322  131.60  0.4724 
  1479.000  137.87  6.7010  0.5590  0.5050 -0.0040 -999.25  1.3320  1.3200 -999.25  142.58  1.7277  1.7391  6.7135 -0.0040  155.26  0.5192  142.88 -999.25  1.3320  1.3200 -999.25 -999.25  1.3200  1.3320  1.7391  139.91  0.4907 
  1479.500  144.25  6.7020  0.5570  0.5000 -0.0050 -999.25  1.3440  1.3440 -999.25  142.88  1.7310  1.7482  6.7221 -0.0034  161.51  0.5410  143.47 -999.25  1.3440  1.3440 -999.25 -999.25  1.3440  1.3440  1.7482  145.60  0.5142 
  1480.000  154.03  6.7120  0.5530  0.5050 -0.0040 -999.25  1.3630  1.3820 -999.25  143.47  1.7376  1.7538  6.7214  0.0011  157.01  0.5452  144.07 -999.25  1.3630  1.3820 -999.25 -999.25  1.3820  1.3630  1.7538  141.54  0.5187 
  1480.500  162.01  6.7220  0.5470  0.5390 -0.0040 -999.25  1.3820  1.3950 -999.25  144.07  1.7475  1.7501  6.7040  0.0021  148.15  0.5489  143.96 -999.25  1.3820  1.3950 -999.25 -999.25  1.3950  1.3820  1.7501  133.45  0.5227 
  1481.000  157.83  6.7230  0.5430  0.5440  0.0010 -999.25  1.4080  1.3950 -999.25  143.96  1.7541  1.7372  6.7043  0.0030  146.08  0.5535  143.56 -999.25  1.4080  1.3950 -999.25 -999.25  1.3950  1.4080  1.7372  131.59  0.5276 
  1481.500  148.26  6.7040  0.5450  0.5470  0.0020 -999.25  1.4080  1.3950 -999.25  143.56  1.7508  1.7181  6.7237  0.0030  146.27  0.5581  144.45 -999.25  1.4080  1.3950 -999.25 -999.25  1.3950  1.4080  1.7181  131.87  0.5326 
  1482.000  146.07  6.7040  0.5530  0.5520  0.0030 -999.25  1.4080  1.3950 -999.25  144.45  1.7376  1.7084  6.7439 -0.0046  146.66  0.5613  145.85 -999.25  1.4080  1.3950 -999.25 -999.25  1.3950  1.4080  1.7084  132.33  0.5361 
  1482.500  146.28  6.7240  0.5650  0.5560  0.0030 -999.25  1.4080  1.3950 -999.25  145.85  1.7178  1.7048  6.7816 -0.0087  146.69  0.5577  147.94 -999.25  1.4080  1.3950 -999.25 -999.25  1.3950  1.4080  1.7048  132.55  0.5323 
  1483.000  146.68  6.7450  0.5710  0.5620 -0.0050 -999.25  1.4080  1.3950 -999.25  147.94  1.7079  1.7075  6.8035 -0.0090  149.15  0.5539  150.08 -999.25  1.4080  1.3950 -999.25 -999.25  1.3950  1.4080  1.7075  134.90  0.5282 
  1483.500  146.69  6.7850  0.5730  0.5600 -0.0090 -999.25  1.4210  1.3960 -999.25  150.08  1.7046  1.7106  6.8060 -0.0065  155.22  0.5655  150.88 -999.25  1.4210  1.3960 -999.25 -999.25  1.3960  1.4210  1.7106  140.41  0.5407 
  1484.000  149.48  6.8060  0.5710  0.5530 -0.0090 -999.25  1.4480  1.4020 -999.25  150.88  1.7079  1.7192  6.7906 -0.0044  165.34  0.5937  150.87 -999.25  1.4480  1.4020 -999.25 -999.25  1.4020  1.4480  1.7192  149.46  0.5711 
  1484.500  156.27  6.8060  0.5690  0.5560 -0.0060 -999.25  1.4480  1.4090 -999.25  150.87  1.7112  1.7287  6.8026 -0.0017  170.70  0.6113  150.40 -999.25  1.4480  1.4090 -999.25 -999.25  1.4090  1.4480  1.7287  154.38  0.5900 
  1485.000  167.44  6.7870  0.5630  0.5880 -0.0040 -999.25  1.4620  1.4480 -999.25  150.40  1.7211  1.7444  6.8367 -0.0003  171.63  0.6110  149.92 -999.25  1.4620  1.4480 -999.25 -999.25  1.4480  1.4620  1.7444  155.44  0.5897 
  1485.500  171.63  6.8070  0.5570  0.6080 -0.0010 -999.25  1.4890  1.4890 -999.25  149.92  1.7310  1.7655  6.8761  0.0000  167.68  0.5752  148.21 -999.25  1.4890  1.4890 -999.25 -999.25  1.4890  1.4890  1.7655  152.10  0.5511 
  1486.000  171.64  6.8470  0.5460  0.6200  0.0000 -999.25  1.4960  1.5160 -999.25  148.21  1.7491  1.7833  6.9420  0.0027  161.08  0.5413  147.11 -999.25  1.4960  1.5160 -999.25 -999.25  1.5160  1.4960  1.7833  146.50  0.5146 
  1486.500  166.06  6.8880  0.5320  0.5850  0.0000 -999.25  1.5030  1.5030 -999.25  147.11  1.7722  1.7760  7.0449  0.0059  153.45  0.5275  145.71 -999.25  1.5030  1.5030 -999.25 -999.25  1.5030  1.5030  1.7760  140.13  0.4997 
  1487.000  158.68  6.9680  0.5220  0.5450  0.0040 -999.25  1.5310  1.5030 -999.25  145.71  1.7887  1.7599  7.1250  0.0058  150.76  0.5208  145.71 -999.25  1.5310  1.5030 -999.25 -999.25  1.5030  1.5310  1.7599  138.11  0.4925 
  1487.500  150.51  7.0880  0.5340  0.5290  0.0070 -999.25  1.5590  1.5030 -999.25  145.71  1.7689  1.7465  7.1948  0.0039  153.77  0.5152  146.40 -999.25  1.5590  1.5030 -999.25 -999.25  1.5030  1.5590  1.7465  141.26  0.4865 
  1488.000  150.92  7.1490  0.5430  0.5220  0.0050 -999.25  1.5880  1.5170 -999.25  146.40  1.7541  1.7400  7.3044  0.0035  164.50  0.5124  147.70 -999.25  1.5880  1.5170 -999.25 -999.25  1.5170  1.5880  1.7400  151.76  0.4834 
  1488.500  155.91  7.2290  0.5510  0.5160  0.0030 -999.25  1.6180  1.5450 -999.25  147.70  1.7409  1.7475  7.4497  0.0015  177.10  0.5178  148.09 -999.25  1.6180  1.5450 -999.25 -999.25  1.5450  1.6180  1.7475  164.30  0.4893 
  1489.000  171.87  7.3690  0.5520  0.5120  0.0040 -999.25  1.6330  1.5740 -999.25  148.09  1.7392  1.7673  7.6324 -0.0038  194.80  0.5378  146.79 -999.25  1.6330  1.5740 -999.25 -999.25  1.5740  1.6330  1.7673  181.98  0.5108 
  1489.500  182.24  7.5290  0.5420  0.5140 -0.0010 -999.25  1.6790  1.6180 -999.25  146.79  1.7557  1.8243  7.8187 -0.0096  214.27  0.5437  144.19 -999.25  1.6790  1.6180 -999.25 -999.25  1.6180  1.6790  1.8243  201.57  0.5172 
  1490.000  208.96  7.7490  0.5270  0.5370 -0.0070 -999.25  1.6940  1.6630 -999.25  144.19  1.7805  1.8997  7.9251 -0.0110  224.78  0.5550  139.79 -999.25  1.6940  1.6630 -999.25 -999.25  1.6630  1.6940  1.8997  212.29  0.5295 
  1490.500  221.13  7.9090  0.4660  0.5420 -0.0130 -999.25  1.7100  1.7100 -999.25  139.79  1.8811  1.9467  7.9053 -0.0040  230.14  0.5636  135.59 -999.25  1.7100  1.7100 -999.25 -999.25  1.7100  1.7100  1.9467  217.20  0.5387 
  1491.000  230.21  7.9490  0.4380  0.5540 -0.0080 -999.25  1.7420  1.7420 -999.25  135.59  1.9273  1.9938  7.7704  0.0080  228.19  0.5768  134.89 -999.25  1.7420  1.7420 -999.25 -999.25  1.7420  1.7420  1.9938  214.28  0.5530 
  1491.500  230.02  7.8300  0.4060  0.5620  0.0030 -999.25  1.8070  1.7420 -999.25  134.89  1.9801  2.0140  7.5855  0.0201  219.05  0.5849  136.38 -999.25  1.8070  1.7420 -999.25 -999.25  1.7420  1.8070  2.0140  204.28  0.5617 
  1492.000  224.54  7.6510  0.3810  0.5760  0.0180 -999.25  1.8580  1.7740 -999.25  136.38  2.0214  1.9796  7.3266  0.0232  198.75  0.5954  137.78 -999.25  1.8580  1.7740 -999.25 -999.25  1.7740  1.8580  1.9796  183.52  0.5730 
  1492.500  206.20  7.4320  0.3960  0.5840  0.0250 -999.25  1.9100  1.8580 -999.25  137.78  1.9966  1.9231  6.9743  0.0157  176.11  0.6146  137.18 -999.25  1.9100  1.8580 -999.25 -999.25  1.8580  1.9100  1.9231  160.38  0.5937 
  1493.000  178.09  7.0340  0.4350  0.5940  0.0180 -999.25  2.0000  2.0560 -999.25  137.18  1.9323  1.9134  6.7791  0.0058  167.09  0.6400  126.49 -999.25  2.0000  2.0560 -999.25 -999.25  2.0560  2.0000  1.9134  150.98  0.6211 
  1493.500  169.52  6.7750  0.4590  0.6130  0.0080 -999.25  2.1520  2.2740 -999.25  126.49  1.8927  2.0156  6.7992 -0.0058  151.39  0.6367  115.80 -999.25  2.1520  2.2740 -999.25 -999.25  2.2740  2.1520  2.0156  136.90  0.6176 
