~Version Information
VERS.                     2.0: CWLS log ASCII Standard Version 2.00
WRAP.                      NO: One line per depth step
~Well Information Block
#MNEM.UNIT                               Data Type  Information
#---------                               ---------  -----------
STRT.FT                                   318.0000:
STOP.FT                                  2700.0000:
STEP.FT                                     0.5000:
NULL.                 -999.25                     :
COMP.                                             :COMPANY            
WELL.     LOS LOBOS 82X-30                        :WELL               
FLD .                                             :FIELD              
CTRY.                                             :COUNTRY            
STAT.                                             :STATE              
LOC .                                             :LOCATION           
UWI .                                             :UNIQUE WELL ID     
SRVC.                                             :Service company    
DATE.                                             :LOG DATE           
~Curve Information
#MNEM.UNIT           API CODE  Curve Description
#---------           --------  -----------------
DEPT.FT                      :   1 DEPTH
SP  .MV                      :   2
ILD .OHMM                    :   3
ILM .OHMM                    :   4
SFLU.OHMM                    :   5
CALI.IN                      :   6
GR  .GAPI                    :   7
NPHI.PU-S                    :   8
DPHI.PU-S                    :   9
DRHO.G/C3                    :  10
CALI.IN                      :  11
DT  .US/F                    :  12
SBL .MV                      :  13
RS  .OHMM                    :  14
RM  .OHMM                    :  15
RD  .OHMM                    :  16
DTS .US/F                    :  17
CALS.IN                      :  18
RHOB.G/C3                    :  19
ROBS.G/C3                    :  20
DROS.G/C3                    :  21
CALS.IN                      :  22
GRS .GAPI                    :  23
NPHS.PU-S                    :  24
SFLU.OHMM                    :  25
ILMC.OHMM                    :  26
ILDC.OHMM                    :  27
ROBC.G/C3                    :  28
GRC .GAPI                    :  29
NPHC.PU-S                    :  30
~A
# ...
  1885.500 -5.9820  2.8480  2.9010  2.8790  7.5100  83.137  0.4050  0.2910  0.0350  6.9010  129.80 -11.285  2.8790  2.9010  2.8480  130.18  6.8689  2.1699  2.1737  0.0381  7.4899  82.765  0.4050  2.9566  2.8974  2.8435  2.1737  78.585  0.3857 
  1886.000 -5.3880  2.8690  2.9380  2.9060  7.5360  85.082  0.4080  0.2860  0.0340  6.9460  128.01 -10.677  2.9060  2.9380  2.8690  129.90  6.8920  2.1781  2.1717  0.0348  7.5159  82.802  0.4080  2.9852  2.9344  2.8645  2.1717  78.705  0.3891 
  1886.500 -4.7950  2.8640  3.0030  2.9270  7.6430  87.027  0.4160  0.2790  0.0450  6.9640  126.84 -10.071  2.9270  3.0030  2.8640  128.70  6.9285  2.1897  2.1808  0.0365  7.5606  83.047  0.4160  3.0092  2.9994  2.8596  2.1808  79.084  0.3981 
  1887.000 -4.4790  2.8580  2.9920  2.8930  7.6690  90.279  0.4150  0.2750  0.0520  6.9750  126.49 -9.7422  2.8930  2.9920  2.8580  127.29  6.9571  2.1963  2.1912  0.0466  7.6490  84.371  0.4150  2.9814  2.9889  2.8537  2.1912  80.637  0.3971 
  1887.500 -4.3810  2.8480  2.9430  2.8580  7.6950  90.288  0.4140  0.2720  0.0600  6.9870  125.96 -9.6310  2.8580  2.9430  2.8480  126.62  6.9708  2.2012  2.1974  0.0539  7.6750  86.323  0.4140  2.9482  2.9401  2.8437  2.1974  82.590  0.3959 
  1888.000 -4.2820  2.8370  2.9000  2.8580  7.7550  83.824  0.4220  0.2690  0.0680  7.0130  126.02 -9.5188  2.8580  2.9000  2.8370  126.16  6.9825  2.2062  2.2024  0.0619  7.7090  89.113  0.4220  2.9505  2.8973  2.8328  2.2024  85.377  0.4050 
  1888.500 -4.3220  2.8060  2.8980  2.8580  7.7640  79.253  0.4340  0.2690  0.0770  7.0190  126.41 -9.5457  2.8580  2.8980  2.8060  126.00  7.0032  2.2062  2.2062  0.0701  7.7571  90.285  0.4340  2.9537  2.8955  2.8019  2.2062  86.669  0.4185 
  1889.000 -4.3230  2.8060  2.8950  2.8740  7.7720  81.161  0.4360  0.2900  0.0800  7.0140  127.59 -9.5335  2.8740  2.8950  2.8060  126.26  7.0168  2.1715  2.1980  0.0777  7.7659  86.098  0.4360  2.9704  2.8926  2.8019  2.1980  82.679  0.4207 
  1889.500 -4.3630  2.8060  2.9110  2.9110  7.7770  82.509  0.4300  0.3110  0.0540  7.0090  128.40 -9.5604  2.9110  2.9110  2.8060  127.15  7.0158  2.1369  2.1633  0.0738  7.7732  80.845  0.4300  3.0080  2.9086  2.8019  2.1633  77.658  0.4140 
  1890.000 -4.3640  2.8190  2.9270  2.9430  7.7710  84.731  0.3980  0.3200  0.0300  7.0040  128.52 -9.5482  2.9430  2.9270  2.8190  128.10  7.0108  2.1220  2.1333  0.0483  7.7756  80.503  0.3980  3.0403  2.9245  2.8149  2.1333  77.336  0.3780 
  1890.500 -4.3250  2.8320  2.9540  2.9750  7.7650  82.768  0.3900  0.3170  0.0250  6.9940  127.65 -9.4961  2.9750  2.9540  2.8320  128.48  7.0058  2.1270  2.1232  0.0288  7.7696  82.049  0.3900  3.0719  2.9515  2.8279  2.1232  78.802  0.3691 
  1891.000 -4.1270  2.8630  2.9810  3.0080  7.7560  79.931  0.3930  0.3060  0.0340  6.9880  126.86 -9.2849  3.0080  2.9810  2.8630  127.97  6.9976  2.1451  2.1313  0.0272  7.7628  83.980  0.3930  3.1045  2.9784  2.8588  2.1313  80.635  0.3724 
  1891.500 -3.7710  2.8840  3.0110  3.0020  7.7470  77.094  0.4110  0.2990  0.0470  6.9910  125.61 -8.9157  3.0020  3.0110  2.8840  127.14  6.9901  2.1567  2.1479  0.0371  7.7538  83.425  0.4110  3.0979  3.0083  2.8797  2.1479  80.073  0.3926 
  1892.000 -3.6140  2.9050  3.0410  2.9970  7.7410  77.347  0.4380  0.2960  0.0490  6.9950  125.01 -8.7456  2.9970  3.0410  2.9050  126.05  6.9899  2.1616  2.1579  0.0475  7.7455  80.871  0.4380  3.0922  3.0382  2.9006  2.1579  77.595  0.4229 
  1892.500 -3.4170  2.9320  3.0520  2.9210  7.7360  80.912  0.4440  0.3060  0.0510  6.9810  124.80 -8.5354  2.9210  3.0520  2.9320  125.22  6.9936  2.1451  2.1576  0.0495  7.7398  78.024  0.4440  3.0157  3.0492  2.9275  2.1576  74.846  0.4297 
  1893.000 -3.2200  2.9590  3.0630  2.8840  7.7260  82.656  0.4300  0.3120  0.0400  6.9770  124.99 -8.3253  2.8840  3.0630  2.9590  124.88  6.9859  2.1352  2.1427  0.0483  7.7335  77.265  0.4300  2.9782  3.0601  2.9544  2.1427  74.100  0.4139 
  1893.500 -3.3780  3.0020  3.0350  2.8470  7.7160  83.413  0.4250  0.3130  0.0210  6.9740  127.03 -8.4701  2.8470  3.0350  3.0020  124.92  6.9784  2.1336  2.1348  0.0353  7.7235  79.768  0.4250  2.9404  3.0321  2.9973  2.1348  76.469  0.4083 
  1894.000 -4.3280  3.0460  3.0350  2.7250  7.7060  84.170  0.4200  0.3040  0.0120  6.9800  128.24 -9.4069  2.7250  3.0350  3.0460  126.34  6.9750  2.1484  2.1372  0.0188  7.7135  82.102  0.4200  2.8175  3.0321  3.0411  2.1372  78.675  0.4027 
  1894.500 -5.1210  3.0910  3.0350  2.9910  7.7040  83.034  0.4150  0.2690  0.0050  6.9870  128.21 -10.187  2.9910  3.0350  3.0910  127.83  6.9780  2.2062  2.1628  0.0103  7.7055  83.175  0.4150  3.0834  3.0320  3.0860  2.1628  79.677  0.3971 
  1895.000 -5.2790  3.1250  3.1770  3.2000  7.7030  81.899  0.4140  0.2500  0.0210  6.9890  126.36 -10.332  3.2000  3.1770  3.1250  128.22  6.9847  2.2375  2.2140  0.0090  7.7037  83.935  0.4140  3.2922  3.1737  3.1199  2.2140  80.399  0.3960 
  1895.500 -4.8840  3.1600  3.2120  3.3440  7.7090  74.732  0.4190  0.2440  0.0510  6.9880  126.18 -9.9235  3.3440  3.2120  3.1600  126.97  6.9883  2.2474  2.2400  0.0286  7.7045  83.383  0.4190  3.4360  3.2087  3.1548  2.2400  79.873  0.4016 
  1896.000 -4.4900  3.2300  3.2470  3.4180  7.7150  70.871  0.4350  0.2470  0.0570  6.9880  128.15 -9.5163  3.4180  3.2470  3.2300  126.24  6.9883  2.2424  2.2461  0.0525  7.7105  82.244  0.4350  3.5104  3.2436  3.2245  2.2461  78.801  0.4195 
  1896.500 -3.3020  3.2590  3.2710  3.2770  7.7420  72.301  0.4460  0.2880  0.0630  7.0010  129.41 -8.3152  3.2770  3.2710  3.2590  127.51  6.9880  2.1748  2.2253  0.0585  7.7219  76.885  0.4460  3.3706  3.2676  3.2535  2.2253  73.700  0.4319 
  1897.000 -2.8670  3.2710  3.2770  3.1420  7.7680  74.400  0.4550  0.3000  0.0640  7.0140  129.70 -7.8670  3.1420  3.2770  3.2710  129.00  6.9968  2.1550  2.1697  0.0633  7.7486  72.017  0.4550  3.2377  3.2738  3.2654  2.1697  69.109  0.4420 
  1897.500 -2.5710  3.2410  3.2410  2.7200  7.7790  76.499  0.4650  0.3100  0.0650  7.0270  128.29 -7.5578  2.7200  3.2410  3.2410  129.61  7.0099  2.1385  2.1508  0.0643  7.7708  71.881  0.4650  2.8161  3.2380  3.2356  2.1508  69.041  0.4533 
  1898.000 -2.2750  3.1770  3.2000  2.6900  7.7900  77.541  0.4750  0.3190  0.0620  7.0520  127.63 -7.2487  2.6900  3.2000  3.1770  128.73  7.0229  2.1237  2.1347  0.0642  7.7818  73.791  0.4750  2.7867  3.1971  3.1718  2.1347  70.906  0.4645 
  1898.500 -1.5630  3.1020  3.0880  2.7000  7.8010  76.168  0.4770  0.3230  0.0570  7.0770  127.70 -6.5235  2.7000  3.0880  3.1020  127.84  7.0442  2.1171  2.1219  0.0607  7.7929  75.897  0.4770  2.7974  3.0854  3.0971  2.1219  72.963  0.4668 
  1899.000 -1.2070  3.0290  2.9800  2.6850  7.8010  74.794  0.4750  0.3330  0.0450  7.1060  128.13 -6.1544  2.6850  2.9800  3.0290  127.68  7.0693  2.1006  2.1128  0.0539  7.8010  77.246  0.4750  2.7828  2.9776  3.0243  2.1128  74.283  0.4645 
  1899.500 -1.0700  2.9340  2.9150  2.5890  7.8020  74.728  0.4730  0.3410  0.0310  7.1110  128.13 -6.0042  2.5890  2.9150  2.9340  128.00  7.0971  2.0874  2.0971  0.0413  7.8013  76.552  0.4730  2.6863  2.9127  2.9296  2.0971  73.617  0.4623 
  1900.000 -0.9320  2.8410  2.8650  2.4770  7.7990  80.031  0.4620  0.3430  0.0190  7.1160  127.38 -5.8531  2.4770  2.8650  2.8410  128.13  7.1095  2.0841  2.0865  0.0279  7.8012  75.174  0.4620  2.5736  2.8628  2.8369  2.0865  72.291  0.4499 
  1900.500 -0.8110  2.8100  2.8160  2.4800  7.7950  80.702  0.4550  0.3320  0.0190  7.0980  127.33 -5.7189  2.4800  2.8160  2.8100  127.61  7.1145  2.1022  2.0888  0.0190  7.7979  74.746  0.4550  2.5764  2.8138  2.8059  2.0888  71.871  0.4421 
  1901.000 -0.7700  2.7800  2.7720  2.4820  7.7910  81.372  0.4500  0.3270  0.0230  7.0200  128.04 -5.6647  2.4820  2.7720  2.7800  127.35  7.1033  2.1105  2.1044  0.0201  7.7939  78.602  0.4500  2.5782  2.7699  2.7760  2.1044  75.566  0.4364 
  1901.500 -0.8290  2.7500  2.7300  2.5240  7.7770  82.963  0.4530  0.3240  0.0270  7.0150  128.29 -5.7106  2.5240  2.7300  2.7500  127.83  7.0429  2.1154  2.1118  0.0241  7.7873  80.523  0.4530  2.6201  2.7279  2.7461  2.1118  77.393  0.4398 
