~Version Information
VERS.                     2.0: CWLS log ASCII Standard Version 2.00
WRAP.                     YES: Multiple lines per depth step
~Well Information Block
#MNEM.UNIT                               Data Type  Information
#---------                               ---------  -----------
STRT.FT                                   850.0000:
STOP.FT                                  6800.0000:
STEP.FT                                     0.5000:
NULL.                 -999.25                     :
COMP.                                             :COMPANY            
WELL.     SANTIAGO D #26-27                       :WELL               
FLD .                                             :FIELD              
CTRY.                                             :COUNTRY            
STAT.                                             :STATE              
LOC .                                             :LOCATION           
UWI .                                             :UNIQUE WELL ID     
SRVC.                                             :Service company    
DATE.                                             :LOG DATE           
~Curve Information
#MNEM.UNIT           API CODE  Curve Description
#---------           --------  -----------------
DEPT.FT                      :   1 DEPTH
DCAL.IN                      :   2
DGR .GAPI                    :   3
NPHI.PU-S                    :   4
DPHI.PU-S                    :   5
DRHO.G/C3                    :   6
AGR .GAPI                    :   7
ACAL.IN                      :   8
DT  .US/F                    :   9
GR  .GAPI                    :  10
SP  .MV                      :  11
ILM .OHMM                    :  12
ILD .OHMM                    :  13
SFLU.OHMM                    :  14
RHOB.G/C3                    :  15
RS  .OHMM                    :  16
RM  .OHMM                    :  17
RD  .OHMM                    :  18
GRS .GAPI                    :  19
SBL .MV                      :  20
ROBS.G/C3                    :  21
DRHS.G/C3                    :  22
CALS.IN                      :  23
GRS .GAPI                    :  24
NPHS.PU-S                    :  25
CALS.IN                      :  26
GRS .GAPI                    :  27
SFLU.OHMM                    :  28
ILMC.OHMM                    :  29
ILDC.OHMM                    :  30
ROBC.G/C3                    :  31
GRC .GAPI                    :  32
NPHC.PU-S                    :  33
~A
# ...
  2880.000 
  9.7420  87.235  0.5300  0.3760  0.0450  89.780  11.630  133.65  81.089 
 -27.325  2.3540  2.4460  2.0010  2.0296  2.0010  2.3540  2.4460  81.089 
 -28.815  2.0524  0.0052  9.7522  83.553  0.5392  11.608  90.269  2.1886 
  2.3603  2.4450  2.0581  86.524  0.5799 
  2880.500 
  9.7410  87.068  0.5490  0.3840  0.0390  91.035  11.616  135.58  83.316 
 -27.595  2.2700  2.3460  1.8810  2.0164  1.8810  2.2700  2.3460  83.316 
 -29.083  2.0757 -0.0006  9.7676  81.538  0.5256  11.591  87.874  2.0603 
  2.2759  2.3451  2.0814  84.481  0.5634 
  2881.000 
  9.7400  86.305  0.5690  0.3860  0.0310  89.835  11.603  142.70  81.581 
 -27.864  2.2060  2.2630  1.8410  2.0131  1.8410  2.2060  2.2630  81.581 
 -29.349  2.0927  0.0025  9.7864  79.533  0.5290  11.571  84.277  2.0178 
  2.2116  2.2622  2.0985  82.455  0.5675 
  2881.500 
  9.7390  85.025  0.5590  0.3740  0.0170  86.457  11.582  148.85  79.453 
 -28.250  2.1390  2.1740  1.8680  2.0329  1.8680  2.1390  2.1740  79.453 
 -29.733  2.1032  0.0128  9.8164  79.244  0.5300  11.555  81.637  2.0474 
  2.1444  2.1732  2.1093  82.239  0.5688 
  2882.000 
  9.7580  82.912  0.5420  0.3570  0.0000  82.286  11.561  148.68  79.025 
 -28.479  2.0700  2.1090  1.9210  2.0610  1.9210  2.0700  2.1090  79.025 
 -29.959  2.1072  0.0233  9.8531  80.099  0.5197  11.543  81.543  2.1052 
  2.0752  2.1083  2.1135  83.229  0.5564 
  2882.500 
  9.7730  80.760  0.5390  0.3430 -0.0010  80.888  11.548  141.95  77.964 
 -28.630  2.0040  2.0450  1.9930  2.0841  1.9930  2.0040  2.0450  77.964 
 -30.108  2.1004  0.0266  9.8687  80.485  0.5118  11.532  83.228  2.1830 
  2.0089  2.0443  2.1069  83.673  0.5469 
  2883.000 
  9.7960  78.646  0.5250  0.3340  0.0050  82.500  11.535  139.40  72.983 
 -28.740  1.9120  1.9870  1.9760  2.0989  1.9760  1.9120  1.9870  72.983 
 -30.215  2.0797  0.0264  9.8206  79.693  0.5180  11.527  84.814  2.1635 
  1.9163  1.9864  2.0858  82.717  0.5543 
  2883.500 
  9.8350  79.790  0.5290  0.3290  0.0200  84.587  11.526  139.92  67.725 
 -28.693  1.8640  1.9130  1.8100  2.1072  1.8100  1.8640  1.9130  67.725 
 -30.166  2.0559  0.0290  9.7380  77.579  0.5282  11.530  85.181  1.9835 
  1.8679  1.9124  2.0615  80.299  0.5665 
  2884.000 
  9.8740  80.456  0.5300  0.3290  0.0270  85.368  11.529  142.00  64.486 
 -28.722  1.8210  1.8790  1.6000  2.1072  1.6000  1.8210  1.8790  64.486 
 -30.192  2.0474  0.0347  9.7354  75.997  0.5340  11.539  84.464  1.7590 
  1.8247  1.8784  2.0529  78.655  0.5735 
  2884.500 
  9.8610  80.527  0.5190  0.3390  0.0260  84.563  11.535  149.91  66.593 
 -28.676  1.7990  1.8280  1.5370  2.0907  1.5370  1.7990  1.8280  66.593 
 -30.144  2.0464  0.0368  9.7905  75.244  0.5389  11.565  84.083  1.6926 
  1.8028  1.8275  2.0523  78.020  0.5795 
  2885.000 
  9.7450  78.136  0.5110  0.3580  0.0270  83.997  11.558  154.69  72.937 
 -28.668  1.7960  1.8090  1.5660  2.0593  1.5660  1.7960  1.8090  72.937 
 -30.133  2.0476  0.0346  9.8315  75.207  0.5437  11.616  85.037  1.7240 
  1.7999  1.8085  2.0538  78.089  0.5854 
  2885.500 
  9.7210  76.221  0.5190  0.3650  0.0340  84.737  11.616  153.09  76.866 
 -28.699  1.8030  1.8070  1.6130  2.0477  1.6130  1.8030  1.8070  76.866 
 -30.162  2.0460  0.0237  9.8734  75.585  0.5485  11.623  89.839  1.7748 
  1.8070  1.8065  2.0525  78.591  0.5913 
  2886.000 
  9.7830  75.259  0.5300  0.3660  0.0370  89.834  11.623  152.62  79.329 
 -28.731  1.8170  1.8340  1.6370  2.0461  1.6370  1.8170  1.8340  79.329 
 -30.192  2.0444  0.0190  9.8800  77.263  0.5453  11.579  94.760  1.8006 
  1.8211  1.8335  2.0510  80.354  0.5874 
  2886.500 
  9.8260  75.171  0.5350  0.3650  0.0360  94.892  11.578  152.64  81.199 
 -28.920  1.8410  1.9410  1.5910  2.0477  1.5910  1.8410  1.9410  81.199 
 -30.378  2.0428  0.0132  9.8673  80.460  0.5347  11.573  96.081  1.7512 
  1.8452  1.9404  2.0493  83.643  0.5745 
  2887.000 
  9.8730  75.480  0.5400  0.3660  0.0240  96.147  11.573  152.07  83.109 
 -29.426  1.9250  2.0520  1.5370  2.0461  1.5370  1.9250  2.0520  83.109 
 -30.882  2.0444  0.0111  9.8774  84.115  0.5221  11.601  96.937  1.6936 
  1.9296  2.0513  2.0509  87.472  0.5593 
  2887.500 
  9.8800  77.260  0.5450  0.3670  0.0190  97.004  11.603  149.19  84.027 
 -30.249  2.0750  2.2120  1.5600  2.0445  1.5600  2.0750  2.2120  84.027 
 -31.702  2.0551  0.0138  9.9029  88.183  0.4726  11.642  97.669  1.7184 
  2.0804  2.2112  2.0618  91.781  0.4996 
  2888.000 
  9.8670  80.546  0.5500  0.3680  0.0130  97.747  11.646  146.31  87.797 
 -31.548  2.2700  2.4560  1.8640  2.0428  1.8640  2.2700  2.4560  87.797 
 -32.999  2.0974  0.0409  9.9507  92.630  0.4068  11.676  99.217  2.0460 
  2.2767  2.4551  2.1044  96.562  0.4203 
  2888.500 
  9.8780  84.312  0.5430  0.3670  0.0110  99.438  11.680  143.42  91.765 
 -32.528  2.4840  2.6480  2.8850  2.0445  2.8850  2.4840  2.6480  91.765 
 -33.976  2.1567  0.0796  10.038  96.556  0.3678  11.696  101.16  3.1517 
  2.4924  2.6470  2.1644  100.94  0.3732 
  2889.000 
  9.9050  88.513  0.5300  0.3600  0.0140  101.48  11.699  129.64  94.307 
 -32.402  2.6590  2.7930  3.6940  2.0560  3.6940  2.6590  2.7930  94.307 
 -33.848  2.2289  0.0951  10.157  101.05  0.3728  11.710  104.42  4.0348 
  2.6694  2.7919  2.2374  106.06  0.3794 
  2889.500 
  9.9560  93.111  0.5170  0.3320  0.0440  105.08  11.713  124.29  97.285 
 -32.235  2.8300  2.9190  3.8260  2.1022  3.8260  2.8300  2.9190  97.285 
 -33.678  2.2381  0.0970  10.257  105.16  0.4029  11.722  109.95  4.1860 
  2.8424  2.9179  2.2473  110.72  0.4160 
  2890.000 
  10.050  97.074  0.4400  0.2940  0.0850  111.24  11.724  121.49  99.392 
 -32.108  2.9850  3.0680  3.3310  2.1649  3.3310  2.9850  3.0680  99.392 
 -33.549  2.2101  0.0954  10.331  106.79  0.4173  11.726  112.51  3.6530 
  2.9994  3.0669  2.2198  112.71  0.4335 
  2890.500 
  10.177  101.79  0.3790  0.2480  0.0970  112.89  11.727  124.17  97.500 
 -32.061  3.1490  3.2480  2.8630  2.2408  2.8630  3.1490  3.2480  97.500 
 -33.499  2.1915  0.0881  10.270  107.16  0.4127  11.729  112.30  3.1400 
  3.1645  3.2467  2.2008  112.88  0.4278 
  2891.000 
  10.275  105.91  0.3570  0.2500  0.0970  112.09  11.730  127.50  96.123 
 -32.250  3.2080  3.3150  2.5110  2.2375  2.5110  3.2080  3.3150  96.123 
 -33.686  2.1904  0.0771  10.131  106.70  0.4087  11.737  110.53  2.7513 
  3.2229  3.3135  2.1987  111.89  0.4227 
  2891.500 
  10.346  107.02  0.3900  0.2710  0.0950  109.90  11.740  130.30  96.884 
 -32.558  3.2270  3.2450  2.8500  2.2029  2.8500  3.2270  3.2450  96.884 
 -33.991  2.1995  0.0647  10.081  105.39  0.4124  11.728  109.29  3.1161 
  3.2416  3.2435  2.2075  110.33  0.4272 
  2892.000 
  10.246  107.21  0.4190  0.2800  0.0860  109.02  11.723  128.46  99.188 
 -32.945  3.2340  3.2160  3.1700  2.1880  3.1700  3.2340  3.2160  99.188 
 -34.376  2.2085  0.0534  10.115  103.56  0.4254  11.683  110.00  3.4644 
  3.2490  3.2146  2.2167  108.54  0.4429 
  2892.500 
  10.090  106.52  0.4150  0.2780  0.0740  110.51  11.663  126.41  101.06 
 -33.293  3.2120  3.2120  3.2120  2.1913  3.2120  3.2120  3.2120  101.06 
 -34.722  2.2133  0.0612  10.131  102.06  0.4335  11.617  111.16  3.5109 
  3.2269  3.2106  2.2216  107.03  0.4527 
  2893.000 
  10.077  104.93  0.4090  0.2710  0.0610  111.53  11.590  125.64  99.086 
 -33.958  3.2070  3.1950  3.1090  2.2029  3.1090  3.2070  3.1950  99.086 
 -35.384  2.2123  0.0740  10.120  101.43  0.4311  11.558  108.58  3.3987 
  3.2218  3.1936  2.2205  106.33  0.4498 
  2893.500 
  10.132  102.93  0.4080  0.2660  0.0500  106.68  11.538  128.70  98.580 
 -34.465  3.2200  3.2260  2.8750  2.2111  2.8750  3.2200  3.2260  98.580 
 -35.889  2.2061  0.0774  10.099  102.12  0.4267  11.530  104.40  3.1441 
  3.2347  3.2246  2.2142  106.97  0.4445 
  2894.000 
  10.131  101.61  0.4220  0.2640  0.0670  102.75  11.525  132.57  100.17 
 -35.328  3.2860  3.3290  2.7270  2.2144  2.7270  3.2860  3.3290  100.17 
 -36.749  2.1961  0.0683  10.059  103.22  0.4199  11.559  102.94  2.9820 
  3.3010  3.3274  2.2039  107.99  0.4362 
