~Version Information
VERS.                     2.0: CWLS log ASCII Standard Version 2.00
WRAP.                     YES: Multiple lines per depth step
~Well Information Block
#MNEM.UNIT                               Data Type  Information
#---------                               ---------  -----------
STRT.FT                                   805.0000:
STOP.FT                                  5010.0000:
STEP.FT                                     0.5000:
NULL.                 -999.25                     :
COMP.                                             :COMPANY            
WELL.     SANTIAGO C 55-28                        :WELL               
FLD .                                             :FIELD              
CTRY.                                             :COUNTRY            
STAT.                                             :STATE              
LOC .                                             :LOCATION           
UWI .                                             :UNIQUE WELL ID     
SRVC.                                             :Service company    
DATE.                                             :LOG DATE           
~Curve Information
#MNEM.UNIT           API CODE  Curve Description
#---------           --------  -----------------
DEPT.FT                      :   1 DEPTH
CALI.IN                      :   2
GR  .GAPI                    :   3
NPHI.PU-S                    :   4
DPHI.PU-S                    :   5
DRHO.G/C3                    :   6
SP  .MV                      :   7
ILD .OHMM                    :   8
ILM .OHMM                    :   9
SFLU.OHMM                    :  10
LLD .OHMM                    :  11
LLS .OHMM                    :  12
MSFL.OHMM                    :  13
DT  .US/F                    :  14
SPHI.                        :  15
KSCI.                        :  16
PSCI.                        :  17
OSCI.                        :  18
WSCI.                        :  19
KWCI.                        :  20
PWCI.                        :  21
OWCI.                        :  22
WWCI.                        :  23
SBL .MV                      :  24
RS  .OHMM                    :  25
RM  .OHMM                    :  26
RD  .OHMM                    :  27
DTS .US/F                    :  28
RHOB.G/C3                    :  29
ROBS.G/C3                    :  30
DROS.G/C3                    :  31
CALS.IN                      :  32
GRS .GAPI                    :  33
NPHS.PU-S                    :  34
SFLU.OHMM                    :  35
ILMC.OHMM                    :  36
ILDC.OHMM                    :  37
ROBC.G/C3                    :  38
GRC .GAPI                    :  39
NPHC.PU-S                    :  40
~A
# ...
  4573.000 
  10.149  133.02  0.4210  0.4920 -0.0340 -41.277 -999.25 -999.25 -999.25 
  4.5140  3.4060  4.7380 -999.25  40.010 -999.25 -999.25 -999.25 -999.25 
 -999.25 -999.25 -999.25 -999.25 -18.822  4.7380  3.4060  4.5140 -999.25 
  1.8382  1.8030 -0.0433  10.230  130.86  0.4020  4.7380  3.4060  4.5140 
  1.8030  130.86  0.4020 
  4573.500 
  10.195  129.26  0.4210  0.4930 -0.0360 -40.732 -999.25 -999.25 -999.25 
  4.4300  3.4430  5.1650 -999.25  41.668 -999.25 -999.25 -999.25 -999.25 
 -999.25 -999.25 -999.25 -999.25 -18.278  5.1650  3.4430  4.4300 -999.25 
  1.8366  1.8023 -0.0389  10.185  134.36  0.4000  5.1650  3.4430  4.4300 
  1.8023  134.36  0.4000 
  4574.000 
  10.198  125.54  0.4240  0.4890 -0.0340 -40.386 -999.25 -999.25 -999.25 
  4.3080  3.3610  6.9090 -999.25  42.361 -999.25 -999.25 -999.25 -999.25 
 -999.25 -999.25 -999.25 -999.25 -17.933  6.9090  3.3610  4.3080 -999.25 
  1.8432  1.8134 -0.0329  10.129  137.38  0.4040  6.9090  3.3610  4.3080 
  1.8134  137.38  0.4040 
  4574.500 
  10.476  118.50  0.4150  0.4850 -0.0340 -40.318 -999.25 -999.25 -999.25 
  4.2680  3.2870  6.9590 -999.25  42.434 -999.25 -999.25 -999.25 -999.25 
 -999.25 -999.25 -999.25 -999.25 -17.866  6.9590  3.2870  4.2680 -999.25 
  1.8498  1.8220 -0.0266  10.102  138.19  0.4110  6.9590  3.2870  4.2680 
  1.8220  138.19  0.4110 
  4575.000 
  10.427  111.23  0.3980  0.4870 -0.0400 -40.171 -999.25 -999.25 -999.25 
  4.2280  3.2380  6.5710 -999.25  42.173 -999.25 -999.25 -999.25 -999.25 
 -999.25 -999.25 -999.25 -999.25 -17.720  6.5710  3.2380  4.2280 -999.25 
  1.8465  1.8316 -0.0202  10.111  138.68  0.4140  6.5710  3.2380  4.2280 
  1.8316  138.68  0.4140 
  4575.500 
  10.585  106.99  0.3830  0.4920 -0.0420 -40.143 -999.25 -999.25 -999.25 
  4.1800  3.2130  7.1910 -999.25  41.912 -999.25 -999.25 -999.25 -999.25 
 -999.25 -999.25 -999.25 -999.25 -17.693  7.1910  3.2130  4.1800 -999.25 
  1.8382  1.8407 -0.0161  10.159  139.64  0.4120  7.1910  3.2130  4.1800 
  1.8407  139.64  0.4120 
  4576.000 
  10.660  106.50  0.3670  0.4940 -0.0380 -40.155 -999.25 -999.25 -999.25 
  4.1260  3.2120  6.5090 -999.25  41.675 -999.25 -999.25 -999.25 -999.25 
 -999.25 -999.25 -999.25 -999.25 -17.706  6.5090  3.2120  4.1260 -999.25 
  1.8349  1.8534 -0.0121  10.190  139.72  0.4270  6.5090  3.2120  4.1260 
  1.8534  139.72  0.4270 
  4576.500 
  10.759  106.17  0.3570  0.4880 -0.0280 -40.923 -999.25 -999.25 -999.25 
  4.0870  3.2290  5.0380 -999.25  41.474 -999.25 -999.25 -999.25 -999.25 
 -999.25 -999.25 -999.25 -999.25 -18.475  5.0380  3.2290  4.0870 -999.25 
  1.8448  1.8689 -0.0085  10.208  136.67  0.4440  5.0380  3.2290  4.0870 
  1.8689  136.67  0.4440 
  4577.000 
  10.929  105.24  0.3510  0.4810 -0.0250 -41.731 -999.25 -999.25 -999.25 
  4.0860  3.2520  5.0270 -999.25  41.511 -999.25 -999.25 -999.25 -999.25 
 -999.25 -999.25 -999.25 -999.25 -19.284  5.0270  3.2520  4.0860 -999.25 
  1.8564  1.8778 -0.0075  10.216  131.71  0.4510  5.0270  3.2520  4.0860 
  1.8778  131.71  0.4510 
  4577.500 
  10.326  111.53  0.3590  0.4720 -0.0260 -42.658 -999.25 -999.25 -999.25 
  4.1990  3.3050  6.1900 -999.25  41.894 -999.25 -999.25 -999.25 -999.25 
 -999.25 -999.25 -999.25 -999.25 -20.212  6.1900  3.3050  4.1990 -999.25 
  1.8712  1.8778 -0.0117  10.210  131.30  0.4390  6.1900  3.3050  4.1990 
  1.8778  131.30  0.4390 
  4578.000 
  10.197  115.39  0.3670  0.4640 -0.0220 -43.267 -999.25 -999.25 -999.25 
  4.2830  3.3910  5.6860 -999.25  42.265 -999.25 -999.25 -999.25 -999.25 
 -999.25 -999.25 -999.25 -999.25 -20.822  5.6860  3.3910  4.2830 -999.25 
  1.8844  1.8774 -0.0197  10.187  135.24  0.4270  5.6860  3.3910  4.2830 
  1.8774  135.24  0.4270 
  4578.500 
  10.236  116.97  0.3710  0.4550 -0.0160 -43.558 -999.25 -999.25 -999.25 
  4.3540  3.4660  5.4190 -999.25  42.695 -999.25 -999.25 -999.25 -999.25 
 -999.25 -999.25 -999.25 -999.25 -21.114  5.4190  3.4660  4.3540 -999.25 
  1.8993  1.8731 -0.0182  10.141  139.97  0.4210  5.4190  3.4660  4.3540 
  1.8731  139.97  0.4210 
  4579.000 
  10.362  117.08  0.3730  0.4490 -0.0130 -43.530 -999.25 -999.25 -999.25 
  4.4250  3.5880  6.2550 -999.25  42.852 -999.25 -999.25 -999.25 -999.25 
 -999.25 -999.25 -999.25 -999.25 -21.087  6.2550  3.5880  4.4250 -999.25 
  1.9092  1.8591 -0.0157  10.111  143.72  0.4280  6.2550  3.5880  4.4250 
  1.8591  143.72  0.4280 
  4579.500 
  10.305  112.08  0.3680  0.4470 -0.0150 -43.422 -999.25 -999.25 -999.25 
  4.4650  3.7080  5.5380 -999.25  42.674 -999.25 -999.25 -999.25 -999.25 
 -999.25 -999.25 -999.25 -999.25 -20.980  5.5380  3.7080  4.4650 -999.25 
  1.9125  1.8391 -0.0170  10.155  146.60  0.4350  5.5380  3.7080  4.4650 
  1.8391  146.60  0.4350 
  4580.000 
  10.168  108.56  0.3440  0.4540 -0.0270 -42.678 -999.25 -999.25 -999.25 
  4.6050  3.9170  5.9600 -999.25  42.235 -999.25 -999.25 -999.25 -999.25 
 -999.25 -999.25 -999.25 -999.25 -20.237  5.9600  3.9170  4.6050 -999.25 
  1.9009  1.8235 -0.0238  10.198  148.77  0.4310  5.9600  3.9170  4.6050 
  1.8235  148.77  0.4310 
  4580.500 
  10.091  107.32  0.3370  0.4580 -0.0350 -41.297 -999.25 -999.25 -999.25 
  4.8850  4.2710  6.1940 -999.25  40.961 -999.25 -999.25 -999.25 -999.25 
 -999.25 -999.25 -999.25 -999.25 -18.857  6.1940  4.2710  4.8850 -999.25 
  1.8943  1.8221 -0.0280  10.221  148.82  0.4060  6.1940  4.2710  4.8850 
  1.8221  148.82  0.4060 
  4581.000 
  10.054  106.11  0.3450  0.4600 -0.0380 -40.662 -999.25 -999.25 -999.25 
  5.3270  4.8940  6.7280 -999.25  38.984 -999.25 -999.25 -999.25 -999.25 
 -999.25 -999.25 -999.25 -999.25 -18.223  6.7280  4.8940  5.3270 -999.25 
  1.8910  1.8282 -0.0261  10.205  145.76  0.3940  6.7280  4.8940  5.3270 
  1.8282  145.76  0.3940 
  4581.500 
  10.073  103.11  0.3580  0.4630 -0.0370 -40.425 -999.25 -999.25 -999.25 
  5.9710  5.7760  8.9010 -999.25  37.544 -999.25 -999.25 -999.25 -999.25 
 -999.25 -999.25 -999.25 -999.25 -17.987  8.9010  5.7760  5.9710 -999.25 
  1.8861  1.8342 -0.0198  10.134  143.37  0.3860  8.9010  5.7760  5.9710 
  1.8342  143.37  0.3860 
  4582.000 
  10.076  100.46  0.3720  0.4690 -0.0360 -40.387 -999.25 -999.25 -999.25 
  6.6070  6.7300  18.660 -999.25  36.676 -999.25 -999.25 -999.25 -999.25 
 -999.25 -999.25 -999.25 -999.25 -17.950  18.660  6.7300  6.6070 -999.25 
  1.8762  1.8415 -0.0133  10.055  142.24  0.3760  18.660  6.7300  6.6070 
  1.8415  142.24  0.3760 
  4582.500 
  10.095  101.72  0.3780  0.4800 -0.0380 -40.390 -999.25 -999.25 -999.25 
  7.4060  7.4740  8.8810 -999.25  35.295 -999.25 -999.25 -999.25 -999.25 
 -999.25 -999.25 -999.25 -999.25 -17.954  8.8810  7.4740  7.4060 -999.25 
  1.8580  1.8454 -0.0103  10.026  141.77  0.3570  8.8810  7.4740  7.4060 
  1.8454  141.77  0.3570 
  4583.000 
  10.089  110.17  0.3720  0.4910 -0.0450 -40.471 -999.25 -999.25 -999.25 
  8.3470  8.1500  12.055 -999.25  33.580 -999.25 -999.25 -999.25 -999.25 
 -999.25 -999.25 -999.25 -999.25 -18.036  12.055  8.1500  8.3470 -999.25 
  1.8399  1.8465 -0.0138  10.029  138.07  0.3370  12.055  8.1500  8.3470 
  1.8465  138.07  0.3370 
  4583.500 
  10.088  115.30  0.3670  0.4960 -0.0510 -40.672 -999.25 -999.25 -999.25 
  8.9530  8.7090  23.652 -999.25  31.937 -999.25 -999.25 -999.25 -999.25 
 -999.25 -999.25 -999.25 -999.25 -18.238  23.652  8.7090  8.9530 -999.25 
  1.8316  1.8470 -0.0211  10.051  130.61  0.3180  23.652  8.7090  8.9530 
  1.8470  130.61  0.3180 
  4584.000 
  10.103  118.76  0.3700  0.4920 -0.0460 -40.077 -999.25 -999.25 -999.25 
  9.1540  9.1030  52.208 -999.25  30.997 -999.25 -999.25 -999.25 -999.25 
 -999.25 -999.25 -999.25 -999.25 -17.644  52.208  9.1030  9.1540 -999.25 
  1.8382  1.8511 -0.0261  10.079  127.30  0.3140  52.208  9.1030  9.1540 
  1.8511  127.30  0.3140 
  4584.500 
  10.130  121.30  0.3880  0.4840 -0.0400 -39.820 -999.25 -999.25 -999.25 
  9.0040  8.8890  13.580 -999.25  30.832 -999.25 -999.25 -999.25 -999.25 
 -999.25 -999.25 -999.25 -999.25 -17.388  13.580  8.8890  9.0040 -999.25 
  1.8514  1.8631 -0.0235  10.105  127.14  0.3240  13.580  8.8890  9.0040 
  1.8631  127.14  0.3240 
