~Version Information
VERS.                     2.0: CWLS log ASCII Standard Version 2.00
WRAP.                     YES: Multiple lines per depth step
~Well Information Block
#MNEM.UNIT                               Data Type  Information
#---------                               ---------  -----------
STRT.FT                                   100.0000:
STOP.FT                                  3000.0000:
STEP.FT                                     0.5000:
NULL.                 -999.25                     :
COMP.                                             :COMPANY            
WELL.     LOS LOBOS 51X-30                        :WELL               
FLD .                                             :FIELD              
CTRY.                                             :COUNTRY            
STAT.                                             :STATE              
LOC .                                             :LOCATION           
UWI .                                             :UNIQUE WELL ID     
SRVC.                                             :Service company    
DATE.                                             :LOG DATE           
~Curve Information
#MNEM.UNIT           API CODE  Curve Description
#---------           --------  -----------------
DEPT.FT                      :   1 DEPTH
GR  .GAPI                    :   2
CALI.IN                      :   3
DPHI.PU-S                    :   4
NPHI.PU-S                    :   5
DRHO.G/C3                    :   6
DT  .US/F                    :   7
ROP .                        :   8
GAS .                        :   9
CGAS.                        :  10
C1R .                        :  11
C2R .                        :  12
C3R .                        :  13
SP  .MV                      :  14
ILD .OHMM                    :  15
ILM .OHMM                    :  16
SFLU.OHMM                    :  17
GRS .GAPI                    :  18
CALS.IN                      :  19
ROBS.G/C3                    :  20
NPHS.PU-S                    :  21
DROS.G/C3                    :  22
DTS .US/F                    :  23
SBL .MV                      :  24
 RD .OHMM                    :  25
RM  .OHMM                    :  26
RS  .OHMM                    :  27
SFLU.OHMM                    :  28
ILMC.OHMM                    :  29
ILDC.OHMM                    :  30
ROBC.G/C3                    :  31
GRC .GAPI                    :  32
NPHC.PU-S                    :  33
~A
# ...
  2840.500 
  114.56  8.1030  0.5200  0.4900  0.0010  131.35  34.416  6.8917  1.7996 
  3.9661 -999.25 -999.25 -999.25  1.6440  1.6770 -999.25  106.59  7.8236 
  1.7821  0.4937 -0.0043  131.44 -999.25  1.6440  1.6770 -999.25 -999.25 
  1.6770  1.6440  1.7821  102.78  0.4850 
  2841.000 
  116.06  8.0720  0.5200  0.4780  0.0110  132.86  34.535  6.7918  1.9820 
  3.9648 -999.25 -999.25 -999.25  1.6180  1.6630 -999.25  108.06  7.8823 
  1.7826  0.5060 -0.0050  131.53 -999.25  1.6180  1.6630 -999.25 -999.25 
  1.6630  1.6180  1.7826  104.45  0.4989 
  2841.500 
  111.78  7.9410  0.5260  0.5350  0.0090  134.35  34.654  6.6919  2.3284 
  3.9635 -999.25 -999.25 -999.25  1.5720  1.6370 -999.25  111.33  7.9882 
  1.7860  0.4980 -0.0034  131.34 -999.25  1.5720  1.6370 -999.25 -999.25 
  1.6370  1.5720  1.7860  108.07  0.4900 
  2842.000 
  111.31  7.7980  0.5320  0.5550  0.0030  135.54  34.774  6.4950  2.6547 
  3.9622 -999.25 -999.25 -999.25  1.5260  1.5970 -999.25  114.96  8.0947 
  1.7920  0.4868  0.0037  131.65 -999.25  1.5260  1.5970 -999.25 -999.25 
  1.5970  1.5260  1.7920  112.06  0.4774 
  2842.500 
  112.10  7.6000  0.5300  0.5780 -0.0030  135.60  34.893  6.2137  2.9494 
  3.9609 -999.25 -999.25 -999.25  1.4880  1.5660 -999.25  114.94  8.0376 
  1.7894  0.4930  0.0105  133.17 -999.25  1.4880  1.5660 -999.25 -999.25 
  1.5660  1.4880  1.7894  111.79  0.4844 
  2843.000 
  113.60  7.4490  0.5230  0.5880 -0.0060  135.29  35.052  5.9309  3.2251 
  3.9595 -999.25 -999.25 -999.25  1.4540  1.5330 -999.25  111.66  7.9042 
  1.7796  0.5401  0.0075  134.61 -999.25  1.4540  1.5330 -999.25 -999.25 
  1.5330  1.4540  1.7796  108.02  0.5372 
  2843.500 
  112.57  7.3620  0.5140  0.5880 -0.0070  134.82  26.735  5.5713  3.3653 
  3.9582 -999.25 -999.25 -999.25  1.4390  1.5120 -999.25  111.50  7.7481 
  1.7730  0.5608  0.0015  135.56 -999.25  1.4390  1.5120 -999.25 -999.25 
  1.5120  1.4390  1.7730  107.19  0.5603 
  2844.000 
  109.56  7.3150  0.5060  0.5780 -0.0050  133.53  26.587  5.2117  2.9777 
  3.9569 -999.25 -999.25 -999.25  1.4670  1.4890 -999.25  112.47  7.5627 
  1.7783  0.5805 -0.0037  135.53 -999.25  1.4670  1.4890 -999.25 -999.25 
  1.4890  1.4670  1.7783  107.30  0.5822 
  2844.500 
  106.39  7.3150  0.5000  0.5340 -0.0050  129.55  26.440  4.7977  2.1249 
  3.9556 -999.25 -999.25 -999.25  1.5090  1.5010 -999.25  113.35  7.4280 
  1.7906  0.5880 -0.0062  135.17 -999.25  1.5090  1.5010 -999.25 -999.25 
  1.5010  1.5090  1.7906  107.54  0.5906 
  2845.000 
  103.06  7.3110  0.4980  0.5060 -0.0020  128.00  26.292  4.3977  1.5660 
  3.9543 -999.25 -999.25 -999.25  1.5460  1.5550 -999.25  111.86  7.3509 
  1.8050  0.5856 -0.0065  134.49 -999.25  1.5460  1.5550 -999.25 -999.25 
  1.5550  1.5460  1.8050  105.78  0.5879 
  2845.500 
  99.730  7.3420  0.5020  0.4820  0.0040  128.12  26.157  4.2044  1.3680 
  3.9529 -999.25 -999.25 -999.25  1.5960  1.5810 -999.25  108.83  7.3150 
  1.8174  0.5678 -0.0050  132.47 -999.25  1.5960  1.5810 -999.25 -999.25 
  1.5810  1.5960  1.8174  102.75  0.5679 
  2846.000 
  95.926  7.4250  0.5150  0.4640  0.0040  130.93  92.339  4.0857  1.2292 
  3.9516 -999.25 -999.25 -999.25  1.6540  1.6390 -999.25  105.64  7.3141 
  1.8257  0.5277 -0.0043  129.12 -999.25  1.6540  1.6390 -999.25 -999.25 
  1.6390  1.6540  1.8257  99.738  0.5228 
  2846.500 
  91.567  7.4650  0.5230  0.4590  0.0020  132.93  92.303  4.0198  1.1530 
  3.9503 -999.25 -999.25 -999.25  1.6830  1.6880 -999.25  102.33  7.3178 
  1.8268  0.5007 -0.0007  128.04 -999.25  1.6830  1.6880 -999.25 -999.25 
  1.6880  1.6830  1.8268  96.627  0.4926 
  2847.000 
  87.129  7.4570  0.5270  0.4560 -0.0020  133.41  92.267  3.9788  1.1803 
  3.9490 -999.25 -999.25 -999.25  1.7120  1.7300 -999.25  98.913  7.3598 
  1.8171  0.4781  0.0040  128.94 -999.25  1.7120  1.7300 -999.25 -999.25 
  1.7300  1.7120  1.8171  93.570  0.4673 
  2847.500 
  84.117  7.3540  0.5290  0.4510 -0.0050  133.73  92.232  4.0834  1.2256 
  3.9477 -999.25 -999.25 -999.25  1.7120  1.7440 -999.25  95.014  7.4334 
  1.7975  0.4630  0.0036  131.53 -999.25  1.7120  1.7440 -999.25 -999.25 
  1.7440  1.7120  1.7975  90.160  0.4503 
  2848.000 
  84.750  7.3180  0.5300  0.4520 -0.0030  134.27  92.196  4.1287  1.2683 
  3.9463 -999.25 -999.25 -999.25  1.7010  1.7360 -999.25  90.662  7.4634 
  1.7857  0.4584  0.0012  133.08 -999.25  1.7010  1.7360 -999.25 -999.25 
  1.7360  1.7010  1.7857  86.139  0.4452 
  2848.500 
  86.334  7.3260  0.5290  0.4600 -0.0010  136.70  92.160  4.1826  1.3062 
  3.9450 -999.25 -999.25 -999.25  1.6840  1.6600 -999.25  86.531  7.4365 
  1.7798  0.4550 -0.0026  133.51 -999.25  1.6840  1.6600 -999.25 -999.25 
  1.6600  1.6840  1.7798  82.121  0.4414 
  2849.000 
  86.571  7.3580  0.5290  0.4810  0.0040  139.84  92.124  4.2595  1.3442 
  3.9437 -999.25 -999.25 -999.25  1.6760  1.6100 -999.25  84.239  7.3470 
  1.7768  0.4512 -0.0046  133.91 -999.25  1.6760  1.6100 -999.25 -999.25 
  1.6100  1.6760  1.7768  79.646  0.4371 
  2849.500 
  82.291  7.4530  0.5320  0.4840  0.0040  141.35  92.089  4.3364  1.4049 
  3.9424 -999.25 -999.25 -999.25  1.6770  1.5760 -999.25  85.048  7.3195 
  1.7758  0.4535 -0.0026  135.09 -999.25  1.6770  1.5760 -999.25 -999.25 
  1.5760  1.6770  1.7758  80.317  0.4396 
  2850.000 
  79.676  7.5200  0.5360  0.4780  0.0010  141.01  92.053  4.4530  1.4652 
  3.9411 -999.25 -999.25 -999.25  1.6820  1.5830 -999.25  86.377  7.3318 
  1.7772  0.4638 -0.0001  137.78 -999.25  1.6820  1.5830 -999.25 -999.25 
  1.5830  1.6820  1.7772  81.615  0.4512 
  2850.500 
  77.531  7.4840  0.5370  0.4760 -0.0030  140.00  92.006  4.6019  1.5145 
  3.9401 -999.25 -999.25 -999.25  1.6800  1.6160 -999.25  85.812  7.3748 
  1.7763  0.4815  0.0040  140.37 -999.25  1.6800  1.6160 -999.25 -999.25 
  1.6160  1.6800  1.7763  81.229  0.4711 
  2851.000 
  79.428  7.3490  0.5350  0.4810 -0.0050  137.01  121.52  4.7982  1.6268 
  4.1128 -999.25 -999.25 -999.25  1.6690  1.6470 -999.25  81.841  7.4645 
  1.7711  0.4830  0.0035  141.22 -999.25  1.6690  1.6470 -999.25 -999.25 
  1.6470  1.6690  1.7711  77.762  0.4728 
  2851.500 
  82.672  7.2500  0.5330  0.5000  0.0020  137.11  121.25  5.0443  1.7870 
  4.1112 -999.25 -999.25 -999.25  1.6580  1.6430 -999.25  79.319  7.5140 
  1.7653  0.4777  0.0003  140.64 -999.25  1.6580  1.6430 -999.25 -999.25 
  1.6430  1.6580  1.7653  75.521  0.4668 
  2852.000 
  87.897  7.1980  0.5340  0.5160  0.0030  137.93  120.99  5.3057  1.9332 
  4.1095 -999.25 -999.25 -999.25  1.6530  1.5990 -999.25  77.837  7.4622 
  1.7645  0.4768 -0.0033  138.86 -999.25  1.6530  1.5990 -999.25 -999.25 
  1.5990  1.6530  1.7645  73.950  0.4658 
  2852.500 
  93.043  7.1620  0.5390  0.5260  0.0020  138.87  120.73  5.5180  2.0699 
  4.1078 -999.25 -999.25 -999.25  1.6330  1.5540 -999.25  79.934  7.3336 
  1.7678  0.4840 -0.0039  137.05 -999.25  1.6330  1.5540 -999.25 -999.25 
  1.5540  1.6330  1.7678  75.532  0.4738 
  2853.000 
  95.019  7.1580  0.5380  0.5160  0.0010  139.07  120.47  5.7486  2.2066 
  4.1061 -999.25 -999.25 -999.25  1.6130  1.5220 -999.25  83.459  7.2422 
  1.7703  0.5024  0.0022  137.44 -999.25  1.6130  1.5220 -999.25 -999.25 
  1.5220  1.6130  1.7703  78.557  0.4944 
  2853.500 
  92.083  7.1660  0.5350  0.5020  0.0010  137.80  120.21  6.0510  2.3700 
  4.1044 -999.25 -999.25 -999.25  1.5940  1.5150 -999.25  88.644  7.1928 
  1.7677  0.5175  0.0029  138.31 -999.25  1.5940  1.5150 -999.25 -999.25 
  1.5150  1.5940  1.7677  83.261  0.5113 
  2854.000 
  90.176  7.1700  0.5330  0.4960  0.0010  136.38  119.95  6.4416  2.5889 
  4.1027 -999.25 -999.25 -999.25  1.5580  1.5130 -999.25  93.319  7.1614 
  1.7609  0.5246  0.0019  138.95 -999.25  1.5580  1.5130 -999.25 -999.25 
  1.5130  1.5580  1.7609  87.534  0.5193 
  2854.500 
  90.488  7.1730  0.5300  0.4900  0.0000  135.82  119.69  6.8519  2.8318 
  4.1010 -999.25 -999.25 -999.25  1.5310  1.5220 -999.25  94.624  7.1591 
  1.7630  0.5141  0.0010  138.53 -999.25  1.5310  1.5220 -999.25 -999.25 
  1.5220  1.5310  1.7630  88.749  0.5075 
