~Version Information
VERS.                     2.0: CWLS log ASCII Standard Version 2.00
WRAP.                     YES: Multiple lines per depth step
~Well Information Block
#MNEM.UNIT                               Data Type  Information
#---------                               ---------  -----------
STRT.FT                                   800.0000:
STOP.FT                                  5530.0000:
STEP.FT                                     0.5000:
NULL.                 -999.25                     :
COMP.                                             :COMPANY            
WELL.     SANTIAGO B 73-29                        :WELL               
FLD .                                             :FIELD              
CTRY.                                             :COUNTRY            
STAT.                                             :STATE              
LOC .                                             :LOCATION           
UWI .                                             :UNIQUE WELL ID     
SRVC.                                             :Service company    
DATE.                                             :LOG DATE           
~Curve Information
#MNEM.UNIT           API CODE  Curve Description
#---------           --------  -----------------
DEPT.FT                      :   1 DEPTH
SP  .MV                      :   2
GR  .GAPI                    :   3
ILD .OHMM                    :   4
ILM .OHMM                    :   5
SFL .OHMM                    :   6
DT  .US/F                    :   7
CALI.IN                      :   8
KSCI.                        :   9
PSCI.                        :  10
OSCI.                        :  11
WSCI.                        :  12
GR  .GAPI                    :  13
RHOB.G/C3                    :  14
NPHI.PU-S                    :  15
DRHO.G/C3                    :  16
SBL .MV                      :  17
GRS .GAPI                    :  18
RD  .OHMM                    :  19
RM  .OHMM                    :  20
RS  .OHMM                    :  21
R0BS.G/C3                    :  22
DRHS.G/C3                    :  23
GRS .GAPI                    :  24
NPHS.PU-S                    :  25
DTS .US/F                    :  26
CALS.IN                      :  27
SFLC.OHMM                    :  28
ILMC.OHMM                    :  29
ILDC.OHMM                    :  30
R0BC.G/C3                    :  31
GRC .GAPI                    :  32
NPHC.PU-S                    :  33
~A
# ...
  3323.000 
 -32.237  67.891  2.6460  2.3050  2.1420  87.349  9.9080 -999.25 -999.25 
 -999.25 -999.25 -999.25 -999.25 -999.25 -999.25 -8.2370  67.891  2.6460 
  2.3050  2.1420 -999.25 -999.25 -999.25 -999.25  84.227  9.8934  2.3369 
  2.3132  2.6447 -999.25 -999.25 -999.25 
  3323.500 
 -32.240  67.494  2.6330  2.2630  2.1410  91.241  9.9080 -999.25 -999.25 
 -999.25 -999.25 -999.25 -999.25 -999.25 -999.25 -8.2400  67.494  2.6330 
  2.2630  2.1410 -999.25 -999.25 -999.25 -999.25  84.242  9.8882  2.3356 
  2.2709  2.6317 -999.25 -999.25 -999.25 
  3324.000 
 -32.044  67.097  2.6210  2.2310  2.1610  93.637  9.9070 -999.25 -999.25 
 -999.25 -999.25 -999.25 -999.25 -999.25 -999.25 -8.0440  67.097  2.6210 
  2.2310  2.1610 -999.25 -999.25 -999.25 -999.25  85.716  9.9035  2.3577 
  2.2388  2.6197 -999.25 -999.25 -999.25 
  3324.500 
 -32.144  66.104  2.6200  2.2000  2.1800  90.447  9.9070 -999.25 -999.25 
 -999.25 -999.25 -999.25 -999.25 -999.25 -999.25 -8.1440  66.104  2.6200 
  2.2000  2.1800 -999.25 -999.25 -999.25 -999.25  87.058  9.9080  2.3783 
  2.2076  2.6187 -999.25 -999.25 -999.25 
  3325.000 
 -32.245  66.102  2.5720  2.2000  2.1800  88.155  9.9070 -999.25 -999.25 
 -999.25 -999.25 -999.25 -999.25 -999.25 -999.25 -8.2450  66.102  2.5720 
  2.2000  2.1800 -999.25 -999.25 -999.25 -999.25  90.362  9.9080  2.3783 
  2.2076  2.5707 -999.25 -999.25 -999.25 
  3325.500 
 -32.050  66.694  2.5480  2.2000  2.1400  86.162  9.9070 -999.25 -999.25 
 -999.25 -999.25 -999.25 -999.25 -999.25 -999.25 -8.0500  66.694  2.5480 
  2.2000  2.1400 -999.25 -999.25 -999.25 -999.25  93.093  9.9072  2.3352 
  2.2076  2.5468 -999.25 -999.25 -999.25 
  3326.000 
 -31.656  67.088  2.4780  2.1790  2.1390  80.777  9.9260 -999.25 -999.25 
 -999.25 -999.25 -999.25 -999.25 -999.25 -999.25 -7.6560  67.088  2.4780 
  2.1790  2.1390 -999.25 -999.25 -999.25 -999.25  91.176  9.9070  2.3341 
  2.1864  2.4768 -999.25 -999.25 -999.25 
  3326.500 
 -31.460  67.482  2.4550  2.1590  2.1190  79.183  9.9260 -999.25 -999.25 
 -999.25 -999.25 -999.25 -999.25 -999.25 -999.25 -7.4600  67.482  2.4550 
  2.1590  2.1190 -999.25 -999.25 -999.25 -999.25  88.682  9.9070  2.3126 
  2.1663  2.4539 -999.25 -999.25 -999.25 
  3327.000 
 -31.462  68.666  2.4320  2.1390  2.0800  81.280  9.9260 -999.25 -999.25 
 -999.25 -999.25 -999.25 -999.25 -999.25 -999.25 -7.4620  68.666  2.4320 
  2.1390  2.0800 -999.25 -999.25 -999.25 -999.25  86.624  9.9070  2.2706 
  2.1461  2.4309 -999.25 -999.25 -999.25 
  3327.500 
 -31.464  69.258  2.4100  2.1380  2.0420  87.267  9.9260 -999.25 -999.25 
 -999.25 -999.25 -999.25 -999.25 -999.25 -999.25 -7.4640  69.258  2.4100 
  2.1380  2.0420 -999.25 -999.25 -999.25 -999.25  82.032  9.9216  2.2301 
  2.1452  2.4089 -999.25 -999.25 -999.25 
  3328.000 
 -31.070  69.256  2.3870  2.1380  2.0420  88.266  9.9260 -999.25 -999.25 
 -999.25 -999.25 -999.25 -999.25 -999.25 -999.25 -7.0700  69.256  2.3870 
  2.1380  2.0420 -999.25 -999.25 -999.25 -999.25  79.557  9.9260  2.2303 
  2.1452  2.3859 -999.25 -999.25 -999.25 
  3328.500 
 -30.281  69.254  2.3430  2.0990  2.0410  88.767  9.9250 -999.25 -999.25 
 -999.25 -999.25 -999.25 -999.25 -999.25 -999.25 -6.2810  69.254  2.3430 
  2.0990  2.0410 -999.25 -999.25 -999.25 -999.25  80.785  9.9260  2.2292 
  2.1060  2.3420 -999.25 -999.25 -999.25 
  3329.000 
 -30.283  68.956  2.3430  2.0890  2.0600  88.769  9.9250 -999.25 -999.25 
 -999.25 -999.25 -999.25 -999.25 -999.25 -999.25 -6.2830  68.956  2.3430 
  2.0890  2.0600 -999.25 -999.25 -999.25 -999.25  85.845  9.9260  2.2497 
  2.0959  2.3420 -999.25 -999.25 -999.25 
  3329.500 
 -30.483  68.657  2.3420  2.0790  2.0790  86.776  9.9250 -999.25 -999.25 
 -999.25 -999.25 -999.25 -999.25 -999.25 -999.25 -6.4830  68.657  2.3420 
  2.0790  2.0790 -999.25 -999.25 -999.25 -999.25  88.027  9.9260  2.2702 
  2.0858  2.3410 -999.25 -999.25 -999.25 
  3330.000 
 -31.672  67.863  2.3200  2.0690  2.0590  86.878  9.9640 -999.25 -999.25 
 -999.25 -999.25 -999.25 -999.25 -999.25 -999.25 -7.6720  67.863  2.3200 
  2.0690  2.0590 -999.25 -999.25 -999.25 -999.25  88.647  9.9252  2.2486 
  2.0758  2.3190 -999.25 -999.25 -999.25 
  3330.500 
 -32.267  67.861  2.3200  2.0590  2.0590  90.172  9.9840 -999.25 -999.25 
 -999.25 -999.25 -999.25 -999.25 -999.25 -999.25 -8.2670  67.861  2.3200 
  2.0590  2.0590 -999.25 -999.25 -999.25 -999.25  88.769  9.9250  2.2486 
  2.0657  2.3190 -999.25 -999.25 -999.25 
  3331.000 
 -32.269  68.651  2.2980  2.0580  2.0400  90.373  10.023 -999.25 -999.25 
 -999.25 -999.25 -999.25 -999.25 -999.25 -999.25 -8.2690  68.651  2.2980 
  2.0580  2.0400 -999.25 -999.25 -999.25 -999.25  87.261  9.9250  2.2281 
  2.0647  2.2970 -999.25 -999.25 -999.25 
  3331.500 
 -32.271  69.242  2.2980  2.0580  2.0390  90.774  10.043 -999.25 -999.25 
 -999.25 -999.25 -999.25 -999.25 -999.25 -999.25 -8.2710  69.242  2.2980 
  2.0580  2.0390 -999.25 -999.25 -999.25 -999.25  86.853  9.9545  2.2280 
  2.0648  2.2970 -999.25 -999.25 -999.25 
  3332.000 
 -32.272  70.427  2.2980  2.0480  2.0390  91.674  10.062 -999.25 -999.25 
 -999.25 -999.25 -999.25 -999.25 -999.25 -999.25 -8.2720  70.427  2.2980 
  2.0480  2.0390 -999.25 -999.25 -999.25 -999.25  89.361  9.9791  2.2289 
  2.0549  2.2970 -999.25 -999.25 -999.25 
  3332.500 
 -31.682  70.821  2.2760  2.0380  2.0380  94.668  10.062 -999.25 -999.25 
 -999.25 -999.25 -999.25 -999.25 -999.25 -999.25 -7.6820  70.821  2.2760 
  2.0380  2.0380 -999.25 -999.25 -999.25 -999.25  90.323  10.013  2.2289 
  2.0449  2.2751 -999.25 -999.25 -999.25 
  3333.000 
 -30.892  71.017  2.2550  2.0380  2.0380  97.563  10.082 -999.25 -999.25 
 -999.25 -999.25 -999.25 -999.25 -999.25 -999.25 -6.8920  71.017  2.2550 
  2.0380  2.0380 -999.25 -999.25 -999.25 -999.25  90.674  10.038  2.2298 
  2.0450  2.2541 -999.25 -999.25 -999.25 
  3333.500 
 -30.894  72.399  2.2540  2.0380  2.0380  98.563  10.102 -999.25 -999.25 
 -999.25 -999.25 -999.25 -999.25 -999.25 -999.25 -6.8940  72.399  2.2540 
  2.0380  2.0380 -999.25 -999.25 -999.25 -999.25  91.448  10.057  2.2304 
  2.0451  2.2531 -999.25 -999.25 -999.25 
  3334.000 
 -30.896  72.200  2.2540  2.0370  2.0370  98.465  10.121 -999.25 -999.25 
 -999.25 -999.25 -999.25 -999.25 -999.25 -999.25 -6.8960  72.200  2.2540 
  2.0370  2.0370 -999.25 -999.25 -999.25 -999.25  93.913  10.062  2.2295 
  2.0441  2.2531 -999.25 -999.25 -999.25 
  3334.500 
 -30.305  71.209  2.2640  2.0370  2.0370  97.070  10.141 -999.25 -999.25 
 -999.25 -999.25 -999.25 -999.25 -999.25 -999.25 -6.3050  71.209  2.2640 
  2.0370  2.0370 -999.25 -999.25 -999.25 -999.25  96.829  10.077  2.2300 
  2.0442  2.2631 -999.25 -999.25 -999.25 
  3335.000 
 -30.307  70.218  2.2740  2.0370  2.0550  94.878  10.160 -999.25 -999.25 
 -999.25 -999.25 -999.25 -999.25 -999.25 -999.25 -6.3070  70.218  2.2740 
  2.0370  2.0550 -999.25 -999.25 -999.25 -999.25  98.308  10.097  2.2502 
  2.0443  2.2731 -999.25 -999.25 -999.25 
  3335.500 
 -30.111  69.622  2.2740  2.0360  2.0930  91.688  10.180 -999.25 -999.25 
 -999.25 -999.25 -999.25 -999.25 -999.25 -999.25 -6.1110  69.622  2.2740 
  2.0360  2.0930 -999.25 -999.25 -999.25 -999.25  98.490  10.116  2.2920 
  2.0434  2.2731 -999.25 -999.25 -999.25 
  3336.000 
 -29.519  70.609  2.2940  2.0360  2.0930  89.196  10.199 -999.25 -999.25 
 -999.25 -999.25 -999.25 -999.25 -999.25 -999.25 -5.5190  70.609  2.2940 
  2.0360  2.0930 -999.25 -999.25 -999.25 -999.25  97.430  10.136  2.2927 
  2.0435  2.2931 -999.25 -999.25 -999.25 
  3336.500 
 -29.126  71.003  2.2940  2.0450  2.1120  89.298  10.219 -999.25 -999.25 
 -999.25 -999.25 -999.25 -999.25 -999.25 -999.25 -5.1260  71.003  2.2940 
  2.0450  2.1120 -999.25 -999.25 -999.25 -999.25  95.447  10.155  2.3140 
  2.0526  2.2931 -999.25 -999.25 -999.25 
  3337.000 
 -29.326  70.309  2.2930  2.0540  2.1310  90.796  10.239 -999.25 -999.25 
 -999.25 -999.25 -999.25 -999.25 -999.25 -999.25 -5.3260  70.309  2.2930 
  2.0540  2.1310 -999.25 -999.25 -999.25 -999.25  92.520  10.175  2.3353 
  2.0618  2.2921 -999.25 -999.25 -999.25 
