~Version Information
VERS.                     2.0: CWLS log ASCII Standard Version 2.00
WRAP.                      NO: One line per depth step
~Well Information Block
#MNEM.UNIT                               Data Type  Information
#---------                               ---------  -----------
STRT.FT                                    90.0000:
STOP.FT                                  2000.0000:
STEP.FT                                     0.5000:
NULL.                 -999.25                     :
COMP.                                             :COMPANY            
WELL.     LL 76-30 OR MUDDY CREEK 76-30           :WELL               
FLD .                                             :FIELD              
CTRY.                                             :COUNTRY            
STAT.                                             :STATE              
LOC .                                             :LOCATION           
UWI .                                             :UNIQUE WELL ID     
SRVC.                                             :Service company    
DATE.                                             :LOG DATE           
~Curve Information
#MNEM.UNIT           API CODE  Curve Description
#---------           --------  -----------------
DEPT.FT                      :   1 DEPTH
GR  .GAPI                    :   2
CALI.IN                      :   3
DPHI.PU-S                    :   4
NPHI.PU-S                    :   5
DRHO.G/C3                    :   6
SP  .MV                      :   7
ILD .OHMM                    :   8
ILM .OHMM                    :   9
SFLU.OHMM                    :  10
DT  .US/F                    :  11
RHOB.G/C3                    :  12
ROBS.G/C3                    :  13
CALS.IN                      :  14
DRHS.G/C3                    :  15
GRS .GAPI                    :  16
NPHS.PU-S                    :  17
DTS .US/F                    :  18
SBL .MV                      :  19
RD  .OHMM                    :  20
RM  .OHMM                    :  21
RS  .OHMM                    :  22
SFLU.OHMM                    :  23
ILMC.OHMM                    :  24
ILDC.OHMM                    :  25
ROBC.G/C3                    :  26
GRC .GAPI                    :  27
NPHC.PU-S                    :  28
~A
# ...
  1926.000  64.540  6.6580  0.3870  0.4100  0.0170 -999.25  1.5000  1.4590 -999.25  125.57  2.0115  1.9673  6.6845  0.0344  81.995  0.3770  125.57 -999.25  1.5000  1.4590 -999.25 -999.25  1.4590  1.5000  1.9673  73.803  0.3379 
  1926.500  79.273  6.6780  0.3970  0.3700  0.0360 -999.25  1.3810  1.3430 -999.25  132.94  1.9950  1.8834  6.7171  0.0228  92.840  0.3659  132.94 -999.25  1.3810  1.3430 -999.25 -999.25  1.3430  1.3810  1.8834  83.676  0.3260 
  1927.000  88.035  6.6990  0.4510  0.3650  0.0310 -999.25  1.2830  1.2830 -999.25  140.11  1.9059  1.8190  6.7651  0.0028  105.19  0.4226  140.11 -999.25  1.2830  1.2830 -999.25 -999.25  1.2830  1.2830  1.8190  94.989  0.3868 
  1927.500  103.96  6.7590  0.4960  0.4340  0.0040 -999.25  1.2250  1.2250 -999.25  150.98  1.8316  1.7850  6.7914  0.0006  108.43  0.4717  150.98 -999.25  1.2250  1.2250 -999.25 -999.25  1.2250  1.2250  1.7850  98.022  0.4396 
  1928.000  108.15  6.7800  0.5220  0.4790  0.0000 -999.25  1.1700  1.1600 -999.25  150.87  1.7887  1.7723  6.8093  0.0028  108.16  0.5288  150.87 -999.25  1.1700  1.1600 -999.25 -999.25  1.1600  1.1700  1.7723  97.852  0.5010 
  1928.500  109.15  6.8200  0.5300  0.5380  0.0020 -999.25  1.1180  1.1080 -999.25  150.42  1.7755  1.7631  6.7653  0.0042  104.09  0.5388  150.42 -999.25  1.1180  1.1080 -999.25 -999.25  1.1080  1.1180  1.7631  94.000  0.5119 
  1929.000  105.57  6.7810  0.5370  0.5390  0.0050 -999.25  1.0770  1.0770 -999.25  149.97  1.7640  1.7602  6.7120  0.0012  99.342  0.5390  149.97 -999.25  1.0770  1.0770 -999.25 -999.25  1.0770  1.0770  1.7602  89.517  0.5120 
  1929.500  100.00  6.7220  0.5390  0.5390  0.0020 -999.25  1.0480  1.0480 -999.25  149.17  1.7607  1.7561  6.6783 -0.0010  96.241  0.5399  149.17 -999.25  1.0480  1.0480 -999.25 -999.25  1.0480  1.0480  1.7561  86.603  0.5130 
  1930.000  97.424  6.6830  0.5400  0.5400 -0.0010 -999.25  1.0290  1.0290 -999.25  149.26  1.7590  1.7463  6.6640 -0.0008  91.276  0.5503  149.26 -999.25  1.0290  1.0290 -999.25 -999.25  1.0290  1.0290  1.7463  82.087  0.5243 
  1930.500  92.654  6.6640  0.5470  0.5520 -0.0010 -999.25  1.0100  1.0010 -999.25  149.26  1.7475  1.7406  6.6870  0.0005  86.112  0.5563  149.26 -999.25  1.0100  1.0010 -999.25 -999.25  1.0010  1.0100  1.7406  77.516  0.5307 
  1931.000  86.889  6.6640  0.5500  0.5570  0.0000 -999.25  1.0050  0.9730 -999.25  148.95  1.7425  1.7321  6.7817  0.0018  83.777  0.5657  148.95 -999.25  1.0050  0.9730 -999.25 -999.25  0.9730  1.0050  1.7321  75.705  0.5409 
  1931.500  83.511  6.7640  0.5550  0.5670  0.0020 -999.25  1.0000  0.9640 -999.25  149.35  1.7343  1.7219  6.8652  0.0006  85.431  0.5723  149.35 -999.25  1.0000  0.9640 -999.25 -999.25  0.9640  1.0000  1.7219  77.461  0.5479 
  1932.000  84.712  6.8440  0.5610  0.5730  0.0010 -999.25  0.9730  0.9380 -999.25  149.94  1.7244  1.7125  6.9523 -0.0020  89.032  0.5756  149.94 -999.25  0.9730  0.9380 -999.25 -999.25  0.9380  0.9730  1.7125  81.009  0.5516 
  1932.500  88.101  6.9440  0.5680  0.5760 -0.0010 -999.25  0.9730  0.9380 -999.25  150.44  1.7128  1.7121  6.9928 -0.0064  93.033  0.5804  150.44 -999.25  0.9730  0.9380 -999.25 -999.25  0.9380  0.9730  1.7121  84.785  0.5568 
  1933.000  92.684  6.9850  0.5690  0.5810 -0.0060 -999.25  0.9640  0.9380 -999.25  150.63  1.7112  1.7179  7.0215 -0.0078  94.075  0.5846  150.63 -999.25  0.9640  0.9380 -999.25 -999.25  0.9380  0.9640  1.7179  85.833  0.5612 
  1933.500  94.480  7.0250  0.5660  0.5850 -0.0080 -999.25  0.9550  0.9290 -999.25  150.63  1.7161  1.7280  7.0095 -0.0065  91.280  0.5859  150.63 -999.25  0.9550  0.9290 -999.25 -999.25  0.9290  0.9550  1.7280  83.243  0.5627 
  1934.000  92.297  7.0060  0.5600  0.5860 -0.0070 -999.25  0.9460  0.9370 -999.25  150.73  1.7260  1.7381  7.0312 -0.0038  86.600  0.5788  150.73 -999.25  0.9460  0.9370 -999.25 -999.25  0.9370  0.9460  1.7381  79.043  0.5550 
  1934.500  86.532  7.0260  0.5530  0.5780 -0.0040 -999.25  0.9370  0.9370 -999.25  150.82  1.7376  1.7403  7.0618 -0.0028  87.063  0.5681  150.82 -999.25  0.9370  0.9370 -999.25 -999.25  0.9370  0.9370  1.7403  79.562  0.5434 
  1935.000  86.936  7.0570  0.5510  0.5670 -0.0030 -999.25  0.9370  0.9370 -999.25  150.32  1.7409  1.7368  7.0901 -0.0016  88.096  0.5506  150.32 -999.25  0.9370  0.9370 -999.25 -999.25  0.9370  0.9370  1.7368  80.596  0.5247 
  1935.500  87.738  7.0870  0.5530  0.5490 -0.0020 -999.25  0.9450  0.9450 -999.25  149.82  1.7376  1.7331  7.0856  0.0010  90.386  0.5453  149.82 -999.25  0.9450  0.9450 -999.25 -999.25  0.9450  0.9450  1.7331  82.676  0.5189 
  1936.000  90.133  7.1080  0.5560  0.5450  0.0010 -999.25  0.9540  0.9580 -999.25  149.61  1.7326  1.7366  6.9308  0.0007  92.612  0.5588  149.61 -999.25  0.9540  0.9580 -999.25 -999.25  0.9580  0.9540  1.7366  84.193  0.5334 
  1936.500  91.930  6.9490  0.5540  0.5600  0.0010 -999.25  0.9710  0.9720 -999.25  149.81  1.7359  1.7415  6.8061 -0.0006  98.502  0.5702  149.81 -999.25  0.9710  0.9720 -999.25 -999.25  0.9720  0.9710  1.7415  89.100  0.5457 
  1937.000  97.110  6.8110  0.5510  0.5710 -0.0010 -999.25  0.9890  1.0170 -999.25  149.71  1.7409  1.7458  6.7621  0.0023  108.93  0.5701  149.71 -999.25  0.9890  1.0170 -999.25 -999.25  1.0170  0.9890  1.7458  98.361  0.5456 
  1937.500  108.46  6.7710  0.5480  0.5700  0.0020 -999.25  1.0260  1.0640 -999.25  148.90  1.7458  1.7453  6.6951  0.0048  112.37  0.5644  148.90 -999.25  1.0260  1.0640 -999.25 -999.25  1.0640  1.0260  1.7453  101.19  0.5394 
  1938.000  112.64  6.6930  0.5480  0.5640  0.0050 -999.25  1.0640  1.1040 -999.25  147.90  1.7458  1.7401  6.7149  0.0027  108.82  0.5528  147.90 -999.25  1.0640  1.1040 -999.25 -999.25  1.1040  1.0640  1.7401  98.072  0.5269 
  1938.500  110.06  6.7130  0.5510  0.5520  0.0030 -999.25  1.1450  1.1450 -999.25  144.21  1.7409  1.7323  6.7331 -0.0001  96.062  0.5388  144.21 -999.25  1.1450  1.1450 -999.25 -999.25  1.1450  1.1450  1.7323  86.635  0.5119 
  1939.000  97.133  6.7330  0.5560  0.5380  0.0000 -999.25  1.1980  1.1870 -999.25  140.02  1.7326  1.7293  6.7340 -0.0010  84.475  0.5314  140.02 -999.25  1.1980  1.1870 -999.25 -999.25  1.1870  1.1980  1.7293  76.188  0.5038 
  1939.500  84.800  6.7340  0.5580  0.5310 -0.0010 -999.25  1.2660  1.2430 -999.25  136.72  1.7293  1.7296  6.7327 -0.0009  80.559  0.5177  136.72 -999.25  1.2660  1.2430 -999.25 -999.25  1.2430  1.2660  1.7296  72.653  0.4891 
  1940.000  80.627  6.7340  0.5580  0.5170 -0.0010 -999.25  1.3010  1.3010 -999.25  132.43  1.7293  1.7344  6.7139  0.0007  79.579  0.4998  132.43 -999.25  1.3010  1.3010 -999.25 -999.25  1.3010  1.3010  1.7344  71.714  0.4698 
  1940.500  79.638  6.7150  0.5550  0.4990  0.0010 -999.25  1.3490  1.3990 -999.25  131.13  1.7343  1.7381  6.6970 -0.0041  78.568  0.4808  131.13 -999.25  1.3490  1.3990 -999.25 -999.25  1.3990  1.3490  1.7381  70.754  0.4493 
  1941.000  78.649  6.6960  0.5530  0.4800 -0.0040 -999.25  1.3990  1.4510 -999.25  130.33  1.7376  1.7519  6.7169 -0.0060  76.996  0.4559  130.33 -999.25  1.3990  1.4510 -999.25 -999.25  1.4510  1.3990  1.7519  69.395  0.4226 
  1941.500  77.063  6.7160  0.5460  0.4550 -0.0060 -999.25  1.5190  1.5760 -999.25  129.43  1.7491  1.8173  6.7377 -0.0060  75.412  0.4560  129.43 -999.25  1.5190  1.5760 -999.25 -999.25  1.5760  1.5190  1.8173  68.025  0.4227 
  1942.000  75.478  6.7370  0.5060  0.4560 -0.0060 -999.25  1.6490  1.6800 -999.25  127.53  1.8151  1.8844  6.7575 -0.0049  73.358  0.4589  127.53 -999.25  1.6490  1.6800 -999.25 -999.25  1.6800  1.6490  1.8844  66.226  0.4259 
  1942.500  73.493  6.7570  0.4650  0.4590 -0.0050 -999.25  1.8570  1.8240 -999.25  123.34  1.8828  1.9514  6.7783 -0.0019  67.724  0.4629  123.34 -999.25  1.8570  1.8240 -999.25 -999.25  1.8240  1.8570  1.9514  61.191  0.4302 
  1943.000  67.927  6.7780  0.4240  0.4630 -0.0020 -999.25  2.0730  1.9980 -999.25  114.16  1.9504  2.0168  6.7981  0.0021  54.574  0.4532  114.16 -999.25  2.0730  1.9980 -999.25 -999.25  1.9980  2.0730  2.0168  49.349  0.4197 
  1943.500  54.600  6.7980  0.3840  0.4530  0.0020 -999.25  2.2300  2.1900 -999.25  109.87  2.0164  2.0839  6.8179  0.0170  50.438  0.4016  109.87 -999.25  2.2300  2.1900 -999.25 -999.25  2.1900  2.2300  2.0839  45.645  0.3643 
