~Version Information
VERS.                     2.0: CWLS log ASCII Standard Version 2.00
WRAP.                     YES: Multiple lines per depth step
~Well Information Block
#MNEM.UNIT                               Data Type  Information
#---------                               ---------  -----------
STRT.FT                                   100.0000:
STOP.FT                                  3000.0000:
STEP.FT                                     0.5000:
NULL.                 -999.25                     :
COMP.                                             :COMPANY            
WELL.     LOS LOBOS 51X-30                        :WELL               
FLD .                                             :FIELD              
CTRY.                                             :COUNTRY            
STAT.                                             :STATE              
LOC .                                             :LOCATION           
UWI .                                             :UNIQUE WELL ID     
SRVC.                                             :Service company    
DATE.                                             :LOG DATE           
~Curve Information
#MNEM.UNIT           API CODE  Curve Description
#---------           --------  -----------------
DEPT.FT                      :   1 DEPTH
GR  .GAPI                    :   2
CALI.IN                      :   3
DPHI.PU-S                    :   4
NPHI.PU-S                    :   5
DRHO.G/C3                    :   6
DT  .US/F                    :   7
ROP .                        :   8
GAS .                        :   9
CGAS.                        :  10
C1R .                        :  11
C2R .                        :  12
C3R .                        :  13
SP  .MV                      :  14
ILD .OHMM                    :  15
ILM .OHMM                    :  16
SFLU.OHMM                    :  17
GRS .GAPI                    :  18
CALS.IN                      :  19
ROBS.G/C3                    :  20
NPHS.PU-S                    :  21
DROS.G/C3                    :  22
DTS .US/F                    :  23
SBL .MV                      :  24
 RD .OHMM                    :  25
RM  .OHMM                    :  26
RS  .OHMM                    :  27
SFLU.OHMM                    :  28
ILMC.OHMM                    :  29
ILDC.OHMM                    :  30
ROBC.G/C3                    :  31
GRC .GAPI                    :  32
NPHC.PU-S                    :  33
~A
# ...
  2043.000 
  58.222  7.1580  0.4540 -999.25  0.0470  100.14  41.341  11.626  8.2433 
  5.3899 -999.25 -999.25 -999.25  8.1210  7.7590 -999.25  54.969  7.0950 
  1.9311 -999.25  0.0451  97.795 -999.25  8.1210  7.7590 -999.25 -999.25 
  7.7590  8.1210  1.9311  51.413 -999.25 
  2043.500 
  67.130  7.0580  0.4630 -999.25  0.0400  101.45  41.248  11.517  8.1035 
  5.3920 -999.25 -999.25 -999.25  7.4130  7.4680 -999.25  53.688  7.1500 
  1.9215 -999.25  0.0514  100.35 -999.25  7.4130  7.4680 -999.25 -999.25 
  7.4680  7.4130  1.9215  50.335 -999.25 
  2044.000 
  79.934  6.9310  0.4700 -999.25  0.0320  101.81  41.155  11.403  7.9946 
  5.3940 -999.25 -999.25 -999.25  6.6810  6.7550 -999.25  58.906  7.1503 
  1.8998 -999.25  0.0465  101.51 -999.25  6.6810  6.7550 -999.25 -999.25 
  6.7550  6.6810  1.8998  55.228 -999.25 
  2044.500 
  91.704  6.9080  0.4740 -999.25  0.0090  102.94  41.062  11.200  7.9637 
  5.3961 -999.25 -999.25 -999.25  5.9120  6.2450 -999.25  67.692  7.0524 
  1.8855 -999.25  0.0397  101.97 -999.25  5.9120  6.2450 -999.25 -999.25 
  6.2450  5.9120  1.8855  63.197 -999.25 
  2045.000 
  98.784  6.8680  0.4780 -999.25 -0.0020  105.13  40.968  10.934  7.9328 
  5.3982 -999.25 -999.25 -999.25  5.3380  5.4470 -999.25  80.065  6.9307 
  1.8744 -999.25  0.0317  103.25 -999.25  5.3380  5.4470 -999.25 -999.25 
  5.4470  5.3380  1.8744  74.350 -999.25 
  2045.500 
  103.24  6.8680  0.4840 -999.25 -0.0050  111.76  40.875  10.653  7.8997 
  5.4002 -999.25 -999.25 -999.25  4.7760  4.7330 -999.25  91.503  6.9084 
  1.8680 -999.25  0.0094  106.02 -999.25  4.7760  4.7330 -999.25 -999.25 
  4.7330  4.7760  1.8680  84.889 -999.25 
  2046.000 
  110.96  6.8680  0.4880 -999.25 -0.0100  114.14  40.782  10.429  7.8610 
  5.4023 -999.25 -999.25 -999.25  4.3680  3.8020 -999.25  98.543  6.8694 
  1.8615 -999.25 -0.0016  112.07 -999.25  4.3680  3.8020 -999.25 -999.25 
  3.8020  4.3680  1.8615  91.262 -999.25 
  2046.500 
  125.19  6.8760  0.4900 -999.25 -0.0130  119.38  40.689  10.284  7.8257 
  5.4044 -999.25 -999.25 -999.25  4.0090  3.3770 -999.25  103.01  6.8680 
  1.8519 -999.25 -0.0048  114.79 -999.25  4.0090  3.3770 -999.25 -999.25 
  3.3770  4.0090  1.8519  95.394 -999.25 
  2047.000 
  140.22  6.9160  0.4880 -999.25 -0.0100  122.60  40.596  10.148  7.9480 
  5.4064 -999.25 -999.25 -999.25  3.6460  3.1560 -999.25  110.43  6.8680 
  1.8452 -999.25 -0.0097  119.76 -999.25  3.6460  3.1560 -999.25 -999.25 
  3.1560  3.6460  1.8452  102.26 -999.25 
  2047.500 
  144.12  6.9280  0.4820 -999.25 -0.0070  129.51  40.468  10.025  8.0802 
  5.4085 -999.25 -999.25 -999.25  3.3710  2.9450 -999.25  123.98  6.8753 
  1.8418 -999.25 -0.0127  123.37 -999.25  3.3710  2.9450 -999.25 -999.25 
  2.9450  3.3710  1.8418  114.85 -999.25 
  2048.000 
  146.51  6.9490  0.4760 -999.25 -0.0060  129.73  79.015  9.9154  8.2215 
  5.4105 -999.25 -999.25 -999.25  3.1920  2.8400 -999.25  138.68  6.9119 
  1.8445 -999.25 -0.0103  129.53 -999.25  3.1920  2.8400 -999.25 -999.25 
  2.8400  3.1920  1.8445  128.68 -999.25 
  2048.500 
  148.82  6.9410  0.4730 -999.25 -0.0030  128.14  78.918  9.8298  8.3629 
  5.4126 -999.25 -999.25 -999.25  3.0670  2.7430 -999.25  143.65  6.9266 
  1.8535 -999.25 -0.0074  129.57 -999.25  3.0670  2.7430 -999.25 -999.25 
  2.7430  3.0670  1.8535  133.38 -999.25 
  2049.000 
  152.16  6.9410  0.4710 -999.25 -0.0030  128.58  78.854  10.023  8.5545 
  5.4147 -999.25 -999.25 -999.25  2.9570  2.6650 -999.25  146.18  6.9461 
  1.8633 -999.25 -0.0061  128.18 -999.25  2.9570  2.6650 -999.25 -999.25 
  2.6650  2.9570  1.8633  135.84 -999.25 
  2049.500 
  155.26  6.9530  0.4600 -999.25 -0.0010  132.05  78.790  10.376  8.7339 
  5.4167 -999.25 -999.25 -999.25  2.8770  2.6550 -999.25  148.46  6.9422 
  1.8688 -999.25 -0.0035  128.89 -999.25  2.8770  2.6550 -999.25 -999.25 
  2.6550  2.8770  1.8688  137.94 -999.25 
  2050.000 
  159.56  6.9810  0.4510 -999.25  0.0000  134.54  78.726  10.901  8.9388 
  5.4188 -999.25 -999.25 -999.25  2.8360  2.6560 -999.25  151.59  6.9410 
  1.8723 -999.25 -0.0030  132.26 -999.25  2.8360  2.6560 -999.25 -999.25 
  2.6560  2.8360  1.8723  140.84 -999.25 
  2050.500 
  158.37  6.9610  0.4370 -999.25  0.0000  135.39  78.662  11.351  9.2379 
  5.4209 -999.25 -999.25 -999.25  2.8050  2.6510 -999.25  154.68  6.9508 
  1.8876 -999.25 -0.0014  134.60 -999.25  2.8050  2.6510 -999.25 -999.25 
  2.6510  2.8050  1.8876  143.77 -999.25 
  2051.000 
  154.31  6.9290  0.4300 -999.25  0.0000  133.13  78.597  11.628  9.4891 
  5.4229 -999.25 -999.25 -999.25  2.8000  2.6450 -999.25  158.69  6.9753 
  1.9028 -999.25 -0.0002  135.22 -999.25  2.8000  2.6450 -999.25 -999.25 
  2.6450  2.8000  1.9028  147.65 -999.25 
  2051.500 
  141.51  6.9090  0.4350 -999.25  0.0010  130.86  78.533  11.731  9.8161 
  5.4250 -999.25 -999.25 -999.25  2.8200  2.6550 -999.25  158.63  6.9654 
  1.9239 -999.25  0.0000  132.97 -999.25  2.8200  2.6550 -999.25 -999.25 
  2.6550  2.8200  1.9239  147.53 -999.25 
  2052.000 
  135.30  6.8730  0.4420 -999.25  0.0000  127.75  78.488  11.831  9.7943 
  5.4270 -999.25 -999.25 -999.25  2.8560  2.6740 -999.25  155.27  6.9366 
  1.9378 -999.25  0.0000  130.66 -999.25  2.8560  2.6740 -999.25 -999.25 
  2.6740  2.8560  1.9378  144.22 -999.25 
  2052.500 
  124.89  6.8370  0.4490 -999.25  0.0000  124.65  90.157  11.905  9.7556 
  5.4291 -999.25 -999.25 -999.25  2.9080  2.7330 -999.25  144.75  6.9141 
  1.9343 -999.25  0.0007  127.57 -999.25  2.9080  2.7330 -999.25 -999.25 
  2.7330  2.9080  1.9343  134.32 -999.25 
  2053.000 
  108.82  6.8410  0.4560 -999.25 -0.0010  119.96  90.143  11.738  9.7060 
  5.4312 -999.25 -999.25 -999.25  3.0220  2.7830 -999.25  136.98  6.8827 
  1.9238 -999.25  0.0003  124.40 -999.25  3.0220  2.7830 -999.25 -999.25 
  2.7830  3.0220  1.9238  126.93 -999.25 
  2053.500 
  100.95  6.8490  0.4680 -999.25 -0.0020  118.42  90.129  11.451  9.6348 
  5.4332 -999.25 -999.25 -999.25  3.1570  2.9560 -999.25  127.88  6.8473 
  1.9125 -999.25  0.0000  119.89 -999.25  3.1570  2.9560 -999.25 -999.25 
  2.9560  3.1570  1.9125  118.31 -999.25 
  2054.000 
  96.816  6.8450  0.4760 -999.25 -0.0020  116.89  90.115  11.147  9.5522 
  5.4353 -999.25 -999.25 -999.25  3.3100  3.1800 -999.25  113.71  6.8398 
  1.9011 -999.25 -0.0007  118.35 -999.25  3.3100  3.1800 -999.25 -999.25 
  3.1800  3.3100  1.9011  105.17 -999.25 
  2054.500 
  92.601  6.8610  0.4770 -999.25 -0.0020  114.17  80.867  10.959  9.4820 
  5.4374 -999.25 -999.25 -999.25  3.5150  3.4640 -999.25  103.48  6.8464 
  1.8841 -999.25 -0.0017  116.79 -999.25  3.5150  3.4640 -999.25 -999.25 
  3.4640  3.5150  1.8841  95.734 -999.25 
  2055.000 
  89.022  6.8890  0.4700 -999.25 -0.0010  110.42  80.668  10.929  9.4798 
  5.4394 -999.25 -999.25 -999.25  3.6930  3.7330 -999.25  98.212  6.8463 
  1.8691 -999.25 -0.0020  114.05 -999.25  3.6930  3.7330 -999.25 -999.25 
  3.7330  3.6930  1.8691  90.863 -999.25 
  2055.500 
  85.601  6.9130  0.4660 -999.25  0.0040  107.93  80.470  10.777  9.5473 
  5.4415 -999.25 -999.25 -999.25  3.9430  3.9720 -999.25  94.094  6.8553 
  1.8635 -999.25 -0.0020  110.35 -999.25  3.9430  3.9720 -999.25 -999.25 
  3.9720  3.9430  1.8635  87.088 -999.25 
  2056.000 
  81.148  6.9600  0.4650 -999.25  0.0070  106.78  80.271  10.650  9.6361 
  5.4435 -999.25 -999.25 -999.25  4.1950  4.2420 -999.25  90.350  6.8786 
  1.8702 -999.25 -0.0014  107.91 -999.25  4.1950  4.2420 -999.25 -999.25 
  4.2420  4.1950  1.8702  83.709 -999.25 
  2056.500 
  70.095  7.0160  0.4720 -999.25  0.0040  107.14  80.073  10.552  9.6345 
  5.4456 -999.25 -999.25 -999.25  4.3270  4.3750 -999.25  86.928  6.9037 
  1.8785 -999.25  0.0021  106.79 -999.25  4.3270  4.3750 -999.25 -999.25 
  4.3750  4.3270  1.8785  80.628 -999.25 
  2057.000 
  66.595  7.0240  0.4830 -999.25  0.0000  108.27  69.056  10.438  9.6323 
  5.4477 -999.25 -999.25 -999.25  4.4390  4.4800 -999.25  82.950  6.9410 
  1.8821 -999.25  0.0058  107.15 -999.25  4.4390  4.4800 -999.25 -999.25 
  4.4800  4.4390  1.8821  77.065 -999.25 
