~Version Information
VERS.                     2.0: CWLS log ASCII Standard Version 2.00
WRAP.                     YES: Multiple lines per depth step
~Well Information Block
#MNEM.UNIT                               Data Type  Information
#---------                               ---------  -----------
STRT.FT                                   100.0000:
STOP.FT                                  3000.0000:
STEP.FT                                     0.5000:
NULL.                 -999.25                     :
COMP.                                             :COMPANY            
WELL.     LOS LOBOS 51X-30                        :WELL               
FLD .                                             :FIELD              
CTRY.                                             :COUNTRY            
STAT.                                             :STATE              
LOC .                                             :LOCATION           
UWI .                                             :UNIQUE WELL ID     
SRVC.                                             :Service company    
DATE.                                             :LOG DATE           
~Curve Information
#MNEM.UNIT           API CODE  Curve Description
#---------           --------  -----------------
DEPT.FT                      :   1 DEPTH
GR  .GAPI                    :   2
CALI.IN                      :   3
DPHI.PU-S                    :   4
NPHI.PU-S                    :   5
DRHO.G/C3                    :   6
DT  .US/F                    :   7
ROP .                        :   8
GAS .                        :   9
CGAS.                        :  10
C1R .                        :  11
C2R .                        :  12
C3R .                        :  13
SP  .MV                      :  14
ILD .OHMM                    :  15
ILM .OHMM                    :  16
SFLU.OHMM                    :  17
GRS .GAPI                    :  18
CALS.IN                      :  19
ROBS.G/C3                    :  20
NPHS.PU-S                    :  21
DROS.G/C3                    :  22
DTS .US/F                    :  23
SBL .MV                      :  24
 RD .OHMM                    :  25
RM  .OHMM                    :  26
RS  .OHMM                    :  27
SFLU.OHMM                    :  28
ILMC.OHMM                    :  29
ILDC.OHMM                    :  30
ROBC.G/C3                    :  31
GRC .GAPI                    :  32
NPHC.PU-S                    :  33
~A
# ...
  1840.000 
  106.12  7.4370  0.5750 -999.25 -0.0010  153.93  71.901  4.5781  4.5948 
  3.7933 -999.25 -999.25 -999.25  1.5400  1.5400 -999.25  101.19  7.4830 
  1.6711 -999.25 -0.0085  154.04 -999.25  1.5400  1.5400 -999.25 -999.25 
  1.5400  1.5400  1.6711  96.224 -999.25 
  1840.500 
  102.69  7.4770  0.5850 -999.25 -0.0070  154.15  71.858  5.2258  4.7159 
  3.7933 -999.25 -999.25 -999.25  1.5340  1.5170 -999.25  100.10  7.4902 
  1.6568 -999.25 -0.0090  154.50 -999.25  1.5340  1.5170 -999.25 -999.25 
  1.5170  1.5340  1.6568  95.217 -999.25 
  1841.000 
  100.70  7.4850  0.5960 -999.25 -0.0090  154.83  71.816  5.6606  4.1893 
  3.7933 -999.25 -999.25 -999.25  1.5370  1.4980 -999.25  99.428  7.5008 
  1.6437 -999.25 -0.0090  155.28 -999.25  1.5370  1.4980 -999.25 -999.25 
  1.4980  1.5370  1.6437  94.616 -999.25 
  1841.500 
  99.900  7.4920  0.6040 -999.25 -0.0090  155.68  71.773  6.1768  3.8629 
  3.7933 -999.25 -999.25 -999.25  1.5310  1.4840 -999.25  97.229  7.5098 
  1.6330 -999.25 -0.0075  155.95 -999.25  1.5310  1.4840 -999.25 -999.25 
  1.4840  1.5310  1.6330  92.558 -999.25 
  1842.000 
  99.259  7.5040  0.6120 -999.25 -0.0090  156.18  71.731  6.0774  3.5364 
  3.7933 -999.25 -999.25 -999.25  1.5310  1.4680 -999.25  93.433  7.5286 
  1.6303 -999.25 -0.0063  156.24 -999.25  1.5310  1.4680 -999.25 -999.25 
  1.4680  1.5310  1.6303  89.014 -999.25 
  1842.500 
  96.472  7.5120  0.6180 -999.25 -0.0070  156.30  71.689  5.9900  3.2660 
  3.7932 -999.25 -999.25 -999.25  1.5360  1.4510 -999.25  91.627  7.5777 
  1.6327 -999.25 -0.0032  156.22 -999.25  1.5360  1.4510 -999.25 -999.25 
  1.4510  1.5360  1.6327  87.471 -999.25 
  1843.000 
  92.253  7.5350  0.6180 -999.25 -0.0060  156.16  71.646  5.9284  3.0179 
  3.7932 -999.25 -999.25 -999.25  1.5330  1.4300 -999.25  91.539  7.5865 
  1.6464 -999.25  0.0008  156.05 -999.25  1.5330  1.4300 -999.25 -999.25 
  1.4300  1.5330  1.6464  87.419 -999.25 
  1843.500 
  91.374  7.5950  0.6160 -999.25 -0.0020  155.98  71.604  5.7806  2.7698 
  3.7932 -999.25 -999.25 -999.25  1.5220  1.4300 -999.25  91.660  7.5551 
  1.6552 -999.25  0.0020  155.99 -999.25  1.5220  1.4300 -999.25 -999.25 
  1.4300  1.5220  1.6552  87.421 -999.25 
  1844.000 
  91.608  7.5830  0.6050 -999.25  0.0020  156.00  71.561  5.6288  2.5217 
  3.7932 -999.25 -999.25 -999.25  1.5100  1.4350 -999.25  89.873  7.5127 
  1.6522 -999.25 -0.0001  156.18 -999.25  1.5100  1.4350 -999.25 -999.25 
  1.4350  1.5100  1.6522  85.566 -999.25 
  1844.500 
  91.683  7.5430  0.6020 -999.25  0.0020  156.30  71.519  5.3143  2.2876 
  3.9255 -999.25 -999.25 -999.25  1.5070  1.4400 -999.25  86.293  7.4854 
  1.6422 -999.25 -0.0030  156.41 -999.25  1.5070  1.4400 -999.25 -999.25 
  1.4400  1.5070  1.6422  82.063 -999.25 
  1845.000 
  89.054  7.4990  0.6060 -999.25 -0.0010  156.48  71.476  5.0522  2.0551 
  3.9254 -999.25 -999.25 -999.25  1.5070  1.4500 -999.25  83.388  7.4756 
  1.6330 -999.25 -0.0067  156.53 -999.25  1.5070  1.4500 -999.25 -999.25 
  1.4500  1.5070  1.6330  79.269 -999.25 
  1845.500 
  84.995  7.4790  0.6130 -999.25 -0.0040  156.56  71.434  4.7944  1.8349 
  3.9252 -999.25 -999.25 -999.25  1.5100  1.4550 -999.25  80.383  7.4740 
  1.6292 -999.25 -0.0080  154.59 -999.25  1.5100  1.4550 -999.25 -999.25 
  1.4550  1.5100  1.6292  76.407 -999.25 
  1846.000 
  82.605  7.4740  0.6180 -999.25 -0.0080  153.56  71.391  4.5527  1.6680 
  3.9251 -999.25 -999.25 -999.25  1.5230  1.4580 -999.25  79.153  7.4740 
  1.6362 -999.25 -0.0067  152.45 -999.25  1.5230  1.4580 -999.25 -999.25 
  1.4580  1.5230  1.6362  75.238 -999.25 
  1846.500 
  79.261  7.4740  0.6190 -999.25 -0.0080  151.91  71.346  4.3997  1.5012 
  3.9249 -999.25 -999.25 -999.25  1.5310  1.4740 -999.25  79.867  7.4766 
  1.6445 -999.25 -0.0047  151.40 -999.25  1.5310  1.4740 -999.25 -999.25 
  1.4740  1.5310  1.6445  75.925 -999.25 
  1847.000 
  79.097  7.4740  0.6120 -999.25 -0.0060  151.16  96.141  4.2879  1.3507 
  3.9248 -999.25 -999.25 -999.25  1.5370  1.4870 -999.25  81.860  7.4902 
  1.6479 -999.25 -0.0040  150.95 -999.25  1.5370  1.4870 -999.25 -999.25 
  1.4870  1.5370  1.6479  77.864 -999.25 
  1847.500 
  80.285  7.4780  0.6080 -999.25 -0.0040  150.86  96.133  4.2208  1.2273 
  3.9246 -999.25 -999.25 -999.25  1.5370  1.5170 -999.25  85.909  7.5198 
  1.6495 -999.25 -0.0053  150.62 -999.25  1.5370  1.5170 -999.25 -999.25 
  1.5170  1.5370  1.6495  81.816 -999.25 
  1848.000 
  82.745  7.4970  0.6070 -999.25 -0.0040  150.52  96.122  4.2249  1.1040 
  3.9245 -999.25 -999.25 -999.25  1.5360  1.5250 -999.25  90.526  7.5524 
  1.6501 -999.25 -0.0060  150.32 -999.25  1.5360  1.5250 -999.25 -999.25 
  1.5250  1.5360  1.6501  86.330 -999.25 
  1848.500 
  87.749  7.5330  0.6060 -999.25 -0.0060  150.24  96.110  4.0689  1.0200 
  3.9243 -999.25 -999.25 -999.25  1.5360  1.5360 -999.25  94.154  7.5591 
  1.6511 -999.25 -0.0048  150.03 -999.25  1.5360  1.5360 -999.25 -999.25 
  1.5360  1.5360  1.6511  89.814 -999.25 
  1849.000 
  92.197  7.5640  0.6060 -999.25 -0.0060  149.96  96.098  4.0764  0.9420 
  3.9241 -999.25 -999.25 -999.25  1.5250  1.5390 -999.25  96.385  7.5438 
  1.6548 -999.25 -0.0022  149.55 -999.25  1.5250  1.5390 -999.25 -999.25 
  1.5390  1.5250  1.6548  91.884 -999.25 
  1849.500 
  95.372  7.5560  0.6050 -999.25 -0.0040  149.42  96.086  4.1362  0.8640 
  3.9240 -999.25 -999.25 -999.25  1.5190  1.5330 -999.25  98.421  7.5384 
  1.6626 -999.25  0.0020  149.42 -999.25  1.5190  1.5330 -999.25 -999.25 
  1.5330  1.5190  1.6626  93.804 -999.25 
  1850.000 
  97.037  7.5360  0.6020 -999.25 -0.0010  149.42  96.074  4.6389  0.8216 
  3.9238 -999.25 -999.25 -999.25  1.5130  1.5190 -999.25  101.51  7.5353 
  1.6686 -999.25  0.0034  149.66 -999.25  1.5130  1.5190 -999.25 -999.25 
  1.5190  1.5130  1.6686  96.733 -999.25 
  1850.500 
  99.342  7.5400  0.5960 -999.25  0.0040  149.72  96.063  5.3328  0.7807 
  3.9237 -999.25 -999.25 -999.25  1.5100  1.5160 -999.25  105.51  7.5390 
  1.6709 -999.25  0.0001  149.95 -999.25  1.5100  1.5160 -999.25 -999.25 
  1.5160  1.5100  1.6709  100.56 -999.25 
  1851.000 
  103.00  7.5320  0.5940 -999.25  0.0030  150.01  96.051  4.4995  0.7399 
  3.9235 -999.25 -999.25 -999.25  1.5130  1.5210 -999.25  110.22  7.5803 
  1.6716 -999.25 -0.0032  150.21 -999.25  1.5130  1.5210 -999.25 -999.25 
  1.5210  1.5130  1.6716  105.23 -999.25 
  1851.500 
  107.29  7.5440  0.5930 -999.25 -0.0020  150.25  96.039  4.7117  0.6956 
  3.9234 -999.25 -999.25 -999.25  1.5300  1.5160 -999.25  113.37  7.6434 
  1.6706 -999.25 -0.0012  150.28 -999.25  1.5300  1.5160 -999.25 -999.25 
  1.5160  1.5300  1.6706  108.52 -999.25 
  1852.000 
  112.38  7.6070  0.5930 -999.25 -0.0040  150.29  96.027  4.7377  0.6471 
  3.9232 -999.25 -999.25 -999.25  1.5410  1.5290 -999.25  113.99  7.6822 
  1.6671 -999.25  0.0038  150.66 -999.25  1.5410  1.5290 -999.25 -999.25 
  1.5290  1.5410  1.6671  109.29 -999.25 
  1852.500 
  114.12  7.6710  0.5940 -999.25  0.0010  150.73  96.016  4.7411  0.6093 
  3.9231 -999.25 -999.25 -999.25  1.5460  1.5460 -999.25  112.83  7.7236 
  1.6586 -999.25  0.0088  151.53 -999.25  1.5460  1.5460 -999.25 -999.25 
  1.5460  1.5460  1.6586  108.36 -999.25 
  1853.000 
  113.88  7.6910  0.5970 -999.25  0.0060  151.66  96.004  4.4097  0.5715 
  3.9229 -999.25 -999.25 -999.25  1.5630  1.5720 -999.25  112.32  7.8453 
  1.6534 -999.25  0.0132  152.58 -999.25  1.5630  1.5720 -999.25 -999.25 
  1.5720  1.5630  1.6534  108.40 -999.25 
  1853.500 
  111.97  7.7500  0.6040 -999.25  0.0110  152.71  95.992  4.1014  0.5218 
  3.9227 -999.25 -999.25 -999.25  1.5890  1.5950 -999.25  113.42  8.1423 
  1.6543 -999.25  0.0155  153.67 -999.25  1.5890  1.5950 -999.25 -999.25 
  1.5950  1.5890  1.6543  110.77 -999.25 
  1854.000 
  112.61  7.9250  0.6040 -999.25  0.0150  153.79  95.980  3.8846  0.4721 
  3.9226 -999.25 -999.25 -999.25  1.6270  1.6180 -999.25  114.54  8.4056 
  1.6542 -999.25  0.0160  154.58 -999.25  1.6270  1.6180 -999.25 -999.25 
  1.6180  1.6270  1.6542  113.01 -999.25 
