~Version Information
VERS.                     2.0: CWLS log ASCII Standard Version 2.00
WRAP.                      NO: One line per depth step
~Well Information Block
#MNEM.UNIT                               Data Type  Information
#---------                               ---------  -----------
STRT.FT                                    90.0000:
STOP.FT                                  2000.0000:
STEP.FT                                     0.5000:
NULL.                 -999.25                     :
COMP.                                             :COMPANY            
WELL.     LL 76-30 OR MUDDY CREEK 76-30           :WELL               
FLD .                                             :FIELD              
CTRY.                                             :COUNTRY            
STAT.                                             :STATE              
LOC .                                             :LOCATION           
UWI .                                             :UNIQUE WELL ID     
SRVC.                                             :Service company    
DATE.                                             :LOG DATE           
~Curve Information
#MNEM.UNIT           API CODE  Curve Description
#---------           --------  -----------------
DEPT.FT                      :   1 DEPTH
GR  .GAPI                    :   2
CALI.IN                      :   3
DPHI.PU-S                    :   4
NPHI.PU-S                    :   5
DRHO.G/C3                    :   6
SP  .MV                      :   7
ILD .OHMM                    :   8
ILM .OHMM                    :   9
SFLU.OHMM                    :  10
DT  .US/F                    :  11
RHOB.G/C3                    :  12
ROBS.G/C3                    :  13
CALS.IN                      :  14
DRHS.G/C3                    :  15
GRS .GAPI                    :  16
NPHS.PU-S                    :  17
DTS .US/F                    :  18
SBL .MV                      :  19
RD  .OHMM                    :  20
RM  .OHMM                    :  21
RS  .OHMM                    :  22
SFLU.OHMM                    :  23
ILMC.OHMM                    :  24
ILDC.OHMM                    :  25
ROBC.G/C3                    :  26
GRC .GAPI                    :  27
NPHC.PU-S                    :  28
~A
# ...
  1710.000  99.175  7.2560  0.5220  0.4570  0.0060 -999.25  1.2110  1.1780 -999.25  148.35  1.7887  1.7805  7.2788  0.0022  99.935  0.4967  146.45 -999.25  1.2110  1.1780 -999.25 -999.25  1.1780  1.2110  1.7805  92.105  0.4666 
  1710.500  101.17  7.3160  0.5350  0.4810 -0.0040 -999.25  1.1780  1.1780 -999.25  149.64  1.7673  1.7659  7.3327 -0.0048  104.09  0.5372  149.16 -999.25  1.1780  1.1780 -999.25 -999.25  1.1780  1.1780  1.7659  96.133  0.5102 
  1711.000  108.34  7.3570  0.5370  0.5350 -0.0060 -999.25  1.1780  1.1560 -999.25  149.04  1.7640  1.7668  7.3141 -0.0034  110.07  0.5406  149.26 -999.25  1.1780  1.1560 -999.25 -999.25  1.1560  1.1780  1.7668  101.58  0.5139 
  1711.500  112.33  7.2580  0.5330  0.5430  0.0000 -999.25  1.1880  1.1350 -999.25  148.93  1.7706  1.7675  7.2305  0.0014  112.33  0.5302  148.97 -999.25  1.1880  1.1350 -999.25 -999.25  1.1350  1.1880  1.7675  103.33  0.5026 
  1712.000  112.33  7.1980  0.5370  0.5340  0.0030 -999.25  1.2210  1.1350 -999.25  149.03  1.7640  1.7615  7.1602  0.0035  111.66  0.5161  148.99 -999.25  1.2210  1.1350 -999.25 -999.25  1.1350  1.2210  1.7615  102.44  0.4874 
  1712.500  110.94  7.1200  0.5400  0.5190  0.0040 -999.25  1.2550  1.1560 -999.25  150.02  1.7590  1.7506  7.0996  0.0030  111.56  0.5146  149.63 -999.25  1.2550  1.1560 -999.25 -999.25  1.1560  1.2550  1.7506  102.10  0.4859 
  1713.000  112.15  7.0800  0.5500  0.5070  0.0020 -999.25  1.3020  1.1660 -999.25  151.02  1.7425  1.7390  7.0591  0.0009  111.19  0.5424  150.62 -999.25  1.3020  1.1660 -999.25 -999.25  1.1660  1.3020  1.7390  101.60  0.5158 
  1713.500  110.36  7.0410  0.5540  0.5400  0.0000 -999.25  1.3380  1.1770 -999.25  150.12  1.7359  1.7378  7.0190 -0.0006  102.86  0.5512  150.49 -999.25  1.3380  1.1770 -999.25 -999.25  1.1770  1.3380  1.7378  93.835  0.5253 
  1714.000  97.034  7.0020  0.5520  0.5510 -0.0010 -999.25  1.3370  1.2660 -999.25  147.22  1.7392  1.7411  6.9790 -0.0016  92.465  0.5496  148.43 -999.25  1.3370  1.2660 -999.25 -999.25  1.2660  1.3370  1.7411  84.221  0.5236 
  1714.500  89.279  6.9630  0.5500  0.5520 -0.0020 -999.25  1.3370  1.2890 -999.25  140.84  1.7425  1.7415  6.9630 -0.0032  87.201  0.5372  143.54 -999.25  1.3370  1.2890 -999.25 -999.25  1.2890  1.3370  1.7415  79.376  0.5102 
  1715.000  85.902  6.9630  0.5510  0.5400 -0.0040 -999.25  1.3250  1.2890 -999.25  138.54  1.7409  1.7377  6.9508 -0.0046  88.586  0.5233  139.53 -999.25  1.3250  1.2890 -999.25 -999.25  1.2890  1.3250  1.7377  80.597  0.4951 
  1715.500  90.087  6.9440  0.5540  0.5250 -0.0050 -999.25  1.3120  1.2540 -999.25  138.94  1.7359  1.7337  6.9447 -0.0057  95.668  0.5150  138.77 -999.25  1.3120  1.2540 -999.25 -999.25  1.2540  1.3120  1.7337  87.019  0.4862 
  1716.000  98.450  6.9450  0.5560  0.5150 -0.0060 -999.25  1.2880  1.2310 -999.25  141.23  1.7326  1.7326  6.9589 -0.0060  101.35  0.5154  140.22 -999.25  1.2880  1.2310 -999.25 -999.25  1.2310  1.2880  1.7326  92.243  0.4867 
  1716.500  102.64  6.9650  0.5560  0.5150 -0.0060 -999.25  1.2650  1.2190 -999.25  150.00  1.7326  1.7385  6.9657 -0.0067  105.22  0.5199  146.07 -999.25  1.2650  1.2190 -999.25 -999.25  1.2190  1.2650  1.7385  95.786  0.4915 
  1717.000  106.22  6.9660  0.5510  0.5180 -0.0070 -999.25  1.2410  1.1860 -999.25  151.89  1.7409  1.7445  6.9511 -0.0070  108.75  0.5344  151.03 -999.25  1.2410  1.1860 -999.25 -999.25  1.1860  1.2410  1.7445  98.945  0.5071 
  1717.500  109.61  6.9460  0.5480  0.5320 -0.0070 -999.25  1.2190  1.1640 -999.25  151.19  1.7458  1.7433  6.8850 -0.0039  113.76  0.5536  151.51 -999.25  1.2190  1.1640 -999.25 -999.25  1.1640  1.2190  1.7433  103.23  0.5278 
  1718.000  114.99  6.8670  0.5500  0.5510 -0.0030 -999.25  1.1850  1.1530 -999.25  150.19  1.7425  1.7399  6.7880 -0.0006  118.65  0.5769  150.66 -999.25  1.1850  1.1530 -999.25 -999.25  1.1530  1.1850  1.7399  107.24  0.5530 
  1718.500  119.57  6.7680  0.5520  0.5740  0.0000 -999.25  1.1640  1.1530 -999.25  148.99  1.7392  1.7338  6.7359  0.0000  119.09  0.6042  149.56 -999.25  1.1640  1.1530 -999.25 -999.25  1.1530  1.1640  1.7338  107.41  0.5824 
  1719.000  118.98  6.7290  0.5560  0.6030  0.0000 -999.25  1.1850  1.1740 -999.25  147.89  1.7326  1.7284  6.7129  0.0000  105.80  0.6137  148.42 -999.25  1.1850  1.1740 -999.25 -999.25  1.1740  1.1850  1.7284  95.340  0.5926 
  1719.500  103.47  6.7100  0.5590  0.6160  0.0000 -999.25  1.2180  1.1850 -999.25  150.18  1.7277  1.7233  6.7109 -0.0026  85.348  0.5819  149.07 -999.25  1.2180  1.1850 -999.25 -999.25  1.1850  1.2180  1.7233  76.903  0.5583 
  1720.000  82.777  6.7110  0.5620  0.5860 -0.0030 -999.25  1.2860  1.2400 -999.25  151.97  1.7227  1.7257  6.7290 -0.0066  76.860  0.5220  151.09 -999.25  1.2860  1.2400 -999.25 -999.25  1.2400  1.2860  1.7257  69.307  0.4937 
  1720.500  76.216  6.7310  0.5600  0.5240 -0.0070 -999.25  1.4360  1.3460 -999.25  150.92  1.7260  1.7566  6.7505 -0.0107  78.068  0.4861  151.45 -999.25  1.4360  1.3460 -999.25 -999.25  1.3460  1.4360  1.7566  70.457  0.4551 
  1721.000  78.212  6.7520  0.5400  0.4870 -0.0110 -999.25  1.5160  1.4220 -999.25  149.87  1.7590  1.8550  6.7711 -0.0148  84.102  0.4651  150.40 -999.25  1.5160  1.4220 -999.25 -999.25  1.4220  1.5160  1.8550  75.967  0.4325 
  1721.500  84.387  6.7720  0.4790  0.4660 -0.0150 -999.25  1.6170  1.6620 -999.25  141.30  1.8597  1.9049  6.7730 -0.0062  88.683  0.4354  145.68 -999.25  1.6170  1.6620 -999.25 -999.25  1.6620  1.6170  1.9049  80.111  0.4006 
  1722.000  88.771  6.7730  0.4510  0.4360 -0.0060 -999.25  1.6460  1.9230 -999.25  139.00  1.9059  1.9651  6.8131  0.0161  93.789  0.4039  140.19 -999.25  1.6460  1.9230 -999.25 -999.25  1.9230  1.6460  1.9651  84.861  0.3668 
  1722.500  93.752  6.8130  0.4150  0.4040  0.0160 -999.25  1.6310  1.8540 -999.25  137.20  1.9653  1.9473  6.8337  0.0259  99.848  0.3881  138.14 -999.25  1.6310  1.8540 -999.25 -999.25  1.8540  1.6310  1.9473  90.418  0.3498 
  1723.000  99.928  6.8340  0.4260  0.3880  0.0260 -999.25  1.5720  1.7070 -999.25  126.53  1.9471  1.8973  6.8535  0.0250  102.84  0.4008  132.19 -999.25  1.5720  1.7070 -999.25 -999.25  1.7070  1.5720  1.8973  93.203  0.3635 
  1723.500  102.92  6.8540  0.4570  0.4010  0.0250 -999.25  1.5290  1.5290 -999.25  113.87  1.8960  1.7675  6.8732  0.0144  106.17  0.4691  120.66 -999.25  1.5290  1.5290 -999.25 -999.25  1.5290  1.5290  1.7675  96.300  0.4369 
  1724.000  106.31  6.8740  0.5380  0.4710  0.0140 -999.25  1.5290  1.3820 -999.25  137.99  1.7623  1.7451  6.9129 -0.0002  108.01  0.5382  124.91 -999.25  1.5290  1.3820 -999.25 -999.25  1.3820  1.5290  1.7451  98.121  0.5112 
  1724.500  108.10  6.9150  0.5490  0.5410 -0.0010 -999.25  1.4870  1.3200 -999.25  145.37  1.7442  1.7442  6.9524 -0.0029  106.99  0.5685  141.32 -999.25  1.4870  1.3200 -999.25 -999.25  1.3200  1.4870  1.7442  97.351  0.5439 
  1725.000  106.92  6.9550  0.5490  0.5700 -0.0030 -999.25  1.4460  1.2720 -999.25  148.65  1.7442  1.7442  6.9744 -0.0030  103.80  0.5840  146.83 -999.25  1.4460  1.2720 -999.25 -999.25  1.2720  1.4460  1.7442  94.531  0.5606 
  1725.500  103.54  6.9760  0.5490  0.5850 -0.0030 -999.25  1.3810  1.2260 -999.25  148.35  1.7442  1.7382  6.9942 -0.0012  94.321  0.5740  148.52 -999.25  1.3810  1.2260 -999.25 -999.25  1.2260  1.3810  1.7382  85.964  0.5498 
  1726.000  93.397  6.9960  0.5530  0.5730 -0.0010 -999.25  1.2720  1.2040 -999.25  146.65  1.7376  1.7257  7.0148 -0.0019  88.587  0.5576  147.62 -999.25  1.2720  1.2040 -999.25 -999.25  1.2040  1.2720  1.7257  80.804  0.5321 
  1726.500  88.028  7.0170  0.5610  0.5560 -0.0020 -999.25  1.1930  1.1710 -999.25  145.85  1.7244  1.7127  7.0523 -0.0055  85.574  0.5363  146.31 -999.25  1.1930  1.1710 -999.25 -999.25  1.1710  1.1930  1.7127  78.172  0.5092 
  1727.000  85.248  7.0570  0.5690  0.5340 -0.0060 -999.25  1.1600  1.1390 -999.25  146.25  1.7112  1.7068  7.0579 -0.0069  89.928  0.5181  146.02 -999.25  1.1600  1.1390 -999.25 -999.25  1.1390  1.1600  1.7068  82.167  0.4896 
  1727.500  90.628  7.0580  0.5720  0.5160 -0.0070 -999.25  1.1390  1.1180 -999.25  149.74  1.7062  1.7090  7.0589 -0.0053  95.408  0.5117  147.69 -999.25  1.1390  1.1180 -999.25 -999.25  1.1180  1.1390  1.7090  87.178  0.4826 
