~Version Information
VERS.                     2.0: CWLS log ASCII Standard Version 2.00
WRAP.                     YES: Multiple lines per depth step
~Well Information Block
#MNEM.UNIT                               Data Type  Information
#---------                               ---------  -----------
STRT.FT                                   120.0000:
STOP.FT                                  3000.0000:
STEP.FT                                     0.5000:
NULL.                 -999.25                     :
COMP.                                             :COMPANY            
WELL.     LOS LOBOS 62X-30                        :WELL               
FLD .                                             :FIELD              
CTRY.                                             :COUNTRY            
STAT.                                             :STATE              
LOC .                                             :LOCATION           
UWI .                                             :UNIQUE WELL ID     
SRVC.                                             :Service company    
DATE.                                             :LOG DATE           
~Curve Information
#MNEM.UNIT           API CODE  Curve Description
#---------           --------  -----------------
DEPT.FT                      :   1 DEPTH
CALI.IN                      :   2
GR  .GAPI                    :   3
NPHI.PU-S                    :   4
DPHI.PU-S                    :   5
DRHO.G/C3                    :   6
SP  .MV                      :   7
ILD .OHMM                    :   8
ILM .OHMM                    :   9
LL8U.OHMM                    :  10
DT  .US/F                    :  11
ROP .                        :  12
GASR.                        :  13
C1R .                        :  14
C2R .                        :  15
C3R .                        :  16
C4R .                        :  17
KSCI.                        :  18
PSCI.                        :  19
OSCI.                        :  20
WSCI.                        :  21
KWCI.                        :  22
PWCI.                        :  23
OWCI.                        :  24
WWCI.                        :  25
ROBS.G/C3                    :  26
NPHS.PU-S                    :  27
PWCL.                        :  28
OWCL.                        :  29
WWCL.                        :  30
KWCL.                        :  31
VCLD.                        :  32
VCLW.                        :  33
VSHL.                        :  34
PHIE.                        :  35
PHIT.                        :  36
SWE .                        :  37
SWT .                        :  38
SWTU.                        :  39
RMAT.                        :  40
BVWE.                        :  41
RHOB.G/C3                    :  42
CALS.IN                      :  43
DTS .US/F                    :  44
SBL .MV                      :  45
RD  .OHMM                    :  46
RM  .OHMM                    :  47
RS  .OHMM                    :  48
DPHI.                        :  49
GRC .GAPI                    :  50
NPHC.PU-S                    :  51
LL8C.OHMM                    :  52
ILDC.OHMM                    :  53
ILMC.OHMM                    :  54
ROBC.G/C3                    :  55
~A
# ...
   804.000 
  9.9830  68.224  0.3820  0.2340  0.0030 -42.173  8.8300  9.2070  7.4270 
  236.97  128.29  0.3420  2.9880 -999.25 -999.25 -999.25 -999.25 -999.25 
 -999.25 -999.25 -999.25 -999.25 -999.25 -999.25  2.1319  0.4440 -999.25 
 -999.25 -999.25 -999.25 -999.25 -999.25 -999.25 -999.25 -999.25 -999.25 
 -999.25 -999.25 -999.25 -999.25  2.2639  9.9120  250.40 -10.173  8.8300 
  9.2070  7.4270  0.2340  79.897  0.4190  7.4270  8.8064  9.4235  2.1387 
   804.500 
  9.9710  68.540  0.3750  0.2300  0.0180 -41.830  8.9580  9.6170  7.8720 
  227.18  128.29  0.3480  2.9890 -999.25 -999.25 -999.25 -999.25 -999.25 
 -999.25 -999.25 -999.25 -999.25 -999.25 -999.25  2.1913  0.4300 -999.25 
 -999.25 -999.25 -999.25 -999.25 -999.25 -999.25 -999.25 -999.25 -999.25 
 -999.25 -999.25 -999.25 -999.25  2.2705  9.9470  236.97 -9.8300  8.9580 
  9.6170  7.8720  0.2300  76.749  0.4037  7.8720  8.9342  9.8591  2.1983 
   805.000 
  9.9440  68.856  0.3730  0.2560  0.0250 -41.408  8.9740  9.7580  7.8860 
  213.49  128.06  0.3470  2.9900 -999.25 -999.25 -999.25 -999.25 -999.25 
 -999.25 -999.25 -999.25 -999.25 -999.25 -999.25  2.2260  0.4040 -999.25 
 -999.25 -999.25 -999.25 -999.25 -999.25 -999.25 -999.25 -999.25 -999.25 
 -999.25 -999.25 -999.25 -999.25  2.2276  9.9750  227.18 -9.4080  8.9740 
  9.7580  7.8860  0.2560  74.917  0.3752  7.8860  8.9504  10.012  2.2332 
   805.500 
  9.9160  68.621  0.3850  0.2970  0.0210 -40.789  8.9560  9.2210  7.5200 
  215.04  122.10  0.3640  3.0950 -999.25 -999.25 -999.25 -999.25 -999.25 
 -999.25 -999.25 -999.25 -999.25 -999.25 -999.25  2.2639  0.3820 -999.25 
 -999.25 -999.25 -999.25 -999.25 -999.25 -999.25 -999.25 -999.25 -999.25 
 -999.25 -999.25 -999.25 -999.25  2.1600  9.9830  213.49 -8.7890  8.9560 
  9.2210  7.5200  0.2970  74.695  0.3511  7.5200  8.9326  9.4486  2.2712 
   806.000 
  9.9040  65.546  0.3960  0.3230  0.0060 -40.367  8.9390  8.9070  7.5060 
  226.65  122.11  0.3670  3.0960 -999.25 -999.25 -999.25 -999.25 -999.25 
 -999.25 -999.25 -999.25 -999.25 -999.25 -999.25  2.2705  0.3750 -999.25 
 -999.25 -999.25 -999.25 -999.25 -999.25 -999.25 -999.25 -999.25 -999.25 
 -999.25 -999.25 -999.25 -999.25  2.1171  9.9710  215.04 -8.3670  8.9390 
  8.9070  7.5060  0.3230  75.017  0.3434  7.5060  8.9155  9.1175  2.2777 
   806.500 
  9.8810  62.471  0.4140  0.3340 -0.0060 -39.986  8.9230  8.8250  8.0870 
  238.50  122.11  0.3690  3.0980 -999.25 -999.25 -999.25 -999.25 -999.25 
 -999.25 -999.25 -999.25 -999.25 -999.25 -999.25  2.2276  0.3730 -999.25 
 -999.25 -999.25 -999.25 -999.25 -999.25 -999.25 -999.25 -999.25 -999.25 
 -999.25 -999.25 -999.25 -999.25  2.0989  9.9440  226.65 -7.9860  8.9230 
  8.8250  8.0870  0.3340  75.259  0.3412  8.0870  8.8993  9.0280  2.2346 
   807.000 
  9.8730  61.289  0.4350  0.3370 -0.0100 -39.723  8.9220  8.8720  8.0420 
  250.35  121.88  0.3630  3.0990 -999.25 -999.25 -999.25 -999.25 -999.25 
 -999.25 -999.25 -999.25 -999.25 -999.25 -999.25  2.1600  0.3850 -999.25 
 -999.25 -999.25 -999.25 -999.25 -999.25 -999.25 -999.25 -999.25 -999.25 
 -999.25 -999.25 -999.25 -999.25  2.0940  9.9160  238.50 -7.7230  8.9220 
  8.8720  8.0420  0.3370  74.659  0.3544  8.0420  8.8980  9.0734  2.1668 
   807.500 
  9.8770  60.816  0.4490  0.3350 -0.0110 -39.499  8.9210  8.9370  7.8820 
  253.82  121.64  0.3440  3.1000 -999.25 -999.25 -999.25 -999.25 -999.25 
 -999.25 -999.25 -999.25 -999.25 -999.25 -999.25  2.1171  0.3960 -999.25 
 -999.25 -999.25 -999.25 -999.25 -999.25 -999.25 -999.25 -999.25 -999.25 
 -999.25 -999.25 -999.25 -999.25  2.0972  9.9040  250.35 -7.4990  8.9210 
  8.9370  7.8820  0.3350  71.213  0.3664  7.8820  8.8969  9.1398  2.1238 
   808.000 
  9.8690  58.214  0.4320  0.3340 -0.0060 -39.394  8.9040  9.2170  7.9680 
  257.22  121.65  0.3430  3.1020 -999.25 -999.25 -999.25 -999.25 -999.25 
 -999.25 -999.25 -999.25 -999.25 -999.25 -999.25  2.0989  0.4140 -999.25 
 -999.25 -999.25 -999.25 -999.25 -999.25 -999.25 -999.25 -999.25 -999.25 
 -999.25 -999.25 -999.25 -999.25  2.0989  9.8810  253.82 -7.3940  8.9040 
  9.2170  7.9680  0.3340  67.995  0.3861  7.9680  8.8797  9.4294  2.1055 
   808.500 
  9.8650  55.218  0.4040  0.3260  0.0010 -39.209  8.8380  9.6110  8.2170 
  253.32  121.18  0.3430  3.1030 -999.25 -999.25 -999.25 -999.25 -999.25 
 -999.25 -999.25 -999.25 -999.25 -999.25 -999.25  2.0940  0.4350 -999.25 
 -999.25 -999.25 -999.25 -999.25 -999.25 -999.25 -999.25 -999.25 -999.25 
 -999.25 -999.25 -999.25 -999.25  2.1121  9.8730  257.22 -7.2090  8.8380 
  9.6110  8.2170  0.3260  66.773  0.4091  8.2170  8.8140  9.8409  2.1004 
   809.000 
  9.8650  54.509  0.3980  0.3220  0.0030 -39.103  8.8540  9.8760  8.3370 
  251.08  120.71  0.3360  3.1040 -999.25 -999.25 -999.25 -999.25 -999.25 
 -999.25 -999.25 -999.25 -999.25 -999.25 -999.25  2.0972  0.4490 -999.25 
 -999.25 -999.25 -999.25 -999.25 -999.25 -999.25 -999.25 -999.25 -999.25 
 -999.25 -999.25 -999.25 -999.25  2.1187  9.8770  253.32 -7.1030  8.8540 
  9.8760  8.3370  0.3220  65.895  0.4245  8.3370  8.8299  10.120  2.1038 
   809.500 
  9.8650  57.192  0.3980  0.3210  0.0050 -38.997  8.9010  10.002  8.2460 
  242.61  120.71  0.3230  3.1060 -999.25 -999.25 -999.25 -999.25 -999.25 
 -999.25 -999.25 -999.25 -999.25 -999.25 -999.25  2.0989  0.4320 -999.25 
 -999.25 -999.25 -999.25 -999.25 -999.25 -999.25 -999.25 -999.25 -999.25 
 -999.25 -999.25 -999.25 -999.25  2.1204  9.8690  251.08 -6.9970  8.9010 
  10.002  8.2460  0.3210  62.916  0.4059  8.2460  8.8766  10.251  2.1054 
   810.000 
  9.8770  60.426  0.4040  0.3260  0.0000 -39.011  8.9820  9.7320  8.4890 
  241.58  120.24  0.3230  3.1070 -999.25 -999.25 -999.25 -999.25 -999.25 
 -999.25 -999.25 -999.25 -999.25 -999.25 -999.25  2.1121  0.4040 -999.25 
 -999.25 -999.25 -999.25 -999.25 -999.25 -999.25 -999.25 -999.25 -999.25 
 -999.25 -999.25 -999.25 -999.25  2.1121  9.8650  242.61 -7.0110  8.9820 
  9.7320  8.4890  0.3260  60.059  0.3752  8.4890  8.9571  9.9665  2.1185 
   810.500 
  9.8810  61.767  0.4030  0.3290 -0.0050 -39.024  9.0630  9.8190  8.7390 
  242.25  112.13  0.3220  3.0630 -999.25 -999.25 -999.25 -999.25 -999.25 
 -999.25 -999.25 -999.25 -999.25 -999.25 -999.25  2.1187  0.3980 -999.25 
 -999.25 -999.25 -999.25 -999.25 -999.25 -999.25 -999.25 -999.25 -999.25 
 -999.25 -999.25 -999.25 -999.25  2.1072  9.8650  241.58 -7.0240  9.0630 
  9.8190  8.7390  0.3290  60.043  0.3686  8.7390  9.0376  10.058  2.1251 
   811.000 
  9.8810  62.793  0.4030  0.3200 -0.0030 -39.037  9.2290  9.8900  8.8030 
  242.43  107.12  0.3150  3.0490 -999.25 -999.25 -999.25 -999.25 -999.25 
 -999.25 -999.25 -999.25 -999.25 -999.25 -999.25  2.1204  0.3980 -999.25 
 -999.25 -999.25 -999.25 -999.25 -999.25 -999.25 -999.25 -999.25 -999.25 
 -999.25 -999.25 -999.25 -999.25  2.1220  9.8650  242.25 -7.0370  9.2290 
  9.8900  8.8030  0.3200  63.154  0.3686  8.8030  9.2027  10.132  2.1268 
   811.500 
  9.8730  64.845  0.4110  0.3150 -0.0010 -39.167  9.3290  9.9430  8.6110 
  241.58  107.36  0.3090  3.0440 -999.25 -999.25 -999.25 -999.25 -999.25 
 -999.25 -999.25 -999.25 -999.25 -999.25 -999.25  2.1121  0.4040 -999.25 
 -999.25 -999.25 -999.25 -999.25 -999.25 -999.25 -999.25 -999.25 -999.25 
 -999.25 -999.25 -999.25 -999.25  2.1303  9.8770  242.43 -7.1670  9.3290 
  9.9430  8.6110  0.3150  66.267  0.3752  8.6110  9.3023  10.190  2.1186 
   812.000 
  9.8730  66.028  0.4230  0.3120  0.0010 -39.298  9.3970  9.9610  8.3630 
  240.65  107.37  0.2960  3.0340 -999.25 -999.25 -999.25 -999.25 -999.25 
 -999.25 -999.25 -999.25 -999.25 -999.25 -999.25  2.1072  0.4030 -999.25 
 -999.25 -999.25 -999.25 -999.25 -999.25 -999.25 -999.25 -999.25 -999.25 
 -999.25 -999.25 -999.25 -999.25  2.1352  9.8810  241.58 -7.2980  9.3970 
  9.9610  8.3630  0.3120  67.675  0.3741  8.3630  9.3699  10.210  2.1137 
   812.500 
  9.8730  67.133  0.4300  0.3110  0.0020 -39.430  9.4140  9.9240  8.1220 
  239.91  107.37  0.2920  3.0530 -999.25 -999.25 -999.25 -999.25 -999.25 
 -999.25 -999.25 -999.25 -999.25 -999.25 -999.25  2.1220  0.4030 -999.25 
 -999.25 -999.25 -999.25 -999.25 -999.25 -999.25 -999.25 -999.25 -999.25 
 -999.25 -999.25 -999.25 -999.25  2.1369  9.8810  240.65 -7.4300  9.4140 
  9.9240  8.1220  0.3110  69.125  0.3741  8.1220  9.3868  10.171  2.1286 
