~Version Information
VERS.                     2.0: CWLS log ASCII Standard Version 2.00
WRAP.                     YES: Multiple lines per depth step
~Well Information Block
#MNEM.UNIT                               Data Type  Information
#---------                               ---------  -----------
STRT.FT                                   120.0000:
STOP.FT                                  3000.0000:
STEP.FT                                     0.5000:
NULL.                 -999.25                     :
COMP.                                             :COMPANY            
WELL.     LOS LOBOS 62X-30                        :WELL               
FLD .                                             :FIELD              
CTRY.                                             :COUNTRY            
STAT.                                             :STATE              
LOC .                                             :LOCATION           
UWI .                                             :UNIQUE WELL ID     
SRVC.                                             :Service company    
DATE.                                             :LOG DATE           
~Curve Information
#MNEM.UNIT           API CODE  Curve Description
#---------           --------  -----------------
DEPT.FT                      :   1 DEPTH
CALI.IN                      :   2
GR  .GAPI                    :   3
NPHI.PU-S                    :   4
DPHI.PU-S                    :   5
DRHO.G/C3                    :   6
SP  .MV                      :   7
ILD .OHMM                    :   8
ILM .OHMM                    :   9
LL8U.OHMM                    :  10
DT  .US/F                    :  11
ROP .                        :  12
GASR.                        :  13
C1R .                        :  14
C2R .                        :  15
C3R .                        :  16
C4R .                        :  17
KSCI.                        :  18
PSCI.                        :  19
OSCI.                        :  20
WSCI.                        :  21
KWCI.                        :  22
PWCI.                        :  23
OWCI.                        :  24
WWCI.                        :  25
ROBS.G/C3                    :  26
NPHS.PU-S                    :  27
PWCL.                        :  28
OWCL.                        :  29
WWCL.                        :  30
KWCL.                        :  31
VCLD.                        :  32
VCLW.                        :  33
VSHL.                        :  34
PHIE.                        :  35
PHIT.                        :  36
SWE .                        :  37
SWT .                        :  38
SWTU.                        :  39
RMAT.                        :  40
BVWE.                        :  41
RHOB.G/C3                    :  42
CALS.IN                      :  43
DTS .US/F                    :  44
SBL .MV                      :  45
RD  .OHMM                    :  46
RM  .OHMM                    :  47
RS  .OHMM                    :  48
DPHI.                        :  49
GRC .GAPI                    :  50
NPHC.PU-S                    :  51
LL8C.OHMM                    :  52
ILDC.OHMM                    :  53
ILMC.OHMM                    :  54
ROBC.G/C3                    :  55
~A
# ...
  1812.000 
  10.001  80.722  0.4890  0.4930  0.0080 -49.866  3.9620  3.9050  3.9190 
  127.66  142.21  8.5410  9.0480  2.5030  0.1400 -999.25 -999.25 -999.25 
 -999.25 -999.25 -999.25 -999.25 -999.25 -999.25  1.8597  0.4960 -999.25 
 -999.25 -999.25 -999.25  0.1295  0.2326  0.7009  0.2991  0.4022  0.6104 
  0.7103  0.7103  2.4219  0.1826  1.8366  9.9890  125.31 -17.866  3.9620 
  3.9050  3.9190  0.4930  87.790  0.4760  3.9190  3.9574  3.9454  1.8670 
  1812.500 
  10.020  80.326  0.5130  0.5090 -0.0010 -50.138  3.9770  3.9200  4.0720 
  123.36  142.72  8.4690  9.0530  2.5170  0.1390 -999.25 -999.25 -999.25 
 -999.25 -999.25 -999.25 -999.25 -999.25 -999.25  1.8366  0.4890 -999.25 
 -999.25 -999.25 -999.25  0.1278  0.2294  0.6922  0.3078  0.4095  0.5953 
  0.6957  0.6957  2.4176  0.1832  1.8102  10.001  127.68 -18.138  3.9770 
  3.9200  4.0720  0.5090  87.304  0.4684  4.0720  3.9724  3.9610  1.8439 
  1813.000 
  10.051  78.986  0.5270  0.5130 -0.0070 -50.489  3.9850  3.8780  4.0650 
  131.16  142.75  8.2830  9.0620  2.5310  0.1390 -999.25 -999.25 -999.25 
 -999.25 -999.25 -999.25 -999.25 -999.25 -999.25  1.8102  0.5130 -999.25 
 -999.25 -999.25 -999.25  0.1298  0.2329  0.6821  0.3179  0.4210  0.5773 
  0.6808  0.6808  2.4108  0.1835  1.8036  10.020  134.61 -18.489  3.9850 
  3.8780  4.0650  0.5130  88.473  0.4947  4.0650  3.9804  3.9186  1.8177 
  1813.500 
  10.075  77.804  0.5160  0.5060 -0.0080 -50.997  3.9710  3.8150  3.7940 
  137.32  142.30  8.1390  9.0470  2.5450  0.1340 -999.25 -999.25 -999.25 
 -999.25 -999.25 -999.25 -999.25 -999.25 -999.25  1.8036  0.5270 -999.25 
 -999.25 -999.25 -999.25  0.1259  0.2257  0.6697  0.3303  0.4302  0.5680 
  0.6683  0.6683  2.4044  0.1876  1.8151  10.051  130.10 -18.997  3.9710 
  3.8150  3.7940  0.5060  88.130  0.5101  3.7940  3.9665  3.8551  1.8113 
  1814.000 
  10.086  77.250  0.4760  0.4910 -0.0020 -51.112  3.9490  3.7880  3.6000 
  124.61  141.72  7.9890  9.0130  2.5500 -999.25 -999.25 -999.25 -999.25 
 -999.25 -999.25 -999.25 -999.25 -999.25 -999.25  1.8151  0.5160 -999.25 
 -999.25 -999.25 -999.25  0.1118  0.2005  0.6640  0.3360  0.4247  0.5825 
  0.6697  0.6697  2.4044  0.1957  1.8399  10.075  121.84 -19.112  3.9490 
  3.7880  3.6000  0.4910  86.729  0.4980  3.6000  3.9446  3.8281  1.8230 
  1814.500 
  10.094  77.952  0.4730  0.4840  0.0020 -50.595  3.9350  3.8090  4.1030 
  119.79  141.14  7.8390  8.9440  2.4960 -999.25 -999.25 -999.25 -999.25 
 -999.25 -999.25 -999.25 -999.25 -999.25 -999.25  1.8399  0.4760 -999.25 
 -999.25 -999.25 -999.25  0.1048  0.1881  0.6201  0.3276  0.4109  0.6028 
  0.6833  0.6833  2.4117  0.1975  1.8514  10.086  118.77 -18.595  3.9350 
  3.8090  4.1030  0.4840  85.462  0.4542  4.1030  3.9307  3.8498  1.8478 
  1815.000 
  10.098  78.578  0.4950  0.4810  0.0070 -50.197  3.9500  3.9430  4.6180 
  118.04  130.21  7.7670  8.9480  2.2480 -999.25 -999.25  1.8000  40.800 
  2.8000  70.400 -999.25 -999.25 -999.25 -999.25  1.8514  0.4730 -999.25 
 -999.25 -999.25 -999.25  0.1135  0.2038  0.6861  0.3139  0.4042  0.5890 
  0.6808  0.6808  2.4181  0.1849  1.8564  10.094  119.01 -18.197  3.9500 
  3.9430  4.6180  0.4810  84.876  0.4509  4.6180  3.9457  3.9869  1.8594 
  1815.500 
  10.086  78.181  0.5210  0.4840  0.0100 -49.917  4.0080  4.1420  4.5440 
  119.68  121.18  7.6470  8.9530  2.2520 -999.25 -999.25 -999.25 -999.25 
 -999.25 -999.25 -999.25 -999.25 -999.25 -999.25  1.8564  0.4950 -999.25 
 -999.25 -999.25 -999.25  0.1334  0.2395  0.6962  0.3038  0.4099  0.5375 
  0.6572  0.6572  2.4174  0.1633  1.8514  10.098  132.58 -17.917  4.0080 
  4.1420  4.5440  0.4840  85.659  0.4750  4.5440  4.0036  4.1906  1.8644 
  1816.000 
  10.101  74.721  0.5310  0.4940  0.0050 -50.110  4.2100  4.3270  4.2490 
  141.26  121.44  7.5510  8.9570  2.2610 -999.25 -999.25 -999.25 -999.25 
 -999.25 -999.25 -999.25 -999.25 -999.25 -999.25  1.8514  0.5210 -999.25 
 -999.25 -999.25 -999.25  0.1417  0.2543  0.6927  0.3073  0.4199  0.5037 
  0.6368  0.6368  2.4120  0.1548  1.8349  10.086  143.40 -18.110  4.2100 
  4.3270  4.2490  0.4940  86.312  0.5035  4.2490  4.2051  4.3797  1.8594 
  1816.500 
  10.431  70.712  0.5220  0.5030 -0.0010 -50.540  4.3590  4.3820  4.6870 
  144.80  121.47  7.4060  8.9570  2.2610 -999.25 -999.25 -999.25 -999.25 
 -999.25 -999.25 -999.25 -999.25 -999.25 -999.25  1.8349  0.5310 -999.25 
 -999.25 -999.25 -999.25  0.1184  0.2125  0.6680  0.3320  0.4261  0.5303 
  0.6340  0.6340  2.4067  0.1761  1.8201  10.101  145.37 -18.540  4.3590 
  4.3820  4.6870  0.5030  85.919  0.5145  4.6870  4.3538  4.4366  1.8430 
  1817.000 
  11.377  68.195  0.5080  0.5120 -0.0010 -51.088  4.4710  4.4070  4.8610 
  145.73  121.02  7.3160  8.9610  2.2610 -999.25 -999.25 -999.25 -999.25 
 -999.25 -999.25 -999.25 -999.25 -999.25 -999.25  1.8201  0.5220 -999.25 
 -999.25 -999.25 -999.25  0.1021  0.1831  0.6523  0.3477  0.4287  0.5434 
  0.6297  0.6297  2.4032  0.1889  1.8052  10.431  146.23 -19.088  4.4710 
  4.4070  4.8610  0.5120  83.002  0.5047  4.8610  4.4665  4.4731  1.8304 
  1817.500 
  11.738  67.562  0.4930  0.5130 -0.0020 -51.479  4.5370  4.4470  4.6040 
  146.54  120.80  7.2140  8.9610  2.2680 -999.25 -999.25 -999.25 -999.25 
 -999.25 -999.25 -999.25 -999.25 -999.25 -999.25  1.8052  0.5080 -999.25 
 -999.25 -999.25 -999.25  0.0910  0.1632  0.6454  0.3546  0.4268  0.5545 
  0.6299  0.6299  2.4023  0.1966  1.8036  11.377  147.66 -19.479  4.5370 
  4.4470  4.6040  0.5130  80.857  0.4897  4.6040  4.5351  4.5463  1.8216 
  1818.000 
  11.530  68.501  0.4860  0.5050 -0.0050 -51.632  4.5870  4.4480  4.3520 
  148.33  120.82  7.1120  8.9650  2.2750 -999.25 -999.25 -999.25 -999.25 
 -999.25 -999.25 -999.25 -999.25 -999.25 -999.25  1.8036  0.4930 -999.25 
 -999.25 -999.25 -999.25  0.0919  0.1648  0.6522  0.3478  0.4207  0.5500 
  0.6280  0.6280  2.4052  0.1913  1.8168  11.738  149.47 -19.632  4.5870 
  4.4480  4.3520  0.5050  78.793  0.4733  4.3520  4.5862  4.5596  1.8221 
  1818.500 
  10.572  70.382  0.5140  0.5010 -0.0080 -51.352  4.6470  4.4810  4.9610 
  150.12  120.61  7.0160  8.9700  2.2840 -999.25 -999.25 -999.25 -999.25 
 -999.25 -999.25 -999.25 -999.25 -999.25 -999.25  1.8168  0.4860 -999.25 
 -999.25 -999.25 -999.25  0.1000  0.1794  0.6614  0.3386  0.4180  0.5372 
  0.6251  0.6251  2.4081  0.1819  1.8234  11.530  153.19 -19.352  4.6470 
  4.4810  4.9610  0.5010  77.599  0.4656  4.9610  4.6455  4.5871  1.8341 
  1819.000 
  10.171  73.834  0.5260  0.4980 -0.0090 -50.678  4.7150  4.5550  5.1360 
  154.90  120.63  6.9320  8.9690  2.2860 -999.25 -999.25 -999.25 -999.25 
 -999.25 -999.25 -999.25 -999.25 -999.25 -999.25  1.8234  0.5140 -999.25 
 -999.25 -999.25 -999.25  0.1157  0.2075  0.6693  0.3307  0.4226  0.4997 
  0.6085  0.6085  2.4083  0.1653  1.8283  10.572  157.92 -18.678  4.7150 
  4.5550  5.1360  0.4980  76.435  0.4960  5.1360  4.7104  4.6306  1.8346 
  1819.500 
  10.100  78.857  0.4680  0.4880 -0.0030 -49.885  4.7670  4.6310  5.1360 
  159.55  120.42  6.8960  8.9490  2.2880 -999.25 -999.25 -999.25 -999.25 
 -999.25 -999.25 -999.25 -999.25 -999.25 -999.25  1.8283  0.5260 -999.25 
 -999.25 -999.25 -999.25  0.1267  0.2273  0.6793  0.3207  0.4213  0.4870 
  0.6096  0.6096  2.4100  0.1562  1.8448  10.171  163.35 -17.885  4.7670 
  4.6310  5.1360  0.4880  77.526  0.5090  5.1360  4.7610  4.6945  1.8369 
  1820.000 
  10.198  87.335  0.4520  0.4790  0.0080 -49.093  4.7420  4.6480  5.3070 
  165.33  120.44  6.8660  8.7550  2.2920 -999.25 -999.25 -999.25 -999.25 
 -999.25 -999.25 -999.25 -999.25 -999.25 -999.25  1.8448  0.4680 -999.25 
 -999.25 -999.25 -999.25  0.1128  0.2024  0.6808  0.3192  0.4088  0.5286 
  0.6319  0.6319  2.4135  0.1687  1.8597  10.100  167.93 -17.093  4.7420 
  4.6480  5.3070  0.4790  81.139  0.4454  5.3070  4.7358  4.7094  1.8529 
  1820.500 
  10.268  95.719  0.4470  0.4750  0.0140 -48.369  4.7240  4.5730  5.4140 
  169.24  133.70  6.8300  8.7400  2.2920 -999.25 -999.25 -999.25 -999.25 
 -999.25 -999.25 -999.25 -999.25 -999.25 -999.25  1.8597  0.4520 -999.25 
 -999.25 -999.25 -999.25  0.1288  0.2313  0.5168  0.2916  0.3941  0.5303 
  0.6524  0.6524  2.4208  0.1546  1.8663  10.198  165.26 -16.369  4.7240 
  4.5730  5.4140  0.4750  86.939  0.4279  5.4140  4.7182  4.6359  1.8684 
