~Version Information
VERS.                     2.0: CWLS log ASCII Standard Version 2.00
WRAP.                     YES: Multiple lines per depth step
~Well Information Block
#MNEM.UNIT                               Data Type  Information
#---------                               ---------  -----------
STRT.FT                                   120.0000:
STOP.FT                                  3000.0000:
STEP.FT                                     0.5000:
NULL.                 -999.25                     :
COMP.                                             :COMPANY            
WELL.     LOS LOBOS 62X-30                        :WELL               
FLD .                                             :FIELD              
CTRY.                                             :COUNTRY            
STAT.                                             :STATE              
LOC .                                             :LOCATION           
UWI .                                             :UNIQUE WELL ID     
SRVC.                                             :Service company    
DATE.                                             :LOG DATE           
~Curve Information
#MNEM.UNIT           API CODE  Curve Description
#---------           --------  -----------------
DEPT.FT                      :   1 DEPTH
CALI.IN                      :   2
GR  .GAPI                    :   3
NPHI.PU-S                    :   4
DPHI.PU-S                    :   5
DRHO.G/C3                    :   6
SP  .MV                      :   7
ILD .OHMM                    :   8
ILM .OHMM                    :   9
LL8U.OHMM                    :  10
DT  .US/F                    :  11
ROP .                        :  12
GASR.                        :  13
C1R .                        :  14
C2R .                        :  15
C3R .                        :  16
C4R .                        :  17
KSCI.                        :  18
PSCI.                        :  19
OSCI.                        :  20
WSCI.                        :  21
KWCI.                        :  22
PWCI.                        :  23
OWCI.                        :  24
WWCI.                        :  25
ROBS.G/C3                    :  26
NPHS.PU-S                    :  27
PWCL.                        :  28
OWCL.                        :  29
WWCL.                        :  30
KWCL.                        :  31
VCLD.                        :  32
VCLW.                        :  33
VSHL.                        :  34
PHIE.                        :  35
PHIT.                        :  36
SWE .                        :  37
SWT .                        :  38
SWTU.                        :  39
RMAT.                        :  40
BVWE.                        :  41
RHOB.G/C3                    :  42
CALS.IN                      :  43
DTS .US/F                    :  44
SBL .MV                      :  45
RD  .OHMM                    :  46
RM  .OHMM                    :  47
RS  .OHMM                    :  48
DPHI.                        :  49
GRC .GAPI                    :  50
NPHC.PU-S                    :  51
LL8C.OHMM                    :  52
ILDC.OHMM                    :  53
ILMC.OHMM                    :  54
ROBC.G/C3                    :  55
~A
# ...
  2145.000 
  10.104  106.68  0.5160  0.5170 -0.0060 -44.263  2.4540  2.4400  2.4230 
  115.04  77.868  4.8510  7.1750  0.9830 -999.25 -999.25 -999.25 -999.25 
 -999.25 -999.25 -999.25 -999.25 -999.25 -999.25  1.8031  0.4985 -999.25 
 -999.25 -999.25 -999.25  0.1208  0.2166  0.6648  0.3352  0.4310  0.7538 
  0.8085  0.8085  2.4030  0.2527  1.7970  10.088  118.16 -12.263  2.4540 
  2.4400  2.4230  0.5170  115.33  0.4788  2.4230  2.4523  2.4567  1.8111 
  2145.500 
  10.116  112.04  0.5120  0.5140 -0.0080 -43.625  2.3460  2.3170  2.3120 
  117.68  76.455  4.9650  7.1790  1.4100 -999.25 -999.25 -999.25 -999.25 
 -999.25 -999.25 -999.25 -999.25 -999.25 -999.25  1.7984  0.5126 -999.25 
 -999.25 -999.25 -999.25  0.1460  0.2618  0.6817  0.3183  0.4341  0.7400 
  0.8093  0.8093  2.4010  0.2355  1.8019  10.099  120.18 -11.625  2.3460 
  2.3170  2.3120  0.5140  120.65  0.4942  2.3120  2.3445  2.3322  1.8065 
  2146.000 
  10.108  118.97  0.5330  0.5010 -0.0020 -43.224  2.2640  2.2480  2.2230 
  119.46  69.799  5.0180  7.5090  1.5120 -999.25 -999.25 -999.25 -999.25 
 -999.25 -999.25 -999.25 -999.25 -999.25 -999.25  1.7998  0.5137 -999.25 
 -999.25 -999.25 -999.25  0.1804  0.3234  0.7060  0.2940  0.4370  0.7208 
  0.8122  0.8122  2.3997  0.2119  1.8234  10.111  122.97 -11.224  2.2640 
  2.2480  2.2230  0.5010  127.67  0.4955  2.2230  2.2626  2.2624  1.8079 
  2146.500 
  10.096  123.38  0.5640  0.4920  0.0050 -42.783  2.1810  2.1730  2.1850 
  121.99  68.391  4.9880  7.5040  1.5160 -999.25 -999.25 -999.25 -999.25 
 -999.25 -999.25 -999.25 -999.25 -999.25 -999.25  1.8143  0.5241 -999.25 
 -999.25 -999.25 -999.25  0.2271  0.4072  0.7396  0.2604  0.4405  0.6773 
  0.8092  0.8092  2.4012  0.1764  1.8382  10.111  126.41 -10.783  2.1810 
  2.1730  2.1850  0.4920  133.70  0.5069  2.1850  2.1797  2.1864  1.8224 
  2147.000 
  10.088  134.17  0.6250  0.4890  0.0120 -42.460  2.1280  2.1160  2.0700 
  125.30  68.405  4.9280  7.5030  1.5160 -999.25 -999.25 -999.25 -999.25 
 -999.25 -999.25 -999.25 -999.25 -999.25 -999.25  1.8319  0.5509 -999.25 
 -999.25 -999.25 -999.25  0.3111  0.5579  0.8060  0.1940  0.4408  0.5758 
  0.8133  0.8133  2.4051  0.1117  1.8432  10.101  130.02 -10.460  2.1280 
  2.1160  2.0700  0.4890  142.84  0.5363  2.0700  2.1268  2.1286  1.8400 
  2147.500 
  10.084  139.92  0.6140  0.4900  0.0100 -42.019  2.0610  2.0640  2.0310 
  128.89  68.420  4.7530  7.5030  1.5155 -999.25 -999.25 -999.25 -999.25 
 -999.25 -999.25 -999.25 -999.25 -999.25 -999.25  1.8411  0.5995 -999.25 
 -999.25 -999.25 -999.25  0.4078  0.7318  0.8851  0.1149  0.4389  0.2558 
  0.8052  0.8052  2.4118  0.0294  1.8415  10.091  133.45 -10.019  2.0610 
  2.0640  2.0310  0.4900  151.33  0.5896  2.0310  2.0598  2.0760  1.8491 
  2148.000 
  10.079  141.57  0.5880  0.4890  0.0060 -41.854  2.0030  2.0250  1.9960 
  132.40  68.200  4.2250  7.5030  1.5150 -999.25 -999.25 -999.25 -999.25 
 -999.25 -999.25 -999.25 -999.25 -999.25 -999.25  1.8422  0.6186 -999.25 
 -999.25 -999.25 -999.25  0.4689  0.8417  0.9336  0.0664  0.4392  0.1505 
  0.8715  0.8013  2.4147  0.0100  1.8432  10.086  136.53 -9.8540  2.0030 
  2.0250  1.9960  0.4890  154.84  0.6105  1.9960  2.0019  2.0365  1.8502 
  2148.500 
  10.079  137.55  0.5750  0.4830  0.0050 -41.964  1.9610  1.9900  1.9790 
  135.55  68.211  3.6730  7.5070  1.5150 -999.25 -999.25 -999.25 -999.25 
 -999.25 -999.25 -999.25 -999.25 -999.25 -999.25  1.8425  0.5987 -999.25 
 -999.25 -999.25 -999.25  0.4998  0.7140  1.0000  0.0000  0.2142  1.0000 
  1.0000 -999.25  2.4153  0.0000  1.8531  10.081  138.66 -9.9640  1.9610 
  1.9900  1.9790  0.4830  152.65  0.5887  1.9790  1.9599  2.0010  1.8504 
  2149.000 
  10.079  133.05  0.5800  0.4800  0.0130 -42.743  1.9240  1.9730  1.9660 
  138.39  68.223  3.1560  7.5160  1.5140 -999.25 -999.25 -999.25 -999.25 
 -999.25 -999.25 -999.25 -999.25 -999.25 -999.25  1.8490  0.5803 -999.25 
 -999.25 -999.25 -999.25  0.4678  0.8398  0.9369  0.0631  0.4352  0.1584 
  0.8779  0.8143  2.4169  0.0100  1.8580  10.079  138.33 -10.743  1.9240 
  1.9730  1.9660  0.4800  147.84  0.5686  1.9660  1.9230  1.9838  1.8569 
  2149.500 
  10.083  125.01  0.5960  0.4780  0.0180 -43.877  1.9320  1.9960  1.9430 
  139.15  68.253  3.0540  7.5260  1.5090 -999.25 -999.25 -999.25 -999.25 
 -999.25 -999.25 -999.25 -999.25 -999.25 -999.25  1.8560  0.5780 -999.25 
 -999.25 -999.25 -999.25  0.4060  0.7291  0.8988  0.1012  0.4243  0.3824 
  0.8527  0.8527  2.4197  0.0387  1.8613  10.079  134.53 -11.877  1.9320 
  1.9960  1.9430  0.4780  140.28  0.5660  1.9430  1.9310  2.0071  1.8639 
  2150.000 
  10.083  118.23  0.6050  0.4910  0.0130 -44.932  1.9620  2.0380  1.9760 
  136.92  68.267  3.0710  7.5210  0.6700 -999.25 -999.25 -999.25 -999.25 
 -999.25 -999.25 -999.25 -999.25 -999.25 -999.25  1.8600  0.5895 -999.25 
 -999.25 -999.25 -999.25  0.3981  0.7148  0.8892  0.1108  0.4276  0.4116 
  0.8475  0.8475  2.4188  0.0456  1.8399  10.081  129.46 -12.932  1.9620 
  2.0380  1.9760  0.4910  132.30  0.5787  1.9760  1.9609  2.0496  1.8679 
  2150.500 
  10.086  110.42  0.5530  0.5140  0.0010 -46.111  1.9690  2.0090  2.0020 
  130.69  68.261  3.1010  7.0210  0.6400 -999.25 -999.25 -999.25 -999.25 
 -999.25 -999.25 -999.25 -999.25 -999.25 -999.25  1.8484  0.6014 -999.25 
 -999.25 -999.25 -999.25  0.3763  0.6752  0.8546  0.1454  0.4443  0.4753 
  0.8282  0.8282  2.4091  0.0691  1.8019  10.083  125.93 -14.111  1.9690 
  2.0090  2.0020  0.5140  124.01  0.5917  2.0020  1.9679  2.0203  1.8564 
  2151.000 
  10.090  105.99  0.5360  0.5290 -0.0060 -46.857  1.9690  1.9910  1.9620 
  127.59  68.254  3.1670  6.9960  0.6540 -999.25 -999.25 -999.25 -999.25 
 -999.25 -999.25 -999.25 -999.25 -999.25 -999.25  1.8170  0.5737 -999.25 
 -999.25 -999.25 -999.25  0.3177  0.5694  0.7934  0.2066  0.4583  0.5841 
  0.8125  0.8125  2.3959  0.1207  1.7772  10.085  122.26 -14.857  1.9690 
  1.9910  1.9620  0.5290  117.93  0.5613  1.9620  1.9679  2.0021  1.8250 
  2151.500 
  10.089  105.51  0.5050  0.5370 -0.0050 -46.697  1.9770  1.9840  1.9520 
  123.51  68.123  3.2210  6.9910  0.6565 -999.25 -999.25 -999.25 -999.25 
 -999.25 -999.25 -999.25 -999.25 -999.25 -999.25  1.7869  0.5427 -999.25 
 -999.25 -999.25 -999.25  0.2125  0.3802  0.7112  0.2888  0.4566  0.7556 
  0.8454  0.8454  2.3737  0.2182  1.7640  10.088  120.14 -14.697  1.9770 
  1.9840  1.9520  0.5370  116.07  0.5273  1.9520  1.9759  1.9950  1.7949 
  2152.000 
  10.069  112.68  0.4740  0.5390 -0.0020 -46.341  1.9950  1.9880  1.9730 
  120.53  67.992  3.2450  6.9760  0.6590 -999.25 -999.25 -999.25 -999.25 
 -999.25 -999.25 -999.25 -999.25 -999.25 -999.25  1.7691  0.5171 -999.25 
 -999.25 -999.25 -999.25  0.1574  0.2814  0.5608  0.3234  0.4473  0.8384 
  0.8832  0.8832  2.3607  0.2711  1.7607  10.089  119.81 -14.341  1.9950 
  1.9880  1.9730  0.5390  121.50  0.4993  1.9730  1.9939  1.9991  1.7771 
  2152.500 
  10.053  119.45  0.4710  0.5360 -0.0010 -45.709  1.9990  1.9990  1.9840 
  119.63  68.234  3.2510  6.9760  0.6580 -999.25 -999.25 -999.25 -999.25 
 -999.25 -999.25 -999.25 -999.25 -999.25 -999.25  1.7619  0.4861 -999.25 
 -999.25 -999.25 -999.25  0.1644  0.2937  0.3522  0.3116  0.4409  0.8454 
  0.8908  0.8908  2.3546  0.2634  1.7656  10.077  121.47 -13.709  1.9990 
  1.9990  1.9840  0.5360  129.08  0.4652  1.9840  1.9979  2.0101  1.7699 
  2153.000 
  10.041  125.04  0.4850  0.5300  0.0000 -45.156  2.0170  2.0020  1.9840 
  120.03  68.225  3.2210  6.9750  0.6630 -999.25 -999.25 -999.25 -999.25 
 -999.25 -999.25 -999.25 -999.25 -999.25 -999.25  1.7637  0.4722 -999.25 
 -999.25 -999.25 -999.25  0.1914  0.3421  0.4102  0.2835  0.4341  0.8291 
  0.8884  0.8884  2.3562  0.2350  1.7755  10.059  124.91 -13.156  2.0170 
  2.0020  1.9840  0.5300  135.56  0.4499  1.9840  2.0159  2.0130  1.7715 
  2153.500 
  10.064  129.13  0.4970  0.5120  0.0010 -44.839  2.0320  2.0170  1.9850 
  123.17  68.218  3.1850  6.9800  0.6680 -999.25 -999.25 -999.25 -999.25 
 -999.25 -999.25 -999.25 -999.25 -999.25 -999.25  1.7717  0.4796 -999.25 
 -999.25 -999.25 -999.25  0.2190  0.3917  0.4694  0.2641  0.4368  0.7781 
  0.8658  0.8658  2.3658  0.2055  1.8052  10.046  128.20 -12.839  2.0320 
  2.0170  1.9850  0.5120  140.48  0.4581  1.9850  2.0308  2.0281  1.7794 
